time,roll,pitch,yaw,altitude,linear_velocity_x,linear_velocity_y,desired_roll,desired_pitch,desired_yaw,desired_altitude,desired_linear_velocity_x,desired_linear_velocity_y
0.004000000189989805,0.0,0.0,0.0,0.0,0.0,0.0,0.0,0.0,0,5,0,0
0.00800000037997961,0.0,0.0,0.0,0.06905829161405563,3.220294456696138e-05,1.8638242181623355e-05,-0.003944937824448157,-0.002171399846349724,0,5,0,0
0.012000000569969416,0.0,0.0,0.0,0.06795962899923325,3.216322511434555e-05,1.8624474250827916e-05,-0.00031731829175098684,-7.303843538607886e-05,0,5,0,0
0.01600000075995922,0.0,0.0,0.0,0.06711293011903763,0.002569167874753475,-0.00164444197434932,-0.31111100875755315,0.19367659170878207,0,5,0,0
0.020000000949949026,0.0,0.0,0.0,0.06610926985740662,0.002565984381362796,-0.0016432193806394935,-0.025314179669002037,0.006443136693838441,0,5,0,0
0.02400000113993883,0.0,0.0,0.0,0.06507459282875061,0.0050162700936198235,-0.0037349886260926723,-0.3258443483657139,0.25028074837079317,0,5,0,0
0.028000001329928637,0.0,0.0,0.0,0.06404799968004227,0.006737229414284229,-0.006558253429830074,-0.2610208957666789,0.34388279379297754,0,5,0,0
0.03200000151991844,0.0,0.0,0.0,0.06302999705076218,0.007206467911601067,-0.008021299727261066,-0.12491199032557906,0.19672965541176754,0,5,0,0
0.03600000170990825,0.0,0.0,0.0,0.06202191859483719,0.00738552026450634,-0.010345800779759884,-0.09407429940840653,0.3029661448867923,0,5,0,0
0.04000000189989805,-0.1269376745129713,0.01803587913833053,0.06256013658186432,0.06099339574575424,0.006909919437021017,-0.01111957523971796,-0.01568639564516279,0.13163119633388437,0,5,0,0
0.04400000208988786,-0.1269376745129713,0.01803587913833053,0.06256013658186432,0.05995853617787361,0.006101533304899931,-0.01072099432349205,0.02982116698871816,-0.0018273704996816867,0,5,0,0
0.04800000227987766,-0.1269376745129713,0.01803587913833053,0.06256013658186432,0.058905214071273804,0.004218554589897394,-0.009481579065322876,0.1695324894393644,-0.10135613471717074,0,5,0,0
0.05200000246986747,-0.1269376745129713,0.01803587913833053,0.06256013658186432,0.05786893144249916,0.0025373022072017193,-0.008314982987940311,0.16364471243412984,-0.09781040561719515,0,5,0,0
0.05600000265985727,-0.1458573936601745,0.09555810333117036,0.18811001921339585,0.05682016536593437,0.0011702955234795809,-0.005584873724728823,0.14195933110659886,-0.2846126640236442,0,5,0,0
0.06000000284984708,-0.1458573936601745,0.09555810333117036,0.18811001921339585,0.05575995147228241,-4.345682100392878e-05,-0.002404475351795554,0.13685584650237248,-0.34798600921185585,0,5,0,0
0.06400000303983688,-0.1458573936601745,0.09555810333117036,0.18811001921339585,0.05467447265982628,-0.0010178443044424057,0.0003352224885020405,0.11967361857467504,-0.3093667975404106,0,5,0,0
0.06800000322982669,-0.1458573936601745,0.09555810333117036,0.18811001921339585,0.05360754206776619,0.00011836658813990653,0.001974386628717184,-0.12913108045540753,-0.19211815725079046,0,5,0,0
0.0720000034198165,0.10710981112687289,-0.23900364988794098,0.3096880561136041,0.05251993238925934,0.0005038883537054062,0.0036057124380022287,-0.04853498466505702,-0.1977703020104406,0,5,0,0
0.0760000036098063,0.10710981112687289,-0.23900364988794098,0.3096880561136041,0.051410362124443054,0.0010630306787788868,0.004065829329192638,-0.0736612712064549,-0.06785953053872089,0,5,0,0
0.0800000037997961,0.10710981112687289,-0.23900364988794098,0.3096880561136041,0.050309352576732635,0.001639951835386455,0.002818305278196931,-0.08143453710970679,0.12923339860349498,0,5,0,0
0.08400000398978591,0.10710981112687289,-0.23900364988794098,0.3096880561136041,0.04927735775709152,0.0016330655198544264,0.0007897417526692152,-0.01569125581566929,0.2252126940367048,0,5,0,0
0.08800000417977571,0.18616646582026627,-0.7221296552236802,0.38217307451056826,0.048237867653369904,0.002175652887672186,-0.002026749076321721,-0.08293813750178418,0.32512533898003465,0,5,0,0
0.09200000436976552,0.18616646582026627,-0.7221296552236802,0.38217307451056826,0.047208625823259354,0.0022789090871810913,-0.0052276491187512875,-0.034551414791746005,0.3811875199660033,0,5,0,0
0.09600000455975533,0.18616646582026627,-0.7221296552236802,0.38217307451056826,0.04616827145218849,0.0022502478677779436,-0.008191518485546112,-0.019429494270143587,0.3663967073361379,0,5,0,0
0.10000000474974513,0.18616646582026627,-0.7221296552236802,0.38217307451056826,0.045176077634096146,0.001426242757588625,-0.010027093812823296,0.07828331731252237,0.24683000025480328,0,5,0,0
0.10400000493973494,0.09895503779548201,-0.5620059990702185,0.45154405317731794,0.04416881874203682,0.00094002386322245,-0.011736594140529633,0.04514230272364972,0.23951273261486064,0,5,0,0
0.10800000512972474,0.09895503779548201,-0.5620059990702185,0.45154405317731794,0.043143291026353836,0.00013909675180912018,-0.012419390492141247,0.08855591274173602,0.12676953273540242,0,5,0,0
0.11200000531971455,0.09895503779548201,-0.5620059990702185,0.45154405317731794,0.04211246594786644,-0.0008488419116474688,-0.011773847043514252,0.11947613520256398,-0.025222604253767954,0,5,0,0
0.11600000550970435,0.09895503779548201,-0.5620059990702185,0.45154405317731794,0.041088998317718506,-0.001979091903194785,-0.01017046719789505,0.1467934085886019,-0.1393683040572703,0,5,0,0
0.12000000569969416,0.14109577081330008,-0.14664029611392818,0.5463249478897048,0.04005837067961693,-0.0032365131191909313,-0.007698277942836285,0.173682150451377,-0.246979639129065,0,5,0,0
0.12400000588968396,0.14109577081330008,-0.14664029611392818,0.5463249478897048,0.03902874514460564,-0.0042700860649347305,-0.004824569448828697,0.1588451989085935,-0.3036338063741075,0,5,0,0
0.12800000607967377,0.14109577081330008,-0.14664029611392818,0.5463249478897048,0.037993423640728,-0.005043292883783579,-0.0019884551875293255,0.13729818311615277,-0.3107441401478373,0,5,0,0
0.13200000626966357,0.14109577081330008,-0.14664029611392818,0.5463249478897048,0.037004970014095306,-0.004686741158366203,-0.0014025241835042834,0.006646083848166173,-0.059938893686146126,0,5,0,0
0.13600000645965338,0.30488646924200363,-0.3202719237199298,0.6240342764925739,0.03600514680147171,-0.0047766948118805885,0.000727035163436085,0.057788937195341165,-0.24211705628803598,0,5,0,0
0.14000000664964318,0.30488646924200363,-0.3202719237199298,0.6240342764925739,0.03499237447977066,-0.004549073055386543,0.0018525139894336462,0.019796405477256238,-0.13366436438501336,0,5,0,0
0.144000006839633,0.30488646924200363,-0.3202719237199298,0.6240342764925739,0.03401043266057968,-0.004567084368318319,0.0015284819528460503,0.04762119860745226,0.03069805969989845,0,5,0,0
0.1480000070296228,0.30488646924200363,-0.3202719237199298,0.6240342764925739,0.03302592784166336,-0.003786155255511403,5.3557916544377804e-05,-0.05005979937406635,0.16607297112418412,0,5,0,0
0.1520000072196126,0.3593514568713438,-0.8252961356728188,0.6709954119282414,0.032040033489465714,-0.003241738537326455,-0.002354478696361184,-0.028888543251880512,0.280685928206831,0,5,0,0
0.1560000074096024,0.3593514568713438,-0.8252961356728188,0.6709954119282414,0.031065035611391068,-0.0030129714868962765,-0.005360499955713749,0.004341603311478943,0.359996147974725,0,5,0,0
0.1600000075995922,0.3593514568713438,-0.8252961356728188,0.6709954119282414,0.030098140239715576,-0.003040956100448966,-0.008874079212546349,0.033513308568123214,0.4311720347975637,0,5,0,0
0.16400000778958201,0.3593514568713438,-0.8252961356728188,0.6709954119282414,0.029179377481341362,-0.004032171797007322,-0.011185901239514351,0.1517986344376271,0.30524848713146374,0,5,0,0
0.16800000797957182,0.1920699886342041,-0.8823049352237302,0.6846357379511167,0.02825799584388733,-0.004409847315400839,-0.013609408400952816,0.08656270649050668,0.327539755390073,0,5,0,0
0.17200000816956162,0.1920699886342041,-0.8823049352237302,0.6846357379511167,0.027333516627550125,-0.005264010746032,-0.015103586949408054,0.14872186200384827,0.22900325419951428,0,5,0,0
0.17600000835955143,0.1920699886342041,-0.8823049352237302,0.6846357379511167,0.02641606144607067,-0.006216364912688732,-0.015283521264791489,0.16930678022511295,0.08190720271586326,0,5,0,0
0.18000000854954123,0.1920699886342041,-0.8823049352237302,0.6846357379511167,0.02550102211534977,-0.007910291664302349,-0.01427086815237999,0.269691944287229,-0.05627523890297341,0,5,0,0
0.18400000873953104,0.1113383870778978,-0.5168828147808397,0.7283328148702976,0.024586737155914307,-0.00941467471420765,-0.012316220439970493,0.2634347045773034,-0.17003865828841286,0,5,0,0
0.18800000892952085,0.1113383870778978,-0.5168828147808397,0.7283328148702976,0.02368130162358284,-0.010806954465806484,-0.009719193913042545,0.26477181832478414,-0.25267105153042385,0,5,0,0
0.19200000911951065,0.1113383870778978,-0.5168828147808397,0.7283328148702976,0.02278708852827549,-0.012003087438642979,-0.006675194017589092,0.25469544390170984,-0.3151155322165682,0,5,0,0
0.19600000930950046,0.1113383870778978,-0.5168828147808397,0.7283328148702976,0.0219406820833683,-0.012147081084549427,-0.006056910380721092,0.1377988646991993,-0.044681064049297614,0,5,0,0
0.20000000949949026,0.2921540862265681,-0.5268584079516948,0.7778158570428378,0.02109500765800476,-0.012678001075983047,-0.0034322934225201607,0.18666770362184334,-0.28088378230668287,0,5,0,0
0.20400000968948007,0.2921540862265681,-0.5268584079516948,0.7778158570428378,0.02024863101541996,-0.012818017974495888,-0.0015920718433335423,0.14412203998676015,-0.19999637170310136,0,5,0,0
0.20800000987946987,0.2921540862265681,-0.5268584079516948,0.7778158570428378,0.01944299414753914,-0.013308164663612843,-0.0010489302221685648,0.18844504604669673,-0.05624493240857271,0,5,0,0
0.21200001006945968,0.2921540862265681,-0.5268584079516948,0.7778158570428378,0.018655821681022644,-0.012517941184341908,-0.0017671238165348768,0.036531217212229794,0.08853228807362568,0,5,0,0
0.21600001025944948,0.43928036863926523,-0.988391325340657,0.7987153904424337,0.017873020842671394,-0.012105881236493587,-0.0035335710272192955,0.07498306711443553,0.21353508372171404,0,5,0,0
0.2200000104494393,0.43928036863926523,-0.988391325340657,0.7987153904424337,0.01710638776421547,-0.011924216523766518,-0.006119508761912584,0.09911450082821338,0.31608620105429397,0,5,0,0
0.2240000106394291,0.43928036863926523,-0.988391325340657,0.7987153904424337,0.01636415161192417,-0.012009053491055965,-0.00972777884453535,0.1299731298086717,0.44555501173439194,0,5,0,0
0.2280000108294189,0.43928036863926523,-0.988391325340657,0.7987153904424337,0.015670010820031166,-0.013216130435466766,-0.012362383306026459,0.26832760939683586,0.34658572212713473,0,5,0,0
0.2320000110194087,0.3576780013471376,-1.1782144353942872,0.7815050638616442,0.014986159279942513,-0.013553967699408531,-0.015349382534623146,0.17394905215226064,0.3982149669777236,0,5,0,0
0.2360000112093985,0.3576780013471376,-1.1782144353942872,0.7815050638616442,0.014318576082587242,-0.014446903951466084,-0.01764599420130253,0.2453617204408417,0.3297751670058994,0,5,0,0
0.2400000113993883,0.3576780013471376,-1.1782144353942872,0.7815050638616442,0.013664599508047104,-0.015348386019468307,-0.018728168681263924,0.25537478149717163,0.19752463551624155,0,5,0,0
0.24400001158937812,0.3576780013471376,-1.1782144353942872,0.7815050638616442,0.013061529025435448,-0.017508860677480698,-0.01901671104133129,0.4186582089936807,0.10944083581784375,0,5,0,0
0.24800001177936792,0.31047502168685526,-0.8074270796482438,0.7954200088502451,0.01246502622961998,-0.019129566848278046,-0.017888693138957024,0.3741872297368114,-0.054391324881427186,0,5,0,0
0.25200001196935773,0.31047502168685526,-0.8074270796482438,0.7954200088502451,0.01188279502093792,-0.020721765235066414,-0.01593100279569626,0.38695182029494146,-0.15552199701235153,0,5,0,0
0.25600001215934753,0.31047502168685526,-0.8074270796482438,0.7954200088502451,0.011317729018628597,-0.022303275763988495,-0.013066633604466915,0.4016180694956912,-0.2689494794067888,0,5,0,0
0.26000001234933734,0.31047502168685526,-0.8074270796482438,0.7954200088502451,0.010799547657370567,-0.022793883457779884,-0.012675232253968716,0.28385228863349826,0.007724204618114301,0,5,0,0
0.26400001253932714,0.4728799425818381,-0.5809416026981105,0.8366073955079205,0.010292978025972843,-0.023671042174100876,-0.009921102784574032,0.3361676742696835,-0.2690754033623547,0,5,0,0
0.26800001272931695,0.4728799425818381,-0.5809416026981105,0.8366073955079205,0.009800666011869907,-0.024097247049212456,-0.007634191308170557,0.2897552516900607,-0.2256427054930098,0,5,0,0
0.27200001291930676,0.4728799425818381,-0.5809416026981105,0.8366073955079205,0.009354999288916588,-0.02489679865539074,-0.00647215498611331,0.3398120253214943,-0.10372686875531248,0,5,0,0
0.27600001310929656,0.4728799425818381,-0.5809416026981105,0.8366073955079205,0.008956242352724075,-0.024084080010652542,-0.006709607783704996,0.15036224605588566,0.05468156397688667,0,5,0,0
0.28000001329928637,0.6990686156234177,-0.8614936021041888,0.8636722224466845,0.008566820062696934,-0.02382671646773815,-0.006928224582225084,0.21032324073663927,0.053453609115848816,0,5,0,0
0.28400001348927617,0.6990686156234177,-0.8614936021041888,0.8636722224466845,0.00819773692637682,-0.02366548776626587,-0.008244679309427738,0.2195829200437974,0.18224597636647422,0,5,0,0
0.288000013679266,0.6990686156234177,-0.8614936021041888,0.8636722224466845,0.007864216342568398,-0.023664437234401703,-0.011227527633309364,0.23764925260222283,0.3816735864516723,0,5,0,0
0.2920000138692558,0.6990686156234177,-0.8614936021041888,0.8636722224466845,0.007582414895296097,-0.024231309071183205,-0.014886957593262196,0.3072673895525364,0.4724624654341262,0,5,0,0
0.2960000140592456,0.755701023466898,-1.0258646114842513,0.8690157950534775,0.007323572412133217,-0.024596549570560455,-0.018615642562508583,0.28829530188751346,0.4952130710308473,0,5,0,0
0.3000000142492354,0.755701023466898,-1.0258646114842513,0.8690157950534775,0.007107182405889034,-0.02553560771048069,-0.022219181060791016,0.3623016502430442,0.49560157374632635,0,5,0,0
0.3040000144392252,0.755701023466898,-1.0258646114842513,0.8690157950534775,0.006909441202878952,-0.026508476585149765,-0.02500300481915474,0.37589766681513925,0.41457897213345807,0,5,0,0
0.308000014629215,0.755701023466898,-1.0258646114842513,0.8690157950534775,0.006753874942660332,-0.028042109683156013,-0.02715572714805603,0.4543872709906471,0.3522561277550576,0,5,0,0
0.3120000148192048,0.6959151796944819,-0.5001696503015036,0.8706023432811705,0.006610404700040817,-0.02928600274026394,-0.027686506509780884,0.43430073491879523,0.17197711768017965,0,5,0,0
0.3160000150091946,0.6959151796944819,-0.5001696503015036,0.8706023432811705,0.00648152269423008,-0.030392160639166832,-0.02710169553756714,0.42994005053473927,0.04419901125672758,0,5,0,0
0.3200000151991844,0.6959151796944819,-0.5001696503015036,0.8706023432811705,0.006367947906255722,-0.031414758414030075,-0.025311263278126717,0.4308409101991863,-0.09853435911708969,0,5,0,0
0.3240000153891742,0.6959151796944819,-0.5001696503015036,0.8706023432811705,0.006301321089267731,-0.031296953558921814,-0.02508516237139702,0.3014426845621178,0.07660871046955216,0,5,0,0
0.32800001557916403,0.7284542705395072,0.09318618208596359,0.8950696982111019,0.006258581764996052,-0.03146206960082054,-0.022740202024579048,0.3349979533532424,-0.17108823011815205,0,5,0,0
0.33200001576915383,0.7284542705395072,0.09318618208596359,0.8950696982111019,0.006243462674319744,-0.031225252896547318,-0.020269207656383514,0.2874872951243896,-0.19510238822176607,0,5,0,0
0.33600001595914364,0.7284542705395072,0.09318618208596359,0.8950696982111019,0.006272122263908386,-0.031257983297109604,-0.018473109230399132,0.3182136661471686,-0.12631665656897184,0,5,0,0
0.34000001614913344,0.7284542705395072,0.09318618208596359,0.8950696982111019,0.006347638554871082,-0.029623685404658318,-0.01887303963303566,0.11440111001468098,0.12238159182429861,0,5,0,0
0.34400001633912325,0.7070394720628909,0.1073431203188783,0.9291502717142683,0.006438838317990303,-0.02877761609852314,-0.017890579998493195,0.19468519498393808,-0.03702418111572216,0,5,0,0
0.34800001652911305,0.7070394720628909,0.1073431203188783,0.9291502717142683,0.006548716686666012,-0.028056994080543518,-0.017785994336009026,0.20165913084031056,0.06136097978844632,0,5,0,0
0.35200001671910286,0.7070394720628909,0.1073431203188783,0.9291502717142683,0.006698278710246086,-0.027628876268863678,-0.019186273217201233,0.23035098367544699,0.23630539549352786,0,5,0,0
0.35600001690909266,0.7070394720628909,0.1073431203188783,0.9291502717142683,0.00689039658755064,-0.02656583860516548,-0.021155908703804016,0.14835588509475145,0.3082873266895936,0,5,0,0
0.36000001709908247,0.515622473556537,-0.01947635514278459,0.9404658069190622,0.007106245495378971,-0.026320012286305428,-0.023987211287021637,0.23789706186619078,0.41660765009717027,0,5,0,0
0.3640000172890723,0.515622473556537,-0.01947635514278459,0.9404658069190622,0.007362879812717438,-0.026540804654359818,-0.027171555906534195,0.29266328326544583,0.4691274675092069,0,5,0,0
0.3680000174790621,0.515622473556537,-0.01947635514278459,0.9404658069190622,0.007643223740160465,-0.026828760281205177,-0.030476151034235954,0.30316309481673237,0.49594717231470126,0,5,0,0
0.3720000176690519,0.515622473556537,-0.01947635514278459,0.9404658069190622,0.007952183485031128,-0.027556676417589188,-0.0327163003385067,0.3600039471793015,0.3852361392081638,0,5,0,0
0.3760000178590417,0.34261671837164964,0.136703244289253,0.9061990645741683,0.008282461203634739,-0.028190424665808678,-0.03431963920593262,0.35581519976858195,0.3200906910736041,0,5,0,0
0.3800000180490315,0.34261671837164964,0.136703244289253,0.9061990645741683,0.008631882257759571,-0.02878541685640812,-0.03492528200149536,0.3574741504031492,0.21035628018318486,0,5,0,0
0.3840000182390213,0.34261671837164964,0.136703244289253,0.9061990645741683,0.00900968350470066,-0.028966890648007393,-0.03430815786123276,0.3128375911821006,0.07040884945837056,0,5,0,0
0.3880000184290111,0.34261671837164964,0.136703244289253,0.9061990645741683,0.009420975111424923,-0.028778858482837677,-0.03255242481827736,0.2694569206319729,-0.06462945235900122,0,5,0,0
0.3920000186190009,0.3933932659462605,0.450153447506987,0.8828793715904688,0.009860825724899769,-0.0284942165017128,-0.03032204881310463,0.2558102831648517,-0.1268755141722968,0,5,0,0
0.3960000188089907,0.3933932659462605,0.450153447506987,0.8828793715904688,0.010336190462112427,-0.02784007601439953,-0.027891548350453377,0.20776711450553453,-0.15904457670065747,0,5,0,0
0.4000000189989805,0.3933932659462605,0.450153447506987,0.8828793715904688,0.010846640914678574,-0.02693338319659233,-0.025595273822546005,0.17035269061914193,-0.1530678292107398,0,5,0,0
0.4040000191889703,0.3933932659462605,0.450153447506987,0.8828793715904688,0.011409591883420944,-0.025831913575530052,-0.024939803406596184,0.13748760167863106,0.028960598484127992,0,5,0,0
0.40800001937896013,0.4968181857325949,0.10167420382966065,0.8901801816677822,0.011995868757367134,-0.02530527487397194,-0.023897459730505943,0.19695042269826302,-0.018674662012709786,0,5,0,0
0.41200001956894994,0.4968181857325949,0.10167420382966065,0.8901801816677822,0.012604665011167526,-0.024826621636748314,-0.023797908797860146,0.19762183870200634,0.08704842784025636,0,5,0,0
0.41600001975893974,0.4968181857325949,0.10167420382966065,0.8901801816677822,0.013261168263852596,-0.02479933202266693,-0.024788767099380493,0.24818686615253135,0.21374238710733198,0,5,0,0
0.42000001994892955,0.4968181857325949,0.10167420382966065,0.8901801816677822,0.013979609124362469,-0.02508307248353958,-0.02672094665467739,0.2860753519084287,0.3274338716234834,0,5,0,0
0.42400002013891935,0.4269282281794956,-0.5160664765460802,0.863706967827925,0.014730087481439114,-0.025141481310129166,-0.029279250651597977,0.26136997207954116,0.4081763541530593,0,5,0,0
0.42800002032890916,0.4269282281794956,-0.5160664765460802,0.863706967827925,0.015517682768404484,-0.025476355105638504,-0.032100506126880646,0.29588216081598423,0.4491204571832167,0,5,0,0
0.43200002051889896,0.4269282281794956,-0.5160664765460802,0.863706967827925,0.016339950263500214,-0.02601551078259945,-0.034908778965473175,0.3243178653861706,0.45897678305281475,0,5,0,0
0.43600002070888877,0.4269282281794956,-0.5160664765460802,0.863706967827925,0.017210310325026512,-0.026242027059197426,-0.03730395808815956,0.291474078149827,0.4221739882151343,0,5,0,0
0.4400000208988786,0.36704151613461933,-0.48113234759762374,0.789926820175248,0.018107475712895393,-0.02694554440677166,-0.039241377264261246,0.3522365388712086,0.3785198526846929,0,5,0,0
0.4440000210888684,0.36704151613461933,-0.48113234759762374,0.789926820175248,0.019030088558793068,-0.027833865955471992,-0.04016195237636566,0.3819770272788696,0.267903590057168,0,5,0,0
0.4480000212788582,0.36704151613461933,-0.48113234759762374,0.789926820175248,0.019978944212198257,-0.02877766080200672,-0.04007881134748459,0.3977247878433723,0.154749154595899,0,5,0,0
0.452000021468848,0.36704151613461933,-0.48113234759762374,0.789926820175248,0.02096574380993843,-0.0296601802110672,-0.03861762210726738,0.3997276799814345,-0.006033336479275869,0,5,0,0
0.4560000216588378,0.4143520305546038,-0.13149551588446814,0.7399001100652741,0.021987194195389748,-0.030393198132514954,-0.03653811663389206,0.39031188631731895,-0.08382423981502832,0,5,0,0
0.4600000218488276,0.4143520305546038,-0.13149551588446814,0.7399001100652741,0.02304408699274063,-0.030909227207303047,-0.03405974060297012,0.37113511512428093,-0.1385289361500305,0,5,0,0
0.4640000220388174,0.4143520305546038,-0.13149551588446814,0.7399001100652741,0.024146422743797302,-0.031030021607875824,-0.03165004029870033,0.32795363244810355,-0.14036575838538476,0,5,0,0
0.4680000222288072,0.4143520305546038,-0.13149551588446814,0.7399001100652741,0.025299906730651855,-0.030595192685723305,-0.030895249918103218,0.26117115085486864,0.0428665862657782,0,5,0,0
0.472000022418797,0.5887817677592376,-0.30957721465910887,0.7421236958350639,0.02648344077169895,-0.03079751692712307,-0.02970637008547783,0.33494803480802976,-0.010652698806771804,0,5,0,0
0.4760000226087868,0.5887817677592376,-0.30957721465910887,0.7421236958350639,0.027695728465914726,-0.03084680438041687,-0.029481394216418266,0.31829830383082247,0.09695734381704033,0,5,0,0
0.4800000227987766,0.5887817677592376,-0.30957721465910887,0.7421236958350639,0.028964417055249214,-0.03115134686231613,-0.03042328730225563,0.35013468124000424,0.23207068324416646,0,5,0,0
0.48400002298876643,0.5887817677592376,-0.30957721465910887,0.7421236958350639,0.030278010293841362,-0.03114195726811886,-0.032387908548116684,0.31479816911564934,0.35506381174957313,0,5,0,0
0.48800002317875624,0.6173217523982029,-0.823011244065255,0.7262888549596466,0.0316304937005043,-0.031031915917992592,-0.03492480143904686,0.3024489102119444,0.42967575985309264,0,5,0,0
0.49200002336874604,0.6173217523982029,-0.823011244065255,0.7262888549596466,0.033027783036231995,-0.031092191115021706,-0.0378173291683197,0.32228689408935607,0.4813455497777273,0,5,0,0
0.49600002355873585,0.6173217523982029,-0.823011244065255,0.7262888549596466,0.03446798771619797,-0.0313180647790432,-0.04091848060488701,0.34325062074038404,0.5173185258379669,0,5,0,0
0.5000000237487257,0.6173217523982029,-0.823011244065255,0.7262888549596466,0.03595630079507828,-0.0313858725130558,-0.04328339174389839,0.32622160789673876,0.4440550209981632,0,5,0,0
0.5040000239387155,0.4823783646898133,-0.7677280120393677,0.6802890917987022,0.03747803345322609,-0.03184686601161957,-0.04554097726941109,0.3751413717754668,0.44112053050574,0,5,0,0
0.5080000241287053,0.4823783646898133,-0.7677280120393677,0.6802890917987022,0.03903217241168022,-0.03272054344415665,-0.04684879630804062,0.43038361577566986,0.33961551907742416,0,5,0,0
0.5120000243186951,0.4823783646898133,-0.7677280120393677,0.6802890917987022,0.040620286017656326,-0.03375198692083359,-0.04714328795671463,0.45852773443761424,0.22690730361327172,0,5,0,0
0.5160000245086849,0.4823783646898133,-0.7677280120393677,0.6802890917987022,0.0422540046274662,-0.03511146828532219,-0.04594272002577782,0.5091110762363411,0.05402109970540131,0,5,0,0
0.5200000246986747,0.4056997756515043,-0.3563396976641146,0.6510647948012199,0.04392682760953903,-0.03650296479463577,-0.04412757232785225,0.5267153520708838,-0.022273805409934455,0,5,0,0
0.5240000248886645,0.4056997756515043,-0.3563396976641146,0.6510647948012199,0.04564015194773674,-0.03780224174261093,-0.04183412715792656,0.529424146777326,-0.0851556472239382,0,5,0,0
0.5280000250786543,0.4056997756515043,-0.3563396976641146,0.6510647948012199,0.047407448291778564,-0.03874237462878227,-0.03940269351005554,0.49851475230870834,-0.11031051837801956,0,5,0,0
0.5320000252686441,0.4056997756515043,-0.3563396976641146,0.6510647948012199,0.04922221228480339,-0.037860870361328125,-0.03926204890012741,0.28485640567833326,0.1469348866319321,0,5,0,0
0.5360000254586339,0.5795678750283847,-0.46063465797858294,0.6677708810153725,0.05107257887721062,-0.03842669725418091,-0.03754448518157005,0.4534316464854207,-0.03724865276816078,0,5,0,0
0.5400000256486237,0.5795678750283847,-0.46063465797858294,0.6677708810153725,0.05295678973197937,-0.038803581148386,-0.036655493080616,0.436037527688396,0.05249765456852466,0,5,0,0
0.5440000258386135,0.5795678750283847,-0.46063465797858294,0.6677708810153725,0.05489064007997513,-0.03944464400410652,-0.036969538778066635,0.47226295515456246,0.1891843101477489,0,5,0,0
0.5480000260286033,0.5795678750283847,-0.46063465797858294,0.6677708810153725,0.05686281993985176,-0.03922629356384277,-0.03806349262595177,0.3734896026549627,0.28139114068240095,0,5,0,0
0.5520000262185931,0.6837395956141643,-0.9913885383126271,0.6709417074815043,0.05887612700462341,-0.039292726665735245,-0.040141984820365906,0.4062863831932087,0.40056200895187133,0,5,0,0
0.5560000264085829,0.6837395956141643,-0.9913885383126271,0.6709417074815043,0.06093983352184296,-0.03953947499394417,-0.042843181639909744,0.42913422321688377,0.48152388687055847,0,5,0,0
0.5600000265985727,0.6837395956141643,-0.9913885383126271,0.6709417074815043,0.06304900348186493,-0.039813194423913956,-0.046204824000597,0.43500121799171565,0.569381467745744,0,5,0,0
0.5640000267885625,0.6837395956141643,-0.9913885383126271,0.6709417074815043,0.06520626693964005,-0.04016794264316559,-0.04876338317990303,0.4477608416123877,0.4893858829740161,0,5,0,0
0.5680000269785523,0.6476432508141183,-1.1632015798583637,0.6268134363864583,0.06740538775920868,-0.040717147290706635,-0.05165297910571098,0.47522695638942564,0.5383098660455734,0,5,0,0
0.5720000271685421,0.6476432508141183,-1.1632015798583637,0.6268134363864583,0.06964752078056335,-0.041761498898267746,-0.0538439080119133,0.541474730423611,0.4686027710834164,0,5,0,0
0.576000027358532,0.6476432508141183,-1.1632015798583637,0.6268134363864583,0.07192868739366531,-0.04287603870034218,-0.055011019110679626,0.5606192024498244,0.35822374406480206,0,5,0,0
0.5800000275485218,0.6476432508141183,-1.1632015798583637,0.6268134363864583,0.0742880329489708,-0.0452108271420002,-0.05514005571603775,0.7213535582894992,0.2420888516647285,0,5,0,0
0.5840000277385116,0.5992489104352705,-0.8301469517993506,0.5890177592295669,0.07668734341859818,-0.04696901515126228,-0.054047591984272,0.6741806184603377,0.10042992956519527,0,5,0,0
0.5880000279285014,0.5992489104352705,-0.8301469517993506,0.5890177592295669,0.07913044840097427,-0.04867378994822502,-0.052268996834754944,0.6853361974331244,0.016251213734783998,0,5,0,0
0.5920000281184912,0.5992489104352705,-0.8301469517993506,0.5890177592295669,0.08162713795900345,-0.0502408929169178,-0.049780894070863724,0.6856397253240538,-0.0734013259952015,0,5,0,0
0.596000028308481,0.5992489104352705,-0.8301469517993506,0.5890177592295669,0.08417171239852905,-0.0498698428273201,-0.04962465539574623,0.46400670335531735,0.18842751600975008,0,5,0,0
0.6000000284984708,0.7506671000528922,-0.667670533762475,0.5915713409221217,0.08675771206617355,-0.05082201585173607,-0.047740641981363297,0.6225129996992589,-0.01336860903664605,0,5,0,0
0.6040000286884606,0.7506671000528922,-0.667670533762475,0.5915713409221217,0.08938603848218918,-0.051462747156620026,-0.04643719270825386,0.5940066315639667,0.04684250592975511,0,5,0,0
0.6080000288784504,0.7506671000528922,-0.667670533762475,0.5915713409221217,0.09206589311361313,-0.05243178829550743,-0.04626590013504028,0.6407577338218033,0.1736359964911456,0,5,0,0
0.6120000290684402,0.7506671000528922,-0.667670533762475,0.5915713409221217,0.0948009267449379,-0.05209340527653694,-0.04689083620905876,0.4904137170378599,0.26582399735845447,0,5,0,0
0.61600002925843,0.9318007811014181,-1.0225718489668112,0.5943958918428128,0.0975775346159935,-0.05223104730248451,-0.04858645796775818,0.5454683068264751,0.39317522570334956,0,5,0,0
0.6200000294484198,0.9318007811014181,-1.0225718489668112,0.5943958918428128,0.10040672868490219,-0.05250776931643486,-0.05106982961297035,0.5640080435254673,0.4918531379044637,0,5,0,0
0.6240000296384096,0.9318007811014181,-1.0225718489668112,0.5943958918428128,0.10328952968120575,-0.05276576802134514,-0.05464373901486397,0.5646082962568757,0.6289654122913171,0,5,0,0
0.6280000298283994,0.9318007811014181,-1.0225718489668112,0.5943958918428128,0.10622253268957138,-0.053649257868528366,-0.05822383984923363,0.6439397031171262,0.6441220889715422,0,5,0,0
0.6320000300183892,0.9577422612498905,-1.238960197895826,0.5579204153276545,0.10920344293117523,-0.05429883673787117,-0.06147603690624237,0.6242508252677619,0.6203892464941987,0,5,0,0
0.636000030208379,0.9577422612498905,-1.238960197895826,0.5579204153276545,0.11224017292261124,-0.05539445951581001,-0.06421773880720139,0.6855199370899381,0.57407947435071,0,5,0,0
0.6400000303983688,0.9577422612498905,-1.238960197895826,0.5579204153276545,0.11531827598810196,-0.05646960437297821,-0.06584860384464264,0.6941031467412778,0.45579182994717604,0,5,0,0
0.6440000305883586,0.9577422612498905,-1.238960197895826,0.5579204153276545,0.11845652014017105,-0.05827954784035683,-0.06681256741285324,0.7950072920588274,0.3847816226645405,0,5,0,0
0.6480000307783484,0.9450456729408864,-0.8397162048175899,0.5183102420489669,0.12163576483726501,-0.05967346206307411,-0.0664309710264206,0.7622863628003911,0.23203918374943036,0,5,0,0
0.6520000309683383,0.9450456729408864,-0.8397162048175899,0.5183102420489669,0.12486264109611511,-0.060965750366449356,-0.06533525139093399,0.7639226482590274,0.1474742481155913,0,5,0,0
0.6560000311583281,0.9450456729408864,-0.8397162048175899,0.5183102420489669,0.12813487648963928,-0.062281787395477295,-0.06347616761922836,0.7799042263551834,0.05431179459265856,0,5,0,0
0.6600000313483179,0.9450456729408864,-0.8397162048175899,0.5183102420489669,0.13145411014556885,-0.061730630695819855,-0.06361212581396103,0.5644815283794914,0.2794505070446691,0,5,0,0
0.6640000315383077,1.0514820356316201,-0.5183335750414031,0.5207736841736429,0.13481752574443817,-0.0624920092523098,-0.06215297430753708,0.7199055040768172,0.09431323530768687,0,5,0,0
0.6680000317282975,1.0514820356316201,-0.5183335750414031,0.5207736841736429,0.13822650909423828,-0.06307131052017212,-0.06102623790502548,0.7053661939101942,0.12734945008946114,0,5,0,0
0.6720000319182873,1.0514820356316201,-0.5183335750414031,0.5207736841736429,0.14168725907802582,-0.06404271721839905,-0.06091521307826042,0.7593458222419056,0.24131909414480074,0,5,0,0
0.6760000321082771,1.0514820356316201,-0.5183335750414031,0.5207736841736429,0.14519527554512024,-0.06303300708532333,-0.06249581277370453,0.5265243671998159,0.4380992325937565,0,5,0,0
0.6800000322982669,1.137175167703682,-0.7080879520381042,0.5328849502168392,0.1487450748682022,-0.06370136886835098,-0.0631968304514885,0.7221439499175512,0.3421020034184281,0,5,0,0
0.6840000324882567,1.137175167703682,-0.7080879520381042,0.5328849502168392,0.1523476541042328,-0.06453275680541992,-0.06461604684591293,0.7489531493704508,0.42873129930030673,0,5,0,0
0.6880000326782465,1.137175167703682,-0.7080879520381042,0.5328849502168392,0.15600073337554932,-0.0653417631983757,-0.06722867488861084,0.7546821099459978,0.5736019643523088,0,5,0,0
0.6920000328682363,1.137175167703682,-0.7080879520381042,0.5328849502168392,0.15970684587955475,-0.06597476452589035,-0.06976304948329926,0.7413698937418765,0.5751033815748516,0,5,0,0
0.6960000330582261,1.1048338729654528,-0.8418134989416198,0.5016217246263756,0.16346120834350586,-0.06650913506746292,-0.07271981239318848,0.7357772581978919,0.6346236439755161,0,5,0,0
0.7000000332482159,1.1048338729654528,-0.8418134989416198,0.5016217246263756,0.16727514564990997,-0.0671868622303009,-0.07570687681436539,0.7588433974296213,0.6501625180311583,0,5,0,0
0.7040000334382057,1.1048338729654528,-0.8418134989416198,0.5016217246263756,0.17113035917282104,-0.06746912002563477,-0.07826760411262512,0.717337599547675,0.612630345432924,0,5,0,0
0.7080000336281955,1.1048338729654528,-0.8418134989416198,0.5016217246263756,0.17505984008312225,-0.06829981505870819,-0.08031055331230164,0.7875076557574825,0.5627448542448502,0,5,0,0
0.7120000338181853,1.107479552185628,-0.49297207624218675,0.42767127439800484,0.1790313571691513,-0.0686505064368248,-0.08136611431837082,0.7371789221441626,0.456081210448014,0,5,0,0
0.7160000340081751,1.107479552185628,-0.49297207624218675,0.42767127439800484,0.18304555118083954,-0.06887946277856827,-0.08175252377986908,0.7259386053386263,0.3825435091717557,0,5,0,0
0.7200000341981649,1.107479552185628,-0.49297207624218675,0.42767127439800484,0.18710383772850037,-0.06908860802650452,-0.0811789333820343,0.7259671225376755,0.2724439979845443,0,5,0,0
0.7240000343881547,1.107479552185628,-0.49297207624218675,0.42767127439800484,0.1912146955728531,-0.06764450669288635,-0.08041968941688538,0.5256982244344583,0.24871400405690777,0,5,0,0
0.7280000345781446,1.1115245417259434,-0.06050082634180873,0.393071863824435,0.1953706443309784,-0.0679205060005188,-0.07977136969566345,0.7221325396823262,0.2587911533174513,0,5,0,0
0.7320000347681344,1.1115245417259434,-0.06050082634180873,0.393071863824435,0.19957642257213593,-0.06823328137397766,-0.0791531503200531,0.7295613605089507,0.25989453210526275,0,5,0,0
0.7360000349581242,1.1115245417259434,-0.06050082634180873,0.393071863824435,0.20383869111537933,-0.06880764663219452,-0.07928427308797836,0.7648990120883589,0.34491029258508743,0,5,0,0
0.740000035148114,1.1115245417259434,-0.06050082634180873,0.393071863824435,0.20815451443195343,-0.06771586835384369,-0.07973955571651459,0.5667026084357305,0.3833907806286388,0,5,0,0
0.7440000353381038,0.9738318727603352,-0.2154325622528488,0.37827585606390035,0.21251249313354492,-0.06819909065961838,-0.07987350970506668,0.7488860666169982,0.3479688227340374,0,5,0,0
0.7480000355280936,0.9738318727603352,-0.2154325622528488,0.37827585606390035,0.21691924333572388,-0.06894855201244354,-0.08057478815317154,0.7864980480484796,0.41479131469541825,0,5,0,0
0.7520000357180834,0.9738318727603352,-0.2154325622528488,0.37827585606390035,0.22138352692127228,-0.06959281861782074,-0.08244042098522186,0.7812733283490754,0.553441565015562,0,5,0,0
0.7560000359080732,0.9738318727603352,-0.2154325622528488,0.37827585606390035,0.22590546309947968,-0.07027599960565567,-0.083753302693367,0.7926516684530467,0.49670960129842623,0,5,0,0
0.760000036098063,0.693499150767555,-0.571573491474221,0.3201563044494995,0.2304743528366089,-0.07081529498100281,-0.08582736551761627,0.7820274482865157,0.5908447097768205,0,5,0,0
0.7640000362880528,0.693499150767555,-0.571573491474221,0.3201563044494995,0.23510202765464783,-0.07144052535295486,-0.08810893446207047,0.7981188959338901,0.6235268844216428,0,5,0,0
0.7680000364780426,0.693499150767555,-0.571573491474221,0.3201563044494995,0.23977382481098175,-0.07147415727376938,-0.0901319608092308,0.7320719305358507,0.6027492657124551,0,5,0,0
0.7720000366680324,0.693499150767555,-0.571573491474221,0.3201563044494995,0.24450941383838654,-0.07146662473678589,-0.09236695617437363,0.7275371237912162,0.6357574412687549,0,5,0,0
0.7760000368580222,0.5695104288883198,-0.5952213306727766,0.22494834536550115,0.24928899109363556,-0.07188104838132858,-0.0935724675655365,0.7793239429279408,0.5249871191944955,0,5,0,0
0.780000037048012,0.5695104288883198,-0.5952213306727766,0.22494834536550115,0.2541126310825348,-0.07223337143659592,-0.09414071589708328,0.7760342176186503,0.4557939594479487,0,5,0,0
0.7840000372380018,0.5695104288883198,-0.5952213306727766,0.22494834536550115,0.2589802145957947,-0.07277097553014755,-0.09374172985553741,0.8024290247206761,0.34560913363956236,0,5,0,0
0.7880000374279916,0.5695104288883198,-0.5952213306727766,0.22494834536550115,0.2638923227787018,-0.07309292256832123,-0.09230982512235641,0.7815625005472439,0.22389971100806524,0,5,0,0
0.7920000376179814,0.4729752277462682,-0.3974393551863334,0.17939724279201438,0.26884976029396057,-0.07347062230110168,-0.09076264500617981,0.7917880052222966,0.20496034093068416,0,5,0,0
0.7960000378079712,0.4729752277462682,-0.3974393551863334,0.17939724279201438,0.27385783195495605,-0.0737619549036026,-0.0890256017446518,0.7851620582525342,0.17686622650140071,0,5,0,0
0.800000037997961,0.4729752277462682,-0.3974393551863334,0.17939724279201438,0.2789185047149658,-0.0740213692188263,-0.08758852630853653,0.7843430455512009,0.20507451598613216,0,5,0,0
0.8040000381879508,0.4729752277462682,-0.3974393551863334,0.17939724279201438,0.2840290665626526,-0.07413021475076675,-0.08643408864736557,0.7686704260796527,0.2324609553350248,0,5,0,0
0.8080000383779407,0.5059954072301908,-0.5913554134768952,0.2045398225636993,0.2891828119754791,-0.07457631826400757,-0.08614493906497955,0.81125196547856,0.32885600910872786,0,5,0,0
0.8120000385679305,0.5059954072301908,-0.5913554134768952,0.2045398225636993,0.2943802773952484,-0.0751601904630661,-0.08666970580816269,0.8327700483531559,0.42272866566267775,0,5,0,0
0.8160000387579203,0.5059954072301908,-0.5913554134768952,0.2045398225636993,0.29962149262428284,-0.07574328780174255,-0.08803245425224304,0.8386956338504353,0.5226638742124523,0,5,0,0
0.8200000389479101,0.5059954072301908,-0.5913554134768952,0.2045398225636993,0.30492833256721497,-0.07689154148101807,-0.09009043127298355,0.9139427956490124,0.6093252105000787,0,5,0,0
0.8240000391378999,0.5709547529722213,-1.0083295773105172,0.20778307338145152,0.31028643250465393,-0.07766448706388474,-0.09245338290929794,0.8796364874149356,0.6533085477972991,0,5,0,0
0.8280000393278897,0.5709547529722213,-1.0083295773105172,0.20778307338145152,0.31569674611091614,-0.07847702503204346,-0.09496354311704636,0.8924043550993411,0.6801380646423225,0,5,0,0
0.8320000395178795,0.5709547529722213,-1.0083295773105172,0.20778307338145152,0.3211592137813568,-0.07928670197725296,-0.09710605442523956,0.9003695475787205,0.647580665181343,0,5,0,0
0.8360000397078693,0.5709547529722213,-1.0083295773105172,0.20778307338145152,0.3266719579696655,-0.08037980645895004,-0.09904780983924866,0.9433791002807237,0.6330003645693035,0,5,0,0
0.8400000398978591,0.6995606535976492,-0.8760824776183751,0.1688793972562257,0.3322288393974304,-0.08104211837053299,-0.10009675472974777,0.9017325586539647,0.5369951972298892,0,5,0,0
0.8440000400878489,0.6995606535976492,-0.8760824776183751,0.1688793972562257,0.3378286063671112,-0.08158964663743973,-0.10037542879581451,0.8944904970715314,0.45169533090197994,0,5,0,0
0.8480000402778387,0.6995606535976492,-0.8760824776183751,0.1688793972562257,0.34347182512283325,-0.08221067488193512,-0.0998462587594986,0.9091668322315526,0.35893582458775675,0,5,0,0
0.8520000404678285,0.6995606535976492,-0.8760824776183751,0.1688793972562257,0.34918275475502014,-0.08249473571777344,-0.09919474273920059,0.8742965962917143,0.342803905356213,0,5,0,0
0.8560000406578183,0.8864830089385619,-0.5035624922535398,0.15713700434116976,0.3549404740333557,-0.08299582451581955,-0.09792716056108475,0.9039223188491704,0.268661162377679,0,5,0,0
0.8600000408478081,0.8864830089385619,-0.5035624922535398,0.15713700434116976,0.3607460558414459,-0.08346427977085114,-0.09662116318941116,0.9051359122656926,0.259347354623678,0,5,0,0
0.8640000410377979,0.8864830089385619,-0.5035624922535398,0.15713700434116976,0.36659476161003113,-0.08405909687280655,-0.09572800993919373,0.9255015322310445,0.30244945031537385,0,5,0,0
0.8680000412277877,0.8864830089385619,-0.5035624922535398,0.15713700434116976,0.3724970519542694,-0.08398893475532532,-0.09658313542604446,0.8501913258758884,0.5027831003771163,0,5,0,0
0.8720000414177775,0.9759918375987093,-0.6113257482989574,0.18110539408462467,0.3784419000148773,-0.08493771404027939,-0.09690385311841965,0.974513871578104,0.44417766638223594,0,5,0,0
0.8760000416077673,0.9759918375987093,-0.6113257482989574,0.18110539408462467,0.384431391954422,-0.08590876311063766,-0.0978538990020752,0.9869358940619208,0.519012117441867,0,5,0,0
0.8800000417977571,0.9759918375987093,-0.6113257482989574,0.18110539408462467,0.3904884457588196,-0.08711140602827072,-0.09971098601818085,1.025225697203549,0.6287218944379956,0,5,0,0
0.884000041987747,0.9759918375987093,-0.6113257482989574,0.18110539408462467,0.3965913951396942,-0.08770117163658142,-0.10175102204084396,0.9623851420847033,0.6577080032532786,0,5,0,0
0.8880000421777368,1.0218343083092183,-0.8591098521565871,0.17332961725441745,0.4027423858642578,-0.08813591301441193,-0.10417145490646362,0.9495038569636343,0.7104343890193823,0,5,0,0
0.8920000423677266,1.0218343083092183,-0.8591098521565871,0.17332961725441745,0.40894725918769836,-0.08850465714931488,-0.10661446303129196,0.9459790200232154,0.7230020127824706,0,5,0,0
0.8960000425577164,1.0218343083092183,-0.8591098521565871,0.17332961725441745,0.41519665718078613,-0.08854871988296509,-0.10905122756958008,0.9101055083915197,0.7323083904418086,0,5,0,0
0.9000000427477062,1.0218343083092183,-0.8591098521565871,0.17332961725441745,0.42150962352752686,-0.08909869939088821,-0.11102557182312012,0.9727347747618015,0.6884499492777674,0,5,0,0
0.904000042937696,1.0755018726668593,-0.6697127741771766,0.11524156125124285,0.42786502838134766,-0.0891178771853447,-0.11230309307575226,0.913425245693092,0.615436977845789,0,5,0,0
0.9080000431276858,1.0755018726668593,-0.6697127741771766,0.11524156125124285,0.43426328897476196,-0.08922568708658218,-0.11300300806760788,0.9246885979039066,0.5535271437945146,0,5,0,0
0.9120000433176756,1.0755018726668593,-0.6697127741771766,0.11524156125124285,0.44070523977279663,-0.08936500549316406,-0.1128733679652214,0.9298409646759754,0.4599545358114133,0,5,0,0
0.9160000435076654,1.0755018726668593,-0.6697127741771766,0.11524156125124285,0.44722649455070496,-0.08929985016584396,-0.11270478367805481,0.9064004370819775,0.45516946957675514,0,5,0,0
0.9200000436976552,1.0651452737974372,-0.29587728389927676,0.08492594863193746,0.45379146933555603,-0.0897679552435875,-0.11195763200521469,0.9712887236824315,0.3873607334182517,0,5,0,0
0.924000043887645,1.0651452737974372,-0.29587728389927676,0.08492594863193746,0.46040329337120056,-0.0902971625328064,-0.11122629791498184,0.9836715082394745,0.38648181814379257,0,5,0,0
0.9280000440776348,1.0651452737974372,-0.29587728389927676,0.08492594863193746,0.4670567512512207,-0.09109742939472198,-0.11077313870191574,1.0223870111795426,0.41622970903188217,0,5,0,0
0.9320000442676246,1.0651452737974372,-0.29587728389927676,0.08492594863193746,0.4737595021724701,-0.09020158648490906,-0.11119791865348816,0.8228327256429013,0.5169638551862141,0,5,0,0
0.9360000444576144,1.0123964146830313,-0.4098558943327275,0.1000481488664271,0.48050346970558167,-0.09084690362215042,-0.11126233637332916,1.0028844266528403,0.4769478065413554,0,5,0,0
0.9400000446476042,1.0123964146830313,-0.4098558943327275,0.1000481488664271,0.4872902035713196,-0.09161992371082306,-0.11191403865814209,1.025201096720559,0.5458927198073522,0,5,0,0
0.944000044837594,1.0123964146830313,-0.4098558943327275,0.1000481488664271,0.49413540959358215,-0.09256286174058914,-0.11380396038293839,1.0539683953620111,0.6930252166061786,0,5,0,0
0.9480000450275838,1.0123964146830313,-0.4098558943327275,0.1000481488664271,0.5010366439819336,-0.09336750209331512,-0.115284264087677,1.0466803929769155,0.6531410886043751,0,5,0,0
0.9520000452175736,0.928979680033533,-0.7207881893860952,0.08328401367308066,0.5079835057258606,-0.09403018653392792,-0.11755070090293884,1.0375628704872462,0.7509289282941791,0,5,0,0
0.9560000454075634,0.928979680033533,-0.7207881893860952,0.08328401367308066,0.5149903297424316,-0.09478817880153656,-0.12000937014818192,1.0560924148310207,0.782677775122889,0,5,0,0
0.9600000455975533,0.928979680033533,-0.7207881893860952,0.08328401367308066,0.5220382809638977,-0.09493224322795868,-0.12236644327640533,0.9886940176368275,0.7809701844917591,0,5,0,0
0.9640000457875431,0.928979680033533,-0.7207881893860952,0.08328401367308066,0.5291387438774109,-0.09495257586240768,-0.12494853138923645,0.9752054042383923,0.8169125979986678,0,5,0,0
0.9680000459775329,0.9773422564626669,-0.6545901106661199,0.01780768332645283,0.536281168460846,-0.09536822140216827,-0.12655527889728546,1.024063443113448,0.7139175078883535,0,5,0,0
0.9720000461675227,0.9773422564626669,-0.6545901106661199,0.01780768332645283,0.5434650778770447,-0.09574052691459656,-0.1275811791419983,1.0231405226699413,0.6529819896901046,0,5,0,0
0.9760000463575125,0.9773422564626669,-0.6545901106661199,0.01780768332645283,0.5506909489631653,-0.09623660147190094,-0.12769141793251038,1.042256252984694,0.5507174955649663,0,5,0,0
0.9800000465475023,0.9773422564626669,-0.6545901106661199,0.01780768332645283,0.5579783320426941,-0.09632470458745956,-0.12712886929512024,0.9974716784258529,0.47308382827222073,0,5,0,0
0.9840000467374921,0.9891465414473716,-0.3401355016057406,-0.0073365045499380254,0.5653072595596313,-0.09664945304393768,-0.12605848908424377,1.0275737212778944,0.41197379851325433,0,5,0,0
0.9880000469274819,0.9891465414473716,-0.3401355016057406,-0.0073365045499380254,0.57268226146698,-0.09688486903905869,-0.12479715049266815,1.0201105035005116,0.3857451405140841,0,5,0,0
0.9920000471174717,0.9891465414473716,-0.3401355016057406,-0.0073365045499380254,0.5801006555557251,-0.09715555608272552,-0.12381395697593689,1.027018540055791,0.413400839391748,0,5,0,0
0.9960000473074615,0.9891465414473716,-0.3401355016057406,-0.0073365045499380254,0.5875735878944397,-0.09698916226625443,-0.12322650104761124,0.9764157814615823,0.4558672358760285,0,5,0,0
1.0000000474974513,0.9654010592638594,-0.45504876356582175,0.027164009872370977,0.595085859298706,-0.09732526540756226,-0.12324713915586472,1.036541298587789,0.5246561573228903,0,5,0,0
1.004000047687441,0.9654010592638594,-0.45504876356582175,0.027164009872370977,0.6026381254196167,-0.0977761298418045,-0.12401875108480453,1.0541952504948768,0.612524800869803,0,5,0,0
1.008000047877431,0.9654010592638594,-0.45504876356582175,0.027164009872370977,0.6102319955825806,-0.09824585169553757,-0.12569871544837952,1.061249718679429,0.7217359792982161,0,5,0,0
1.0120000480674207,0.9654010592638594,-0.45504876356582175,0.027164009872370977,0.6178796291351318,-0.09901805222034454,-0.12777726352214813,1.1032382161436467,0.775197502307276,0,5,0,0
1.0160000482574105,0.8894200816084707,-0.8331708609675669,0.025401082156888976,0.6255732774734497,-0.09957538545131683,-0.13036631047725677,1.084877959981537,0.843297690710638,0,5,0,0
1.0200000484474003,0.8894200816084707,-0.8331708609675669,0.025401082156888976,0.6333163976669312,-0.10020377486944199,-0.1331055760383606,1.0993961639089087,0.8714737987244887,0,5,0,0
1.0240000486373901,0.8894200816084707,-0.8331708609675669,0.025401082156888976,0.6411014795303345,-0.10070028156042099,-0.13554096221923828,1.0897661054066918,0.8473542131211044,0,5,0,0
1.02800004882738,0.8894200816084707,-0.8331708609675669,0.025401082156888976,0.6489359736442566,-0.10086503624916077,-0.1379801332950592,1.054333629913377,0.8578678504209148,0,5,0,0
1.0320000490173697,0.8978068679546672,-0.728983458411417,-0.025386650373330287,0.6568096876144409,-0.10156408697366714,-0.13957688212394714,1.1216761921475067,0.7698173319909665,0,5,0,0
1.0360000492073596,0.8978068679546672,-0.728983458411417,-0.025386650373330287,0.6647211909294128,-0.10225371271371841,-0.1403278410434723,1.127757547769351,0.6780065942197009,0,5,0,0
1.0400000493973494,0.8978068679546672,-0.728983458411417,-0.025386650373330287,0.672670841217041,-0.10309556126594543,-0.14023779332637787,1.1535485282067868,0.5833697319454791,0,5,0,0
1.0440000495873392,0.8978068679546672,-0.728983458411417,-0.025386650373330287,0.6806732416152954,-0.10353756695985794,-0.13924358785152435,1.1132347558945808,0.47800935175621717,0,5,0,0
1.048000049777329,0.9376103647851521,-0.3672353187643863,-0.041322692765631094,0.6887174844741821,-0.10411029309034348,-0.13781264424324036,1.1339179303306868,0.42348329000773965,0,5,0,0
1.0520000499673188,0.9376103647851521,-0.3672353187643863,-0.041322692765631094,0.6968041658401489,-0.10455555468797684,-0.13618920743465424,1.124281720385423,0.3956609128813544,0,5,0,0
1.0560000501573086,0.9376103647851521,-0.3672353187643863,-0.041322692765631094,0.7049347758293152,-0.10482168942689896,-0.1349295824766159,1.1070428691933607,0.43187507530513736,0,5,0,0
1.0600000503472984,0.9376103647851521,-0.3672353187643863,-0.041322692765631094,0.7131162285804749,-0.1044314056634903,-0.13531675934791565,1.0295435889401061,0.6190137400291053,0,5,0,0
1.0640000505372882,0.9979180560286771,-0.5093488381585587,-0.009037341418380841,0.7213343381881714,-0.10498600453138351,-0.1352502852678299,1.1416408350143974,0.5680367148020212,0,5,0,0
1.068000050727278,0.9979180560286771,-0.5093488381585587,-0.009037341418380841,0.7295904159545898,-0.1055450588464737,-0.13595907390117645,1.147985924104413,0.6584152222468163,0,5,0,0
1.0720000509172678,0.9979180560286771,-0.5093488381585587,-0.009037341418380841,0.7379091382026672,-0.10634233057498932,-0.13765501976013184,1.1830133207325282,0.7765845603519087,0,5,0,0
1.0760000511072576,0.9979180560286771,-0.5093488381585587,-0.009037341418380841,0.7462732791900635,-0.10671866685152054,-0.1396171897649765,1.1396775722114567,0.8147185366326242,0,5,0,0
1.0800000512972474,0.9779616601617246,-0.86412077032106,-0.0022843025225023615,0.7546811699867249,-0.10695923119783401,-0.14215296506881714,1.1270655764176551,0.8897333980523647,0,5,0,0
1.0840000514872372,0.9779616601617246,-0.86412077032106,-0.0022843025225023615,0.7631378769874573,-0.10724172741174698,-0.14481793344020844,1.134865253595679,0.9152750540038055,0,5,0,0
1.088000051677227,0.9779616601617246,-0.86412077032106,-0.0022843025225023615,0.7716320157051086,-0.10732986778020859,-0.14748263359069824,1.114139217400458,0.9262576380932102,0,5,0,0
1.0920000518672168,0.9779616601617246,-0.86412077032106,-0.0022843025225023615,0.780175507068634,-0.10701465606689453,-0.14990241825580597,1.0658668284096118,0.9087435517777558,0,5,0,0
1.0960000520572066,0.9800032892037425,-0.7122402832651198,-0.04131579054572677,0.788754940032959,-0.10740851610898972,-0.15166468918323517,1.14983377797611,0.8421863387833672,0,5,0,0
1.1000000522471964,0.9800032892037425,-0.7122402832651198,-0.04131579054572677,0.7973693013191223,-0.10805999487638474,-0.15264809131622314,1.185590014869737,0.7588635675390979,0,5,0,0
1.1040000524371862,0.9800032892037425,-0.7122402832651198,-0.04131579054572677,0.806018590927124,-0.10890860855579376,-0.1528163105249405,1.216515208884969,0.6681951289121013,0,5,0,0
1.108000052627176,0.9800032892037425,-0.7122402832651198,-0.04131579054572677,0.8147175312042236,-0.10955718904733658,-0.1520320475101471,1.2007602185005206,0.5582687087288778,0,5,0,0
1.1120000528171659,0.94397654985731,-0.29729132872674546,-0.057459043298137356,0.8234545588493347,-0.11052212119102478,-0.15071475505828857,1.2462643522168024,0.49339544552916076,0,5,0,0
1.1160000530071557,0.94397654985731,-0.29729132872674546,-0.057459043298137356,0.8322300910949707,-0.11140085011720657,-0.14919035136699677,1.2456211420227534,0.46435587429472736,0,5,0,0
1.1200000531971455,0.94397654985731,-0.29729132872674546,-0.057459043298137356,0.8410462737083435,-0.1120578870177269,-0.14790409803390503,1.2275200982672612,0.4863577448394626,0,5,0,0
1.1240000533871353,0.94397654985731,-0.29729132872674546,-0.057459043298137356,0.8499102592468262,-0.11058300733566284,-0.1486416608095169,0.9731960965279065,0.7173440373597672,0,5,0,0
1.128000053577125,0.9767883432570758,-0.3912410400457252,-0.030062315978682,0.8588074445724487,-0.11115679889917374,-0.14806455373764038,1.2096762926732276,0.567490613200554,0,5,0,0
1.1320000537671149,0.9767883432570758,-0.3912410400457252,-0.030062315978682,0.8677381277084351,-0.11172668635845184,-0.1482003629207611,1.2152040996206779,0.6485926056986902,0,5,0,0
1.1360000539571047,0.9767883432570758,-0.3912410400457252,-0.030062315978682,0.8767127394676208,-0.11246530711650848,-0.14942897856235504,1.2418427191621093,0.7768064185695143,0,5,0,0
1.1400000541470945,0.9767883432570758,-0.3912410400457252,-0.030062315978682,0.8857359886169434,-0.11257249861955643,-0.15064166486263275,1.1721490203876486,0.7802266529705104,0,5,0,0
1.1440000543370843,0.9572612475788551,-0.7706109402249623,-0.014910531290870862,0.8947979211807251,-0.1127980425953865,-0.15284909307956696,1.1879898280166146,0.9013316639875509,0,5,0,0
1.148000054527074,0.9572612475788551,-0.7706109402249623,-0.014910531290870862,0.9039067029953003,-0.11309647560119629,-0.15543122589588165,1.1994456051122848,0.9541874956407634,0,5,0,0
1.152000054717064,0.9572612475788551,-0.7706109402249623,-0.014910531290870862,0.9130486249923706,-0.11305956542491913,-0.15826481580734253,1.1616217401265339,0.9941906127228792,0,5,0,0
1.1560000549070537,0.9572612475788551,-0.7706109402249623,-0.014910531290870862,0.9222385883331299,-0.1127135381102562,-0.16079658269882202,1.1236563030675741,0.9707485039704786,0,5,0,0
1.1600000550970435,1.0099182653513308,-0.8128067667359116,-0.040408330197154334,0.9314630031585693,-0.11298808455467224,-0.16307003796100616,1.1964874835079182,0.9511736362134624,0,5,0,0
1.1640000552870333,1.0099182653513308,-0.8128067667359116,-0.040408330197154334,0.9407208561897278,-0.11355937272310257,-0.1647135615348816,1.2358563500656803,0.8872757315067104,0,5,0,0
1.1680000554770231,1.0099182653513308,-0.8128067667359116,-0.040408330197154334,0.950009286403656,-0.11430507153272629,-0.16547591984272003,1.2632088665489256,0.7915912192438629,0,5,0,0
1.172000055667013,1.0099182653513308,-0.8128067667359116,-0.040408330197154334,0.9593296051025391,-0.11542405933141708,-0.16526706516742706,1.316670771566777,0.6818909861052895,0,5,0,0
1.1760000558570027,0.9942387082867333,-0.488490487564406,-0.05299998802605308,0.9686824083328247,-0.11651162803173065,-0.1642848402261734,1.324291438090919,0.5913522191874425,0,5,0,0
1.1800000560469925,0.9942387082867333,-0.488490487564406,-0.05299998802605308,0.9780701398849487,-0.11754386126995087,-0.16288776695728302,1.328670636563749,0.5394844221287425,0,5,0,0
1.1840000562369823,0.9942387082867333,-0.488490487564406,-0.05299998802605308,0.9874955415725708,-0.11843956261873245,-0.16133305430412292,1.3225520681830587,0.5159183409768203,0,5,0,0
1.1880000564269722,0.9942387082867333,-0.488490487564406,-0.05299998802605308,0.9969710111618042,-0.11875443905591965,-0.16019359230995178,1.2606430437714495,0.5584606545573213,0,5,0,0
1.192000056616962,1.0492330164512853,-0.4446263486633146,-0.022433170809552684,1.0064767599105835,-0.11925523728132248,-0.15950362384319305,1.2868534387893404,0.6066516088377372,0,5,0,0
1.1960000568069518,1.0492330164512853,-0.4446263486633146,-0.022433170809552684,1.016011357307434,-0.11949264258146286,-0.15961408615112305,1.2598825714619657,0.6975249897698237,0,5,0,0
1.2000000569969416,1.0492330164512853,-0.4446263486633146,-0.022433170809552684,1.0255779027938843,-0.1195710301399231,-0.16074812412261963,1.2430639224432234,0.8175991938538312,0,5,0,0
1.2040000571869314,1.0492330164512853,-0.4446263486633146,-0.022433170809552684,1.0351736545562744,-0.11929883807897568,-0.16263045370578766,1.2011881137486862,0.9097016276085054,0,5,0,0
1.2080000573769212,1.089426274793796,-0.7979674312594274,-0.004469097756573803,1.0448055267333984,-0.11910025030374527,-0.1652337908744812,1.2077685583605497,1.0016248869191569,0,5,0,0
1.212000057566911,1.089426274793796,-0.7979674312594274,-0.004469097756573803,1.0544787645339966,-0.11898978799581528,-0.16823813319206238,1.2168636253864054,1.0591591048354232,0,5,0,0
1.2160000577569008,1.089426274793796,-0.7979674312594274,-0.004469097756573803,1.0641883611679077,-0.11892009526491165,-0.1713338941335678,1.2210386835171767,1.0822379446698833,0,5,0,0
1.2200000579468906,1.089426274793796,-0.7979674312594274,-0.004469097756573803,1.0739468336105347,-0.11943720281124115,-0.1742381453514099,1.2925114363340147,1.0727282782211578,0,5,0,0
1.2240000581368804,1.0018035340224014,-0.7905379800617559,-0.025706656933993433,1.0837364196777344,-0.11974722892045975,-0.17626971006393433,1.2726024302208157,0.9831003572104304,0,5,0,0
1.2280000583268702,1.0018035340224014,-0.7905379800617559,-0.025706656933993433,1.0935537815093994,-0.12030161917209625,-0.1774669885635376,1.3059260213531712,0.8944581975059753,0,5,0,0
1.23200005851686,1.0018035340224014,-0.7905379800617559,-0.025706656933993433,1.103399395942688,-0.12110161781311035,-0.1776149868965149,1.3418475941524486,0.7774324536880505,0,5,0,0
1.2360000587068498,1.0018035340224014,-0.7905379800617559,-0.025706656933993433,1.1132779121398926,-0.12196706235408783,-0.1769559383392334,1.3581574239219492,0.684428182889422,0,5,0,0
1.2400000588968396,0.9568048571040941,-0.4023466508654426,-0.03128047646701009,1.1231865882873535,-0.1229947954416275,-0.17573124170303345,1.3869874029414904,0.616315745488935,0,5,0,0
1.2440000590868294,0.9568048571040941,-0.4023466508654426,-0.03128047646701009,1.1331292390823364,-0.12395700812339783,-0.17418940365314484,1.3895359812938743,0.5748880405326637,0,5,0,0
1.2480000592768192,0.9568048571040941,-0.4023466508654426,-0.03128047646701009,1.1431018114089966,-0.1248389258980751,-0.17269621789455414,1.3896215958581184,0.5748031509519776,0,5,0,0
1.252000059466809,0.9568048571040941,-0.4023466508654426,-0.03128047646701009,1.1531230211257935,-0.1241048127412796,-0.1723654419183731,1.2007748446994038,0.7046648184373002,0,5,0,0
1.2560000596567988,1.08444282691627,-0.43111184065964925,0.009278611102000197,1.1631697416305542,-0.12435372918844223,-0.1714792400598526,1.314153283327765,0.6390461524036158,0,5,0,0
1.2600000598467886,1.08444282691627,-0.43111184065964925,0.009278611102000197,1.1732409000396729,-0.12454061210155487,-0.17141348123550415,1.3093422376929822,0.7314943464410768,0,5,0,0
1.2640000600367785,1.08444282691627,-0.43111184065964925,0.009278611102000197,1.183357834815979,-0.12491599470376968,-0.17278863489627838,1.3346020761334123,0.8995123007044608,0,5,0,0
1.2680000602267683,1.08444282691627,-0.43111184065964925,0.009278611102000197,1.193500280380249,-0.12477965652942657,-0.17460374534130096,1.2759695809514708,0.9566869273703208,0,5,0,0
1.272000060416758,1.1240380934199075,-0.7866068336425327,0.039699758044398695,1.2036746740341187,-0.12491864711046219,-0.17718194425106049,1.3086337750380295,1.0532724079011295,0,5,0,0
1.2760000606067479,1.1240380934199075,-0.7866068336425327,0.039699758044398695,1.213897466659546,-0.12534302473068237,-0.1802438646554947,1.3452844148971823,1.12037134038074,0,5,0,0
1.2800000607967377,1.1240380934199075,-0.7866068336425327,0.039699758044398695,1.2241477966308594,-0.12555626034736633,-0.18350782990455627,1.3239646318335725,1.1565976641306375,0,5,0,0
