time,roll,pitch,yaw,altitude,linear_velocity_x,linear_velocity_y,desired_roll,desired_pitch,desired_yaw,desired_altitude,desired_linear_velocity_x,desired_linear_velocity_y
0.004000000189989805,0.0,0.0,0.0,0.06905829161405563,3.220294456696138e-05,1.8638242181623355e-05,-0.003944937824448157,-0.002171399846349724,0,5,0,0
0.00800000037997961,0.0,0.0,0.0,0.06795962899923325,3.216322511434555e-05,1.8624474250827916e-05,-0.00031731829175098684,-7.303843538607886e-05,0,5,0,0
0.012000000569969416,0.0,0.0,0.0,0.06670400500297546,3.21235456794966e-05,1.8610711777000688e-05,-0.00031700309591435,-7.302866511005078e-05,0,5,0,0
0.01600000075995922,0.0,0.0,0.0,0.06570035219192505,0.0025692323688417673,-0.0016443801578134298,-0.3111234504705319,0.1936677969903791,0,5,0,0
0.020000000949949026,0.0,0.0,0.0,0.06466511636972427,0.005023260600864887,-0.003736972576007247,-0.32632922255756147,0.2503773073200838,0,5,0,0
0.02400000113993883,0.0,0.0,0.0,0.06359975785017014,0.007052345667034388,-0.005949467420578003,-0.2988308949617971,0.2727305877475658,0,5,0,0
0.028000001329928637,0.0,0.0,0.0,0.06254293769598007,0.00808501522988081,-0.008534527383744717,-0.19708025582819783,0.32500488431818386,0,5,0,0
0.03200000151991844,0.0,0.0,0.0,0.06145884096622467,0.008380375802516937,-0.009933698922395706,-0.11710671699856559,0.1972129699300659,0,5,0,0
0.03600000170990825,-0.1320901416925524,0.03848887224327845,0.03773441500507924,0.06034613028168678,0.007748371921479702,-0.010431717149913311,-0.006476778198772418,0.09785033627525888,0,5,0,0
0.04000000189989805,-0.1320901416925524,0.03848887224327845,0.03773441500507924,0.05921043083071709,0.0061773816123604774,-0.009871426038444042,0.11485426731763052,-0.02342693172798712,0,5,0,0
0.04400000208988786,-0.1320901416925524,0.03848887224327845,0.03773441500507924,0.05806078761816025,0.004296076484024525,-0.008480626158416271,0.16856742352066484,-0.12240200976938989,0,5,0,0
0.04800000227987766,-0.1320901416925524,0.03848887224327845,0.03773441500507924,0.05691932514309883,0.002109018387272954,-0.006132295820862055,0.22483015015678803,-0.23950278496413416,0,5,0,0
0.05200000246986747,-0.21826755312337323,0.13068870794314283,0.10971451710758953,0.05576760694384575,-2.7362963010091335e-05,-0.0036208038218319416,0.240492895623813,-0.2678957490748595,0,5,0,0
0.05600000265985727,-0.21826755312337323,0.13068870794314283,0.10971451710758953,0.05459859222173691,-0.0017715019639581442,-0.0012234981404617429,0.2138112750339548,-0.26463607527807376,0,5,0,0
0.06000000284984708,-0.21826755312337323,0.13068870794314283,0.10971451710758953,0.053416088223457336,-0.0027490779757499695,0.0008325458620674908,0.13735530075535363,-0.23447031235226512,0,5,0,0
0.06400000303983688,-0.21826755312337323,0.13068870794314283,0.10971451710758953,0.052228230983018875,-0.0028409482911229134,0.0022791458759456873,0.0386389360709171,-0.17169973689143972,0,5,0,0
0.06800000322982669,0.10320853387575328,-0.2442750403513089,0.17749536901658716,0.05101671442389488,-0.002208856400102377,0.002673462498933077,-0.04912242593447748,-0.054901543841313086,0,5,0,0
0.0720000034198165,0.10320853387575328,-0.2442750403513089,0.17749536901658716,0.04978453367948532,-0.0008238751906901598,0.0020322571508586407,-0.14767030502407594,0.06415461634477297,0,5,0,0
0.0760000036098063,0.10320853387575328,-0.2442750403513089,0.17749536901658716,0.04853598400950432,0.0010389413218945265,0.00046808409388177097,-0.2200574326628213,0.17424404749048172,0,5,0,0
0.0800000037997961,0.10320853387575328,-0.2442750403513089,0.17749536901658716,0.047343235462903976,0.0023491671308875084,-0.001834558555856347,-0.17099887755281426,0.26653684626983287,0,5,0,0
0.08400000398978591,0.3786668376847155,-0.7009084679233928,0.21745090578231044,0.046144478023052216,0.00412790197879076,-0.004514835309237242,-0.24150339737101106,0.3197526235305518,0,5,0,0
0.08800000417977571,0.3786668376847155,-0.7009084679233928,0.21745090578231044,0.04493742808699608,0.0054144179448485374,-0.00713278679177165,-0.19900693005781123,0.32322995551260586,0,5,0,0
0.09200000436976552,0.3786668376847155,-0.7009084679233928,0.21745090578231044,0.043718498200178146,0.005938789341598749,-0.009144061245024204,-0.11852363714580035,0.2630458365211941,0,5,0,0
0.09600000455975533,0.3786668376847155,-0.7009084679233928,0.21745090578231044,0.04255415126681328,0.004903325345367193,-0.010877578519284725,0.06730070821065352,0.23875833065550395,0,5,0,0
0.10000000474974513,0.41499138616446624,-0.6159474348548927,0.2837318093632331,0.04137180745601654,0.003743410110473633,-0.011385375633835793,0.09289164005937216,0.10292333259880412,0,5,0,0
0.10400000493973494,0.41499138616446624,-0.6159474348548927,0.2837318093632331,0.0401756688952446,0.0018662395887076855,-0.010920406319200993,0.19235008224232245,-0.008346553768792772,0,5,0,0
0.10800000512972474,0.41499138616446624,-0.6159474348548927,0.2837318093632331,0.038973599672317505,-0.0006661651423200965,-0.009468014352023602,0.2913895733897544,-0.12521844153676323,0,5,0,0
0.11200000531971455,0.41499138616446624,-0.6159474348548927,0.2837318093632331,0.03779345378279686,-0.003072344232350588,-0.007957029156386852,0.30125835397885403,-0.13783502333701494,0,5,0,0
0.11600000550970435,0.6023711812971123,-0.3674724610690394,0.35567860027329834,0.036609161645174026,-0.0055015538819134235,-0.005871496628969908,0.3281545920287519,-0.2107996336093034,0,5,0,0
0.12000000569969416,0.6023711812971123,-0.3674724610690394,0.35567860027329834,0.035422537475824356,-0.007410544902086258,-0.003926552832126617,0.2887376945124839,-0.20275375363112644,0,5,0,0
0.12400000588968396,0.6023711812971123,-0.3674724610690394,0.35567860027329834,0.03422136232256889,-0.008703703992068768,-0.002600362990051508,0.23240908544714572,-0.13844245552282286,0,5,0,0
0.12800000607967377,0.6023711812971123,-0.3674724610690394,0.35567860027329834,0.033032190054655075,-0.008651252835988998,-0.002337611513212323,0.08052419140235281,-0.01985104075568346,0,5,0,0
0.13200000626966357,0.9810083114729984,-0.6227963375634887,0.3898550017172836,0.031830355525016785,-0.008102962747216225,-0.00283071119338274,0.019278860347676063,0.06716140279690248,0,5,0,0
0.13600000645965338,0.9810083114729984,-0.6227963375634887,0.3898550017172836,0.030620550736784935,-0.006897699553519487,-0.004341135732829571,-0.06666668790301097,0.18766256091350225,0,5,0,0
0.14000000664964318,0.9810083114729984,-0.6227963375634887,0.3898550017172836,0.029418349266052246,-0.005349113140255213,-0.006958304904401302,-0.12076357453032037,0.3226567027325553,0,5,0,0
0.144000006839633,0.9810083114729984,-0.6227963375634887,0.3898550017172836,0.028248069807887077,-0.004006020724773407,-0.010292579419910908,-0.11106681058246413,0.4166928503475597,0,5,0,0
0.1480000070296228,1.0896114073699699,-0.9727028048948949,0.3993562518017902,0.027082616463303566,-0.0025515276938676834,-0.013622761704027653,-0.13813818586469093,0.4295858981038392,0,5,0,0
0.1520000072196126,1.0896114073699699,-0.9727028048948949,0.3993562518017902,0.025924084708094597,-0.001690590288490057,-0.01672351360321045,-0.0799684978013137,0.41621812505600797,0,5,0,0
0.1560000074096024,1.0896114073699699,-0.9727028048948949,0.3993562518017902,0.024764036759734154,-0.0015334717463701963,-0.019119244068861008,-0.002356384534477618,0.34653202560143415,0,5,0,0
0.1600000075995922,1.0896114073699699,-0.9727028048948949,0.3993562518017902,0.023656437173485756,-0.0029971443582326174,-0.021051600575447083,0.1946265308933171,0.3021824075528265,0,5,0,0
0.16400000778958201,0.8010429445704157,-0.7786380190417631,0.4492258329371829,0.022541305050253868,-0.004415758419781923,-0.021569157019257545,0.20375418266006426,0.14513939980504878,0,5,0,0
0.16800000797957182,0.8010429445704157,-0.7786380190417631,0.4492258329371829,0.021422812715172768,-0.006479342933744192,-0.021065643057227135,0.2969647506735491,0.028305486301619505,0,5,0,0
0.17200000816956162,0.8010429445704157,-0.7786380190417631,0.4492258329371829,0.020310053601861,-0.009087393060326576,-0.019505923613905907,0.38431944019418474,-0.0967096882541905,0,5,0,0
0.17600000835955143,0.8010429445704157,-0.7786380190417631,0.4492258329371829,0.019244978204369545,-0.010811210609972477,-0.018636340275406837,0.30210740241684975,-0.022502986284625257,0,5,0,0
0.18000000854954123,0.6924478139768813,-0.4490641314290547,0.5153460203436804,0.018186040222644806,-0.01282928790897131,-0.016180679202079773,0.35542318592912087,-0.21072053363900578,0,5,0,0
0.18400000873953104,0.6924478139768813,-0.4490641314290547,0.5153460203436804,0.017135189846158028,-0.014424211345613003,-0.013853492215275764,0.32380223115034035,-0.2055426991559787,0,5,0,0
0.18800000892952085,0.6924478139768813,-0.4490641314290547,0.5153460203436804,0.016087239608168602,-0.015766868367791176,-0.012381266802549362,0.3088866715788324,-0.11521871324987161,0,5,0,0
0.19200000911951065,0.6924478139768813,-0.4490641314290547,0.5153460203436804,0.015088438987731934,-0.014553360641002655,-0.01148302759975195,0.009218001778163287,-0.05421066524357566,0,5,0,0
0.19600000930950046,0.864255199552838,-0.6414019104498622,0.5809870628532809,0.014086723327636719,-0.014431471936404705,-0.011427681893110275,0.13084088442988961,0.04042089218125419,0,5,0,0
0.20000000949949026,0.864255199552838,-0.6414019104498622,0.5809870628532809,0.013089117594063282,-0.01402621902525425,-0.012600819580256939,0.09494354652263386,0.1833480601351023,0,5,0,0
0.20400000968948007,0.864255199552838,-0.6414019104498622,0.5809870628532809,0.01212383434176445,-0.013340379111468792,-0.015600909478962421,0.056551127999036055,0.40091797595256773,0,5,0,0
0.20800000987946987,0.864255199552838,-0.6414019104498622,0.5809870628532809,0.011215023696422577,-0.013152954168617725,-0.018818577751517296,0.11078012722888644,0.43831137952697063,0,5,0,0
0.21200001006945968,0.7874793073301114,-0.9241291190133127,0.6273213985334541,0.010322832502424717,-0.012646817602217197,-0.022534025833010674,0.06989405798227752,0.5092274793632258,0,5,0,0
0.21600001025944948,0.7874793073301114,-0.9241291190133127,0.6273213985334541,0.009469617158174515,-0.012674118392169476,-0.02627929486334324,0.13020918350667418,0.5276264823802852,0,5,0,0
0.2200000104494393,0.7874793073301114,-0.9241291190133127,0.6273213985334541,0.00861850380897522,-0.012646181508898735,-0.029189664870500565,0.12374592756860059,0.4454118819619687,0,5,0,0
0.2240000106394291,0.7874793073301114,-0.9241291190133127,0.6273213985334541,0.00781898945569992,-0.013929405249655247,-0.031425707042217255,0.2841171587472803,0.37856959446549343,0,5,0,0
0.2280000108294189,0.47162894595754135,-0.5446911315460788,0.6845252701118508,0.0070218900218605995,-0.014864876866340637,-0.03224163502454758,0.25438543852050743,0.2221478476049103,0,5,0,0
0.2320000110194087,0.47162894595754135,-0.5446911315460788,0.6845252701118508,0.00623015221208334,-0.015980860218405724,-0.03190235793590546,0.2858911953731622,0.09090674060142043,0,5,0,0
0.2360000112093985,0.47162894595754135,-0.5446911315460788,0.6845252701118508,0.005450872238725424,-0.017367979511618614,-0.030053064227104187,0.33030686338842197,-0.08629516857540005,0,5,0,0
0.2400000113993883,0.47162894595754135,-0.5446911315460788,0.6845252701118508,0.004724608734250069,-0.018400490283966064,-0.028816018253564835,0.30078267558815097,-0.02229632707702152,0,5,0,0
0.24400001158937812,0.2853471336510609,-0.03577552155571129,0.7633589523908398,0.004013746976852417,-0.019040890038013458,-0.025793805718421936,0.26311988380336104,-0.235154500722356,0,5,0,0
0.24800001177936792,0.2853471336510609,-0.03577552155571129,0.7633589523908398,0.003329858649522066,-0.019305318593978882,-0.022614743560552597,0.22351374435460805,-0.26546205568531445,0,5,0,0
0.25200001196935773,0.2853471336510609,-0.03577552155571129,0.7633589523908398,0.0026540779508650303,-0.019703222438693047,-0.01993410848081112,0.24255603980886173,-0.22006371051559637,0,5,0,0
0.25600001215934753,0.2853471336510609,-0.03577552155571129,0.7633589523908398,0.002025143476203084,-0.018750200048089027,-0.019357768818736076,0.08109162213040305,0.014410612726724323,0,5,0,0
0.26000001234933734,0.21894565837579913,-0.18355619190184938,0.8357707807886848,0.0014025837881490588,-0.018361099064350128,-0.01783498004078865,0.14068583419189437,-0.09811325890926166,0,5,0,0
0.26400001253932714,0.21894565837579913,-0.18355619190184938,0.8357707807886848,0.0007875376613810658,-0.01791817881166935,-0.017413463443517685,0.130244967827897,0.02413558145739856,0,5,0,0
0.26800001272931695,0.21894565837579913,-0.18355619190184938,0.8357707807886848,0.00021003410802222788,-0.017739038914442062,-0.018596384674310684,0.1581714311300581,0.20941114478985062,0,5,0,0
0.27200001291930676,0.21894565837579913,-0.18355619190184938,0.8357707807886848,-0.0003495523415040225,-0.01721501350402832,-0.020372280851006508,0.1141728746696996,0.2832733012185267,0,5,0,0
0.27600001310929656,0.0785771383295919,-0.5013566039880846,0.8774742737097146,-0.0008896527579054236,-0.016981177031993866,-0.02332460507750511,0.14452151879322359,0.427486726495979,0,5,0,0
0.28000001329928637,0.0785771383295919,-0.5013566039880846,0.8774742737097146,-0.001394171267747879,-0.017158417031168938,-0.026601068675518036,0.19258119980230481,0.4771221010192186,0,5,0,0
0.28400001348927617,0.0785771383295919,-0.5013566039880846,0.8774742737097146,-0.001884843921288848,-0.01736142858862877,-0.029904963448643684,0.19755228297682104,0.49349545908101095,0,5,0,0
0.288000013679266,0.0785771383295919,-0.5013566039880846,0.8774742737097146,-0.002326552290469408,-0.01795537769794464,-0.031762611120939255,0.2475153394733459,0.3382994889250883,0,5,0,0
0.2920000138692558,-0.027610722010454527,-0.28855658572992976,0.8760223820718326,-0.002755368361249566,-0.018450647592544556,-0.03354179114103317,0.2414109088474139,0.3366690988546291,0,5,0,0
0.2960000140592456,-0.027610722010454527,-0.28855658572992976,0.8760223820718326,-0.0031736576929688454,-0.01915551908314228,-0.03419342637062073,0.2720857754311296,0.21250892109319475,0,5,0,0
0.3000000142492354,-0.027610722010454527,-0.28855658572992976,0.8760223820718326,-0.0035640450660139322,-0.01969294436275959,-0.033428847789764404,0.2586695934554641,0.05020678990082536,0,5,0,0
0.3040000144392252,-0.027610722010454527,-0.28855658572992976,0.8760223820718326,-0.0039096735417842865,-0.020174842327833176,-0.031349871307611465,0.2572901701406258,-0.10590363320550708,0,5,0,0
0.308000014629215,-0.04538298368231451,0.14636406032287355,0.8987965980306564,-0.00423257052898407,-0.0207954254001379,-0.02848043106496334,0.2791479837094484,-0.20624020997019166,0,5,0,0
0.3120000148192048,-0.04538298368231451,0.14636406032287355,0.8987965980306564,-0.0045243254862725735,-0.021147822961211205,-0.025219671428203583,0.2525518455172034,-0.2632461510494861,0,5,0,0
0.3160000150091946,-0.04538298368231451,0.14636406032287355,0.8987965980306564,-0.004785805009305477,-0.021235929802060127,-0.021970553323626518,0.22375117554662322,-0.27488022182896626,0,5,0,0
0.3200000151991844,-0.04538298368231451,0.14636406032287355,0.8987965980306564,-0.005000460427254438,-0.02042117714881897,-0.021047180518507957,0.11408097158095899,-0.016876866052249154,0,5,0,0
0.3240000153891742,0.04986280629736487,-0.154386093187484,0.9297856297630915,-0.0051989005878567696,-0.020207390189170837,-0.018649872392416,0.17960023704121258,-0.19223905459433743,0,5,0,0
0.32800001557916403,0.04986280629736487,-0.154386093187484,0.9297856297630915,-0.0053830137476325035,-0.019881779327988625,-0.017328111454844475,0.16381165637698686,-0.07648545791375468,0,5,0,0
0.33200001576915383,0.04986280629736487,-0.154386093187484,0.9297856297630915,-0.005516733042895794,-0.020024359226226807,-0.0173912663012743,0.2179569717568287,0.07961191881297583,0,5,0,0
0.33600001595914364,0.04986280629736487,-0.154386093187484,0.9297856297630915,-0.005621905904263258,-0.019864629954099655,-0.01862029917538166,0.1823975740989893,0.21573401091344546,0,5,0,0
0.34000001614913344,0.03620015382753713,-0.7909947719239935,0.931057141099354,-0.005700832232832909,-0.019771253690123558,-0.020961523056030273,0.1889759755327772,0.3502706963867032,0,5,0,0
0.34400001633912325,0.03620015382753713,-0.7909947719239935,0.931057141099354,-0.0057433731853961945,-0.020013241097331047,-0.023893088102340698,0.22917229260191715,0.42846767796860186,0,5,0,0
0.34800001652911305,0.03620015382753713,-0.7909947719239935,0.931057141099354,-0.005754135083407164,-0.020492788404226303,-0.027280539274215698,0.26074243581085715,0.4933701426434738,0,5,0,0
0.35200001671910286,0.03620015382753713,-0.7909947719239935,0.931057141099354,-0.005716739688068628,-0.02147410437464714,-0.029439536854624748,0.3270561053334582,0.36387576538119404,0,5,0,0
0.35600001690909266,-0.025254834788391453,-0.8267827825516864,0.8949998171076434,-0.005655501037836075,-0.0221722349524498,-0.03191317245364189,0.3022322693215437,0.4092436748069431,0,5,0,0
0.36000001709908247,-0.025254834788391453,-0.8267827825516864,0.8949998171076434,-0.0055718254297971725,-0.023178057745099068,-0.03339589759707451,0.3469614971153685,0.3037773045803477,0,5,0,0
0.3640000172890723,-0.025254834788391453,-0.8267827825516864,0.8949998171076434,-0.005457574501633644,-0.024072378873825073,-0.03356213495135307,0.3434185455191077,0.15641793387994396,0,5,0,0
0.3680000174790621,-0.025254834788391453,-0.8267827825516864,0.8949998171076434,-0.005317268427461386,-0.025584625080227852,-0.032522812485694885,0.42811897862302173,0.01671322546996394,0,5,0,0
0.3720000176690519,0.02712442216232551,-0.436074503770927,0.8786314341038353,-0.005150130018591881,-0.02673363871872425,-0.030305879190564156,0.39880961379541024,-0.12456298562018794,0,5,0,0
0.3760000178590417,0.02712442216232551,-0.436074503770927,0.8786314341038353,-0.004948828369379044,-0.02768273837864399,-0.02740016207098961,0.38587672744823065,-0.21360827027583087,0,5,0,0
0.3800000180490315,0.02712442216232551,-0.436074503770927,0.8786314341038353,-0.004711532033979893,-0.02841239422559738,-0.023996567353606224,0.36855404788102075,-0.283176284474084,0,5,0,0
0.3840000182390213,0.02712442216232551,-0.436074503770927,0.8786314341038353,-0.004427318926900625,-0.028162462636828423,-0.023112870752811432,0.25591874062249464,-0.0031670753335874546,0,5,0,0
0.3880000184290111,0.23549661686889858,-0.4582220540174359,0.8833730320170665,-0.004116529133170843,-0.02841135673224926,-0.020322158932685852,0.31459375564199465,-0.22882035141498308,0,5,0,0
0.3920000186190009,0.23549661686889858,-0.4582220540174359,0.8833730320170665,-0.0037808669731020927,-0.028420081362128258,-0.018391070887446404,0.2877301465491731,-0.13979289494239258,0,5,0,0
0.3960000188089907,0.23549661686889858,-0.4582220540174359,0.8833730320170665,-0.0033881249837577343,-0.028961962088942528,-0.017765963450074196,0.353198520585949,0.004672125029029514,0,5,0,0
0.4000000189989805,0.23549661686889858,-0.4582220540174359,0.8833730320170665,-0.002953793853521347,-0.028392158448696136,-0.018600858747959137,0.22250414001291846,0.1723066481986434,0,5,0,0
0.4040000191889703,0.3926154897000914,-0.9610887381253888,0.8642054552167194,-0.002489879261702299,-0.028361720964312553,-0.020509466528892517,0.2829465229551128,0.30078295064999067,0,5,0,0
0.40800001937896013,0.3926154897000914,-0.9610887381253888,0.8642054552167194,-0.0019843499176204205,-0.028646770864725113,-0.023261932656168938,0.3213581033163502,0.40678270325458904,0,5,0,0
0.41200001956894994,0.3926154897000914,-0.9610887381253888,0.8642054552167194,-0.0014287971425801516,-0.02926436997950077,-0.02707800641655922,0.3650161137942777,0.5417678385565979,0,5,0,0
0.41600001975893974,0.3926154897000914,-0.9610887381253888,0.8642054552167194,-0.0008251690305769444,-0.03045542538166046,-0.029720773920416832,0.44151359010672353,0.4204132908424187,0,5,0,0
0.42000001994892955,0.3715753801825365,-1.1457043875891262,0.8060993064279407,-0.00018642214126884937,-0.031209103763103485,-0.032991211861371994,0.39992036328022573,0.504187142338008,0,5,0,0
0.42400002013891935,0.3715753801825365,-1.1457043875891262,0.8060993064279407,0.0004938923520967364,-0.03241565823554993,-0.035518862307071686,0.46301226340610857,0.43081940014720976,0,5,0,0
0.42800002032890916,0.3715753801825365,-1.1457043875891262,0.8060993064279407,0.0012101676547899842,-0.03337142989039421,-0.03688405081629753,0.4444370057498984,0.3055917142685415,0,5,0,0
0.43200002051889896,0.3715753801825365,-1.1457043875891262,0.8060993064279407,0.0019834714476019144,-0.0354350209236145,-0.03719248250126839,0.5897876342840663,0.18802956588872233,0,5,0,0
0.43600002070888877,0.4157772734593265,-0.7421640315491298,0.7644678949289374,0.0027865057345479727,-0.03685707226395607,-0.03603657707571983,0.5319233926443043,0.018754514866815425,0,5,0,0
0.4400000208988786,0.4157772734593265,-0.7421640315491298,0.7644678949289374,0.0036253833677619696,-0.03814069926738739,-0.03402300551533699,0.5292784631984694,-0.08570555174355102,0,5,0,0
0.4440000210888684,0.4157772734593265,-0.7421640315491298,0.7644678949289374,0.004506553988903761,-0.03928225487470627,-0.031024333089590073,0.5248052653843389,-0.20844962513319545,0,5,0,0
0.4480000212788582,0.4157772734593265,-0.7421640315491298,0.7644678949289374,0.005434789229184389,-0.039368532598018646,-0.030480951070785522,0.40704377078829285,0.06567015873889373,0,5,0,0
0.452000021468848,0.6335642362704637,-0.5236617403756417,0.748781769695702,0.006397448945790529,-0.0399235263466835,-0.02772660180926323,0.4654200750903115,-0.19401449745121693,0,5,0,0
0.4560000216588378,0.6335642362704637,-0.5236617403756417,0.748781769695702,0.007398063782602549,-0.040126435458660126,-0.02553456835448742,0.42793594991367784,-0.13946082304909302,0,5,0,0
0.4600000218488276,0.6335642362704637,-0.5236617403756417,0.748781769695702,0.008457661606371403,-0.04085798189043999,-0.024487478658556938,0.49482116904578133,-0.014784245129108059,0,5,0,0
0.4640000220388174,0.6335642362704637,-0.5236617403756417,0.748781769695702,0.0095676863566041,-0.041257135570049286,-0.025062307715415955,0.4615175401288855,0.17004107166185756,0,5,0,0
0.4680000222288072,0.8749966015064565,-0.8568011824988989,0.7208970342496538,0.010709446854889393,-0.04122060164809227,-0.026081478223204613,0.4122362775098399,0.2241687600989836,0,5,0,0
0.472000022418797,0.8749966015064565,-0.8568011824988989,0.7208970342496538,0.011894416995346546,-0.041221972554922104,-0.028160450980067253,0.4166132123529467,0.35177998356980533,0,5,0,0
0.4760000226087868,0.8749966015064565,-0.8568011824988989,0.7208970342496538,0.013136758469045162,-0.04138908162713051,-0.03155262768268585,0.4370291795951273,0.5131598535708035,0,5,0,0
0.4800000227987766,0.8749966015064565,-0.8568011824988989,0.7208970342496538,0.014424563385546207,-0.04179038107395172,-0.03548591211438179,0.4674888868752341,0.5898527741205185,0,5,0,0
0.48400002298876643,1.0458504581597552,-1.021080090602129,0.6634139317819089,0.01575642079114914,-0.042147718369960785,-0.03957450017333031,0.46621767263276065,0.6237737623972957,0,5,0,0
0.48800002317875624,1.0458504581597552,-1.021080090602129,0.6634139317819089,0.017140861600637436,-0.04290775582194328,-0.04332713410258293,0.5192247911666474,0.6010934454454621,0,5,0,0
0.49200002336874604,1.0458504581597552,-1.021080090602129,0.6634139317819089,0.018561571836471558,-0.043737176805734634,-0.046199552714824677,0.5354296171916282,0.5136697803658852,0,5,0,0
0.49600002355873585,1.0458504581597552,-1.021080090602129,0.6634139317819089,0.02001495100557804,-0.04501663148403168,-0.04830139875411987,0.5989609921224438,0.4355036775466212,0,5,0,0
0.5000000237487257,1.1519859740077645,-0.48312222127154486,0.6037948990151311,0.02149992063641548,-0.046106647700071335,-0.04875091835856438,0.588659984250878,0.25153204308245936,0,5,0,0
0.5040000239387155,1.1519859740077645,-0.48312222127154486,0.6037948990151311,0.023020369932055473,-0.04712875187397003,-0.04810437560081482,0.5913540306217623,0.1257543126683235,0,5,0,0
0.5080000241287053,1.1519859740077645,-0.48312222127154486,0.6037948990151311,0.024577027186751366,-0.048105381429195404,-0.04641680791974068,0.5961198847371727,0.0020001439769878893,0,5,0,0
0.5120000243186951,1.1519859740077645,-0.48312222127154486,0.6037948990151311,0.02618066780269146,-0.047612227499485016,-0.04641982167959213,0.4259519805899557,0.1923140096642867,0,5,0,0
0.5160000245086849,1.2555908476015538,0.04111912296972947,0.5780929632050341,0.02782757207751274,-0.04788941890001297,-0.044454216957092285,0.5155026747415561,-0.03691128784522971,0,5,0,0
0.5200000246986747,1.2555908476015538,0.04111912296972947,0.5780929632050341,0.02951795607805252,-0.047916997224092484,-0.04260299354791641,0.4878119890145,-0.03134603715480688,0,5,0,0
0.5240000248886645,1.2555908476015538,0.04111912296972947,0.5780929632050341,0.03125934675335884,-0.04828836768865585,-0.04166543111205101,0.5303181997154843,0.06779056475646435,0,5,0,0
0.5280000250786543,1.2555908476015538,0.04111912296972947,0.5780929632050341,0.0330476276576519,-0.04679140821099281,-0.042767420411109924,0.30527379580677505,0.30175072304727824,0,5,0,0
0.5320000252686441,1.296019329469593,-0.024461603826936847,0.5606765861553552,0.034869901835918427,-0.046542420983314514,-0.04284995421767235,0.44329249680044736,0.18749496071010252,0,5,0,0
0.5360000254586339,1.296019329469593,-0.024461603826936847,0.5606765861553552,0.03673430159687996,-0.046395719051361084,-0.043910637497901917,0.4534439224344152,0.3018848899268695,0,5,0,0
0.5400000256486237,1.296019329469593,-0.024461603826936847,0.5606765861553552,0.03864583745598793,-0.04633285105228424,-0.04646001011133194,0.46235775829210646,0.4796714264404477,0,5,0,0
0.5440000258386135,1.296019329469593,-0.024461603826936847,0.5606765861553552,0.04059593379497528,-0.04575364291667938,-0.04934784397482872,0.39858722308391625,0.5294180855495548,0,5,0,0
0.5480000260286033,1.1812747996945248,-0.14013014314571975,0.5219069102545194,0.042591314762830734,-0.045591868460178375,-0.0530153252184391,0.4440401856770496,0.6319255734073272,0,5,0,0
0.5520000262185931,1.1812747996945248,-0.14013014314571975,0.5219069102545194,0.04464709013700485,-0.04567967355251312,-0.05690615624189377,0.47310556573253365,0.6727523213216342,0,5,0,0
0.5560000264085829,1.1812747996945248,-0.14013014314571975,0.5219069102545194,0.04674201086163521,-0.045590590685606,-0.06054925546050072,0.45242426001678915,0.6596002096944469,0,5,0,0
0.5600000265985727,1.1812747996945248,-0.14013014314571975,0.5219069102545194,0.04890214651823044,-0.04593672603368759,-0.06324350833892822,0.5049579085059797,0.5637837974353177,0,5,0,0
0.5640000267885625,1.0599669414728647,0.16613031169446554,0.4592495862349325,0.051099833101034164,-0.04604335501790047,-0.06496138870716095,0.4791902377499632,0.4609693240688488,0,5,0,0
0.5680000269785523,1.0599669414728647,0.16613031169446554,0.4592495862349325,0.053333718329668045,-0.046061430126428604,-0.06565342843532562,0.46951922573145005,0.34848798469112174,0,5,0,0
0.5720000271685421,1.0599669414728647,0.16613031169446554,0.4592495862349325,0.055610403418540955,-0.045863065868616104,-0.06511952728033066,0.4432962269598519,0.2085903241393485,0,5,0,0
0.576000027358532,1.0599669414728647,0.16613031169446554,0.4592495862349325,0.05793771147727966,-0.045191653072834015,-0.06382551044225693,0.38347260098069597,0.11805442773467956,0,5,0,0
0.5800000275485218,0.9969259830441797,0.5901765430860706,0.4239532514950655,0.06031090021133423,-0.044783446937799454,-0.06200383976101875,0.409108767835768,0.051555499695720264,0,5,0,0
0.5840000277385116,0.9969259830441797,0.5901765430860706,0.4239532514950655,0.06273579597473145,-0.044172175228595734,-0.06011711433529854,0.38025718796035773,0.03683422066748518,0,5,0,0
0.5880000279285014,0.9969259830441797,0.5901765430860706,0.4239532514950655,0.06520536541938782,-0.04355723410844803,-0.058584582060575485,0.3737995054141153,0.07069142216677932,0,5,0,0
0.5920000281184912,0.9969259830441797,0.5901765430860706,0.4239532514950655,0.06772200018167496,-0.04169021546840668,-0.05943036079406738,0.21437066123797308,0.3417771456891924,0,5,0,0
0.596000028308481,0.8436493752497289,0.2750908044827918,0.4091107492258291,0.07027680426836014,-0.041286006569862366,-0.05885375291109085,0.3749937467749512,0.17959347641875378,0,5,0,0
0.6000000284984708,0.8436493752497289,0.2750908044827918,0.4091107492258291,0.07287030667066574,-0.041079312562942505,-0.05910911783576012,0.3952458213129237,0.27435373442151106,0,5,0,0
0.6040000286884606,0.8436493752497289,0.2750908044827918,0.4091107492258291,0.07552064955234528,-0.041368018835783005,-0.060492824763059616,0.4539646961171377,0.4069722141836838,0,5,0,0
0.6080000288784504,0.8436493752497289,0.2750908044827918,0.4091107492258291,0.07822330296039581,-0.041502974927425385,-0.06202488765120506,0.43811696961488833,0.4299393702761334,0,5,0,0
0.6120000290684402,0.596086526705588,-0.2716774034231573,0.3637372042069495,0.08097178488969803,-0.04169885441660881,-0.06465032696723938,0.4470297236599016,0.5636011306274431,0,5,0,0
0.61600002925843,0.596086526705588,-0.2716774034231573,0.3637372042069495,0.08377406001091003,-0.04208754003047943,-0.06751402467489243,0.47270827789653574,0.6020220229089533,0,5,0,0
0.6200000294484198,0.596086526705588,-0.2716774034231573,0.3637372042069495,0.08661579340696335,-0.042289093136787415,-0.07043466717004776,0.4537728966871035,0.6202799243885371,0,5,0,0
0.6240000296384096,0.596086526705588,-0.2716774034231573,0.3637372042069495,0.08950580656528473,-0.04231327027082443,-0.07302188128232956,0.43416142394826546,0.5932933420694554,0,5,0,0
0.6280000298283994,0.5520220045256207,-0.31489830878647634,0.2668870697776698,0.09243689477443695,-0.04272624850273132,-0.0750122219324112,0.4821338707014278,0.5342864727028234,0,5,0,0
0.6320000300183892,0.5520220045256207,-0.31489830878647634,0.2668870697776698,0.0954081192612648,-0.04321681335568428,-0.07605660706758499,0.4958717340410387,0.43222655873669746,0,5,0,0
0.636000030208379,0.5520220045256207,-0.31489830878647634,0.2668870697776698,0.0984194353222847,-0.04367876052856445,-0.07596669346094131,0.49737654594481734,0.30444062198970623,0,5,0,0
0.6400000303983688,0.5520220045256207,-0.31489830878647634,0.2668870697776698,0.10148028284311295,-0.04416388273239136,-0.07463429868221283,0.504940952164351,0.15951103997974875,0,5,0,0
0.6440000305883586,0.5301820443538525,-0.06377660527000424,0.2013829907353604,0.10458817332983017,-0.04441569373011589,-0.07265102118253708,0.48131815037178477,0.07852798981156592,0,5,0,0
0.6480000307783484,0.5301820443538525,-0.06377660527000424,0.2013829907353604,0.10774761438369751,-0.04449699446558952,-0.07030025124549866,0.4630555469261998,0.02795073343479698,0,5,0,0
0.6520000309683383,0.5301820443538525,-0.06377660527000424,0.2013829907353604,0.1109624132514,-0.04441088065505028,-0.06798416376113892,0.4434668594075667,0.022751321239161737,0,5,0,0
0.6560000311583281,0.5301820443538525,-0.06377660527000424,0.2013829907353604,0.11423807591199875,-0.043968312442302704,-0.06621198356151581,0.3990455828912286,0.07701107583528743,0,5,0,0
0.6600000313483179,0.5607664035660462,-0.2822018799655992,0.20788496993428837,0.11755645275115967,-0.04388267546892166,-0.06522880494594574,0.43844929410503186,0.1619975845022793,0,5,0,0
0.6640000315383077,0.5607664035660462,-0.2822018799655992,0.20788496993428837,0.1209159567952156,-0.043866172432899475,-0.06530233472585678,0.4461671101471061,0.2813281180778522,0,5,0,0
0.6680000317282975,0.5607664035660462,-0.2822018799655992,0.20788496993428837,0.12431970983743668,-0.04401286318898201,-0.06655468791723251,0.46609894932436335,0.4191148895927218,0,5,0,0
0.6720000319182873,0.5607664035660462,-0.2822018799655992,0.20788496993428837,0.12778718769550323,-0.04472368210554123,-0.06874475628137589,0.5367788903713361,0.5335331023979201,0,5,0,0
0.6760000321082771,0.48949835948516457,-0.8600491272250501,0.19512519631637773,0.13130810856819153,-0.045238278806209564,-0.07160994410514832,0.5199584310130929,0.6211166531678185,0,5,0,0
0.6800000322982669,0.48949835948516457,-0.8600491272250501,0.19512519631637773,0.1348867267370224,-0.04597088322043419,-0.07478098571300507,0.551920671890475,0.6683888430486489,0,5,0,0
0.6840000324882567,0.48949835948516457,-0.8600491272250501,0.19512519631637773,0.13852006196975708,-0.04680575802922249,-0.07771846652030945,0.5718871726448991,0.6540497017922567,0,5,0,0
0.6880000326782465,0.48949835948516457,-0.8600491272250501,0.19512519631637773,0.14220145344734192,-0.04734326899051666,-0.08012370020151138,0.5439224748546786,0.6039851345641991,0,5,0,0
0.6920000328682363,0.4442202504136882,-0.8103035438295622,0.14302727315909022,0.14592772722244263,-0.04825892671942711,-0.08214864134788513,0.5957363829096282,0.5694991477622018,0,5,0,0
0.6960000330582261,0.4442202504136882,-0.8103035438295622,0.14302727315909022,0.1496959626674652,-0.049224793910980225,-0.08307858556509018,0.611161758615165,0.4502311645654453,0,5,0,0
0.7000000332482159,0.4442202504136882,-0.8103035438295622,0.14302727315909022,0.15350747108459473,-0.05024687200784683,-0.08290620148181915,0.6278268586297846,0.3257286752120605,0,5,0,0
0.7040000334382057,0.4442202504136882,-0.8103035438295622,0.14302727315909022,0.15737031400203705,-0.051241226494312286,-0.08135268092155457,0.6347744764218769,0.16433199313276367,0,5,0,0
0.7080000336281955,0.5107900144330649,-0.4462865894989088,0.11454433535238955,0.1612844616174698,-0.05210825055837631,-0.07915309071540833,0.6292451050300221,0.08304076802548202,0,5,0,0
0.7120000338181853,0.5107900144330649,-0.4462865894989088,0.11454433535238955,0.16525116562843323,-0.05281065031886101,-0.0765400379896164,0.6178756149286436,0.02625772197139592,0,5,0,0
0.7160000340081751,0.5107900144330649,-0.4462865894989088,0.11454433535238955,0.1692781150341034,-0.053228624165058136,-0.07403644919395447,0.5901851882571468,0.028735745829962467,0,5,0,0
0.7200000341981649,0.5107900144330649,-0.4462865894989088,0.11454433535238955,0.17335614562034607,-0.053207505494356155,-0.07324331253767014,0.5407037937645037,0.21816483970350642,0,5,0,0
0.7240000343881547,0.6748396505040997,-0.6510213654010543,0.13703058983967023,0.17747898399829865,-0.05384429916739464,-0.07210610806941986,0.6212160919742999,0.17508144949043672,0,5,0,0
0.7280000345781446,0.6748396505040997,-0.6510213654010543,0.13703058983967023,0.18164487183094025,-0.05439188703894615,-0.07201703637838364,0.6167868590342929,0.29281293545773135,0,5,0,0
0.7320000347681344,0.6748396505040997,-0.6510213654010543,0.13703058983967023,0.18588213622570038,-0.05527210980653763,-0.07318379729986191,0.6631431638071175,0.43893678246289225,0,5,0,0
0.7360000349581242,0.6748396505040997,-0.6510213654010543,0.13703058983967023,0.19018709659576416,-0.055909138172864914,-0.0754430741071701,0.6422882605656575,0.5710629843966307,0,5,0,0
0.740000035148114,0.734265524338204,-1.1677903524283004,0.14707522546570714,0.1945473551750183,-0.05629716068506241,-0.07832305133342743,0.6182904416206462,0.6525996624488757,0,5,0,0
0.7440000353381038,0.734265524338204,-1.1677903524283004,0.14707522546570714,0.19896994531154633,-0.05680759623646736,-0.08156303316354752,0.6373026016288684,0.7062558570691357,0,5,0,0
0.7480000355280936,0.734265524338204,-1.1677903524283004,0.14707522546570714,0.20345114171504974,-0.05738244205713272,-0.08498357236385345,0.6504349326506222,0.7404546776348271,0,5,0,0
0.7520000357180834,0.734265524338204,-1.1677903524283004,0.14707522546570714,0.20798036456108093,-0.057709019631147385,-0.0874839797616005,0.625909033622871,0.6471514459160298,0,5,0,0
0.7560000359080732,0.7083525669932891,-1.0161655833498229,0.1239998335310223,0.21255625784397125,-0.05836234241724014,-0.0900208055973053,0.6693411657250875,0.6616118732781923,0,5,0,0
0.760000036098063,0.7083525669932891,-1.0161655833498229,0.1239998335310223,0.21717697381973267,-0.059325169771909714,-0.09155582636594772,0.7139310819970638,0.5552686256550678,0,5,0,0
0.7640000362880528,0.7083525669932891,-1.0161655833498229,0.1239998335310223,0.22184546291828156,-0.06033903360366821,-0.09202248603105545,0.7299561374019687,0.4371654998535577,0,5,0,0
0.7680000364780426,0.7083525669932891,-1.0161655833498229,0.1239998335310223,0.22657044231891632,-0.06152733415365219,-0.0911644846200943,0.7616109383790612,0.28492792500372216,0,5,0,0
0.7720000366680324,0.7159497638201231,-0.5133842608402567,0.11640627480122744,0.23134587705135345,-0.06290482729673386,-0.089431993663311,0.796821007115107,0.17983252873938707,0,5,0,0
0.7760000368580222,0.7159497638201231,-0.5133842608402567,0.11640627480122744,0.2361731231212616,-0.06421802937984467,-0.08721443265676498,0.8028744073208629,0.11660122135516834,0,5,0,0
0.780000037048012,0.7159497638201231,-0.5133842608402567,0.11640627480122744,0.2410590648651123,-0.06528092175722122,-0.084882453083992,0.7855001647567046,0.09460493287201249,0,5,0,0
0.7840000372380018,0.7159497638201231,-0.5133842608402567,0.11640627480122744,0.24599197506904602,-0.06454838067293167,-0.08481451869010925,0.5763434151911775,0.3492418206783151,0,5,0,0
0.7880000374279916,0.8394255449348046,-0.5999274850522013,0.14681258346721518,0.25097063183784485,-0.0653613805770874,-0.08324137330055237,0.7585036344951237,0.17381278945519718,0,5,0,0
0.7920000376179814,0.8394255449348046,-0.5999274850522013,0.14681258346721518,0.2559928596019745,-0.0660400316119194,-0.08255008608102798,0.750334393845809,0.27045480020958423,0,5,0,0
0.7960000378079712,0.8394255449348046,-0.5999274850522013,0.14681258346721518,0.26106929779052734,-0.0669783502817154,-0.08314280211925507,0.7890909361380045,0.41747556673307246,0,5,0,0
0.800000037997961,0.8394255449348046,-0.5999274850522013,0.14681258346721518,0.26619601249694824,-0.06704665720462799,-0.08447711169719696,0.6920586004765585,0.506444819377782,0,5,0,0
0.8040000381879508,0.9112859046957633,-1.0973794654388356,0.16830550727723032,0.27137452363967896,-0.06739672273397446,-0.0869593694806099,0.727418849630511,0.6457267199895731,0,5,0,0
0.8080000383779407,0.9112859046957633,-1.0973794654388356,0.16830550727723032,0.27661561965942383,-0.06789027899503708,-0.09011410176753998,0.7486600554697945,0.7342153010441448,0,5,0,0
0.8120000385679305,0.9112859046957633,-1.0973794654388356,0.16830550727723032,0.2819107472896576,-0.06827624142169952,-0.09390795975923538,0.7405792369285179,0.8215177504960074,0,5,0,0
0.8160000387579203,0.9112859046957633,-1.0973794654388356,0.16830550727723032,0.28725388646125793,-0.06866278499364853,-0.09666693955659866,0.7446748421814525,0.7163618790188855,0,5,0,0
0.8200000389479101,0.9182119281495116,-1.2095128658737537,0.14640998844827008,0.2926486134529114,-0.06925938278436661,-0.09993661940097809,0.7744381411043146,0.787134198854767,0,5,0,0
0.8240000391378999,0.9182119281495116,-1.2095128658737537,0.14640998844827008,0.29809460043907166,-0.07024367153644562,-0.10246892273426056,0.8280648445262921,0.7145544840558766,0,5,0,0
0.8280000393278897,0.9182119281495116,-1.2095128658737537,0.14640998844827008,0.3035898804664612,-0.07117841392755508,-0.10389074683189392,0.8320091312946023,0.5955622101739295,0,5,0,0
0.8320000395178795,0.9182119281495116,-1.2095128658737537,0.14640998844827008,0.3091590702533722,-0.073234423995018,-0.10421766340732574,0.9788876021934791,0.47394290848263937,0,5,0,0
0.8360000397078693,0.8898122098306223,-0.8138188029639882,0.1323258514223762,0.314774751663208,-0.07481634616851807,-0.10323898494243622,0.9415514976302621,0.3233965331389587,0,5,0,0
0.8400000398978591,0.8898122098306223,-0.8138188029639882,0.1323258514223762,0.32044193148612976,-0.07635331898927689,-0.10155295580625534,0.9520476718689239,0.23731919695917172,0,5,0,0
0.8440000400878489,0.8898122098306223,-0.8138188029639882,0.1323258514223762,0.3261682987213135,-0.07780122011899948,-0.09914258867502213,0.9566928413376805,0.1464276500854459,0,5,0,0
0.8480000402778387,0.8898122098306223,-0.8138188029639882,0.1323258514223762,0.3319416642189026,-0.07735900580883026,-0.09901555627584457,0.7398183829706806,0.40303230299043236,0,5,0,0
0.8520000404678285,0.9973873975860904,-0.6382530379429985,0.15518014622609289,0.3377624452114105,-0.07836100459098816,-0.09721341729164124,0.9125004023819121,0.20760757740166969,0,5,0,0
0.8560000406578183,0.9973873975860904,-0.6382530379429985,0.15518014622609289,0.3436312675476074,-0.07912075519561768,-0.09603414684534073,0.8930348795721974,0.27319368476563743,0,5,0,0
0.8600000408478081,0.9973873975860904,-0.6382530379429985,0.15518014622609289,0.3495537340641022,-0.08024255186319351,-0.09604542702436447,0.9451756085284558,0.40740625350485427,0,5,0,0
0.8640000410377979,0.9973873975860904,-0.6382530379429985,0.15518014622609289,0.35553330183029175,-0.08007362484931946,-0.09689858555793762,0.7984721078323032,0.5057627546437943,0,5,0,0
0.8680000412277877,1.1296228173103806,-0.9897096278824433,0.18302103015379612,0.36155998706817627,-0.08039151877164841,-0.09888888150453568,0.8566113394313368,0.6418892246461199,0,5,0,0
0.8720000414177775,1.1296228173103806,-0.9897096278824433,0.18302103015379612,0.367646187543869,-0.08081477135419846,-0.10172279179096222,0.8728906694291934,0.7483756092266034,0,5,0,0
0.8760000416077673,1.1296228173103806,-0.9897096278824433,0.18302103015379612,0.37379133701324463,-0.08113663643598557,-0.10565850883722305,0.8648979548896897,0.8883253124387944,0,5,0,0
0.8800000417977571,1.1296228173103806,-0.9897096278824433,0.18302103015379612,0.37998610734939575,-0.08197102695703506,-0.10934937000274658,0.9310976997525838,0.8758049103267918,0,5,0,0
0.884000041987747,1.135436143083791,-1.1742124464055481,0.17359158087850807,0.3862344026565552,-0.0825808197259903,-0.11292728781700134,0.9121265755084168,0.8776814806732169,0,5,0,0
0.8880000421777368,1.135436143083791,-1.1742124464055481,0.17359158087850807,0.39254334568977356,-0.08352472633123398,-0.11596891283988953,0.9593539057106959,0.8297933700057258,0,5,0,0
0.8920000423677266,1.135436143083791,-1.1742124464055481,0.17359158087850807,0.39889585971832275,-0.08428679406642914,-0.11781881004571915,0.9467199994692055,0.7034063509354499,0,5,0,0
0.8960000425577164,1.135436143083791,-1.1742124464055481,0.17359158087850807,0.40532031655311584,-0.08584462106227875,-0.11891674250364304,1.0520272090995522,0.623487450841411,0,5,0,0
0.9000000427477062,1.0962884392896244,-0.7271872151281916,0.16254854859223808,0.4117881953716278,-0.0869213417172432,-0.11860741674900055,1.0088785661004198,0.46421826424247414,0,5,0,0
0.904000042937696,1.0962884392896244,-0.7271872151281916,0.16254854859223808,0.418307363986969,-0.08788738399744034,-0.11754928529262543,1.0062986020640878,0.37602721927136995,0,5,0,0
0.9080000431276858,1.0962884392896244,-0.7271872151281916,0.16254854859223808,0.4248751401901245,-0.08892068266868591,-0.11562322080135345,1.0244113420586514,0.27095799526125797,0,5,0,0
0.9120000433176756,1.0962884392896244,-0.7271872151281916,0.16254854859223808,0.4314899146556854,-0.08815254271030426,-0.11566630750894547,0.814279672380246,0.49293744059294425,0,5,0,0
0.9160000435076654,1.1498896258416107,-0.3725506725733586,0.1879031355277775,0.4381508231163025,-0.08877544105052948,-0.11412368714809418,0.9772135180114507,0.308648819285,0,5,0,0
0.9200000436976552,1.1498896258416107,-0.3725506725733586,0.1879031355277775,0.4448602497577667,-0.08927512913942337,-0.11292625218629837,0.968563506604096,0.34296345800519296,0,5,0,0
0.924000043887645,1.1498896258416107,-0.3725506725733586,0.1879031355277775,0.45162177085876465,-0.09025733917951584,-0.11277111619710922,1.032885941560842,0.4598721935889277,0,5,0,0
0.9280000440776348,1.1498896258416107,-0.3725506725733586,0.1879031355277775,0.4584313929080963,-0.08886566758155823,-0.11330623924732208,0.7521208315977066,0.5399387590212412,0,5,0,0
0.9320000442676246,1.1757792410919017,-0.5461349147141906,0.227121541781716,0.46528360247612,-0.08923402428627014,-0.11431097239255905,0.9540217349589604,0.5970631711298301,0,5,0,0
0.9360000444576144,1.1757792410919017,-0.5461349147141906,0.227121541781716,0.4721902310848236,-0.08985988795757294,-0.1161961629986763,0.9894655677788252,0.7039342640030811,0,5,0,0
0.9400000446476042,1.1757792410919017,-0.5461349147141906,0.227121541781716,0.4791555106639862,-0.09039046615362167,-0.1196439191699028,0.9842686714114579,0.8938010518329131,0,5,0,0
0.944000044837594,1.1757792410919017,-0.5461349147141906,0.227121541781716,0.48616310954093933,-0.09115665405988693,-0.12271220982074738,1.0186554175946325,0.8636788547385428,0,5,0,0
0.9480000450275838,1.0447680650502156,-0.6839763054546244,0.2224992981855202,0.4932223856449127,-0.09181459248065948,-0.12609776854515076,1.0132770902952757,0.9132163808750948,0,5,0,0
0.9520000452175736,1.0447680650502156,-0.6839763054546244,0.2224992981855202,0.5003534555435181,-0.0927099734544754,-0.1293899416923523,1.049165689928907,0.9161897324025072,0,5,0,0
0.9560000454075634,1.0447680650502156,-0.6839763054546244,0.2224992981855202,0.5075253844261169,-0.09299226105213165,-0.131820946931839,0.9832387458006744,0.8293487386318161,0,5,0,0
0.9600000455975533,1.0447680650502156,-0.6839763054546244,0.2224992981855202,0.5147573351860046,-0.09371247887611389,-0.1332981288433075,1.039932982122092,0.7282722624967827,0,5,0,0
0.9640000457875431,0.9427163986220418,-0.27437166862235207,0.17999686200438586,0.5220298767089844,-0.0939534604549408,-0.13380685448646545,0.9886542112069688,0.621676976525409,0,5,0,0
0.9680000459775329,0.9427163986220418,-0.27437166862235207,0.17999686200438586,0.5293477177619934,-0.09387882798910141,-0.13357624411582947,0.9526266174079647,0.5378998204427656,0,5,0,0
0.9720000461675227,0.9427163986220418,-0.27437166862235207,0.17999686200438586,0.5367122888565063,-0.09367869794368744,-0.1322731077671051,0.9367316688080196,0.41234556371764786,0,5,0,0
0.9760000463575125,0.9427163986220418,-0.27437166862235207,0.17999686200438586,0.5441237092018127,-0.09239377826452255,-0.13220909237861633,0.8020653890942933,0.55180790540578,0,5,0,0
0.9800000465475023,0.9405848131882534,0.10661106647873488,0.16962873499030454,0.5515792369842529,-0.09194444864988327,-0.13092035055160522,0.8917966374293271,0.40918542916450085,0,5,0,0
0.9840000467374921,0.9405848131882534,0.10661106647873488,0.16962873499030454,0.5590845942497253,-0.0914822593331337,-0.12957757711410522,0.8859475852759671,0.3980467657230614,0,5,0,0
0.9880000469274819,0.9405848131882534,0.10661106647873488,0.16962873499030454,0.5666492581367493,-0.09172763675451279,-0.128827765583992,0.9682227600870429,0.46206491766723834,0,5,0,0
0.9920000471174717,0.9405848131882534,0.10661106647873488,0.16962873499030454,0.5742611289024353,-0.09037505835294724,-0.1302221268415451,0.7751438546790823,0.7091743229718681,0,5,0,0
0.9960000473074615,0.7971059358859545,-0.07862243092520309,0.19093383068524974,0.5819118022918701,-0.090670645236969,-0.1298811286687851,0.9637359188998668,0.5128941183670428,0,5,0,0
1.0000000474974513,0.7971059358859545,-0.07862243092520309,0.19093383068524974,0.5896070599555969,-0.09133201837539673,-0.1299620419740677,1.0117197988047633,0.5609947195290502,0,5,0,0
1.004000047687441,0.7971059358859545,-0.07862243092520309,0.19093383068524974,0.5973549485206604,-0.09236694127321243,-0.13113580644130707,1.0643150543876025,0.6889502532289443,0,5,0,0
1.008000047877431,0.7971059358859545,-0.07862243092520309,0.19093383068524974,0.605175256729126,-0.09297649562358856,-0.1320216804742813,1.022779782177448,0.6604229290925332,0,5,0,0
1.0120000480674207,0.6557619582957734,-0.3451385867131462,0.17977684892741602,0.6130368113517761,-0.09356975555419922,-0.13391995429992676,1.0271038267710042,0.7822324035664905,0,5,0,0
1.0160000482574105,0.6557619582957734,-0.3451385867131462,0.17977684892741602,0.6209516525268555,-0.09421075135469437,-0.13611288368701935,1.0391101756968768,0.8244795411395482,0,5,0,0
1.0200000484474003,0.6557619582957734,-0.3451385867131462,0.17977684892741602,0.6289047002792358,-0.09427516162395477,-0.13848215341567993,0.9751146696051801,0.8541272647223055,0,5,0,0
1.0240000486373901,0.6557619582957734,-0.3451385867131462,0.17977684892741602,0.6369145512580872,-0.09412014484405518,-0.14116531610488892,0.9491048483065389,0.9005116686383048,0,5,0,0
1.02800004882738,0.8424867066154182,-0.2841408011590955,0.10676315112142751,0.6449639797210693,-0.0942506343126297,-0.142863929271698,0.982755395953125,0.7968871787429938,0,5,0,0
1.0320000490173697,0.8424867066154182,-0.2841408011590955,0.10676315112142751,0.6530528664588928,-0.09424865990877151,-0.14397546648979187,0.9680596637682041,0.7356328276579146,0,5,0,0
1.0360000492073596,0.8424867066154182,-0.2841408011590955,0.10676315112142751,0.6611812114715576,-0.09419529139995575,-0.14418472349643707,0.9619702108570387,0.6353093800706486,0,5,0,0
1.0400000493973494,0.8424867066154182,-0.2841408011590955,0.10676315112142751,0.6693756580352783,-0.09362608939409256,-0.14398980140686035,0.8984716277621273,0.5894051210868818,0,5,0,0
1.0440000495873392,0.9412799453641928,0.06675888220363298,0.06965954604591848,0.6776086091995239,-0.09323864430189133,-0.14287446439266205,0.915268601412827,0.4817399976591929,0,5,0,0
1.048000049777329,0.9412799453641928,0.06675888220363298,0.06965954604591848,0.6858841776847839,-0.0927598774433136,-0.141490176320076,0.9004298583141065,0.44628542917665337,0,5,0,0
1.0520000499673188,0.9412799453641928,0.06675888220363298,0.06965954604591848,0.694197952747345,-0.09244656562805176,-0.14027394354343414,0.9161323034184682,0.4606633754463074,0,5,0,0
1.0560000501573086,0.9412799453641928,0.06675888220363298,0.06965954604591848,0.7025625109672546,-0.09149577468633652,-0.14049383997917175,0.8351275855513316,0.6234446751400088,0,5,0,0
1.0600000503472984,0.8211318003622543,0.0350004324792793,0.09240353444321334,0.7109633684158325,-0.09182363748550415,-0.14014749228954315,0.9824751293003248,0.5586931773009709,0,5,0,0
1.0640000505372882,0.8211318003622543,0.0350004324792793,0.09240353444321334,0.71940016746521,-0.09232659637928009,-0.14032824337482452,1.0074246117877341,0.6190515788030317,0,5,0,0
1.068000050727278,0.8211318003622543,0.0350004324792793,0.09240353444321334,0.7278963327407837,-0.09314790368080139,-0.14145693182945251,1.0516754339526695,0.730548778260286,0,5,0,0
1.0720000509172678,0.8211318003622543,0.0350004324792793,0.09240353444321334,0.7364529371261597,-0.09342806786298752,-0.14240959286689758,0.9938227051144234,0.7148981219566978,0,5,0,0
1.0760000511072576,0.6619779783050997,-0.26172360957956625,0.0925916968903036,0.7450482249259949,-0.09370895475149155,-0.14430731534957886,0.9969377799584516,0.8291547569998843,0,5,0,0
1.0800000512972474,0.6619779783050997,-0.26172360957956625,0.0925916968903036,0.7536897659301758,-0.09393445402383804,-0.14644679427146912,0.9931871088605211,0.8652617431295851,0,5,0,0
1.0840000514872372,0.6619779783050997,-0.26172360957956625,0.0925916968903036,0.7623663544654846,-0.0936805009841919,-0.14878413081169128,0.9369340291398638,0.8972271522264773,0,5,0,0
1.088000051677227,0.6619779783050997,-0.26172360957956625,0.0925916968903036,0.7710978388786316,-0.0930902361869812,-0.15118390321731567,0.8934197268162756,0.9142131177580566,0,5,0,0
1.0920000518672168,0.723250784810526,-0.2680396286348925,0.04006961418733788,0.7798646688461304,-0.09294997900724411,-0.15290658175945282,0.9428660895402989,0.8452977517159694,0,5,0,0
1.0960000520572066,0.723250784810526,-0.2680396286348925,0.04006961418733788,0.7886674404144287,-0.09286710619926453,-0.15398919582366943,0.9487159840420559,0.7779905317144674,0,5,0,0
1.1000000522471964,0.723250784810526,-0.2680396286348925,0.04006961418733788,0.7975046634674072,-0.09284147620201111,-0.1542007476091385,0.9551223195238087,0.6812123189635724,0,5,0,0
1.1040000524371862,0.723250784810526,-0.2680396286348925,0.04006961418733788,0.8063789010047913,-0.0927421823143959,-0.15357059240341187,0.9460647746237026,0.5843682355680565,0,5,0,0
1.108000052627176,0.6947045209548907,0.027867081301528675,0.017383054660714437,0.8152885437011719,-0.0927232950925827,-0.15229114890098572,0.9551441877974378,0.506571030423826,0,5,0,0
1.1120000528171659,0.6947045209548907,0.027867081301528675,0.017383054660714437,0.8242365717887878,-0.09269734472036362,-0.15069353580474854,0.9543125533302226,0.4647481649383728,0,5,0,0
1.1160000530071557,0.6947045209548907,0.027867081301528675,0.017383054660714437,0.8332228064537048,-0.0927128791809082,-0.14913056790828705,0.9593574523205117,0.4627517915221472,0,5,0,0
1.1200000531971455,0.6947045209548907,0.027867081301528675,0.017383054660714437,0.8422625660896301,-0.09234309941530228,-0.14791855216026306,0.9125334297305554,0.4977408478960166,0,5,0,0
1.1240000533871353,0.613518180220182,-0.0262085613795716,0.05752493745442385,0.851335346698761,-0.09247079491615295,-0.1472410410642624,0.9699982794755293,0.55551595252387,0,5,0,0
1.128000053577125,0.613518180220182,-0.0262085613795716,0.05752493745442385,0.8604398965835571,-0.09264866262674332,-0.14731056988239288,0.9776436867099197,0.6401895995288779,0,5,0,0
1.1320000537671149,0.613518180220182,-0.0262085613795716,0.05752493745442385,0.869577944278717,-0.09284167736768723,-0.14831148087978363,0.981500694989461,0.7493296812794313,0,5,0,0
1.1360000539571047,0.613518180220182,-0.0262085613795716,0.05752493745442385,0.8787611722946167,-0.0931394174695015,-0.14963629841804504,0.9964832331584673,0.7914275626829053,0,5,0,0
1.1400000541470945,0.5408098021590297,-0.4265569351626859,0.069705484311992,0.8879821300506592,-0.0932849571108818,-0.15180671215057373,0.9810399624944275,0.8956031210761427,0,5,0,0
1.1440000543370843,0.5408098021590297,-0.4265569351626859,0.069705484311992,0.8972446322441101,-0.09345309436321259,-0.15426422655582428,0.9854878535660385,0.9381022370055617,0,5,0,0
1.148000054527074,0.5408098021590297,-0.4265569351626859,0.069705484311992,0.9065399765968323,-0.093431755900383,-0.15662238001823425,0.964182688219469,0.9367326390464661,0,5,0,0
1.152000054717064,0.5408098021590297,-0.4265569351626859,0.069705484311992,0.9158834218978882,-0.09310740977525711,-0.15899066627025604,0.9270743243730615,0.9477273004489111,0,5,0,0
1.1560000549070537,0.5923069455231047,-0.42751946939451424,0.01624722104355674,0.9252592921257019,-0.09324035048484802,-0.16071724891662598,0.9800722747829075,0.8828277002431972,0,5,0,0
1.1600000550970435,0.5923069455231047,-0.42751946939451424,0.01624722104355674,0.9346649646759033,-0.09346048533916473,-0.1616053283214569,0.9923072693172763,0.7924362604762878,0,5,0,0
1.1640000552870333,0.5923069455231047,-0.42751946939451424,0.01624722104355674,0.944101095199585,-0.09388862550258636,-0.16156363487243652,1.0202145998262362,0.688057798332251,0,5,0,0
1.1680000554770231,0.5923069455231047,-0.42751946939451424,0.01624722104355674,0.9535706639289856,-0.09429129958152771,-0.16056255996227264,1.021602705377439,0.5765084396015844,0,5,0,0
1.172000055667013,0.6259115437641937,-0.10920211822294071,-0.012635041404294134,0.9630740880966187,-0.09470587223768234,-0.1588725447654724,1.0273143159160667,0.49262389437466825,0,5,0,0
1.1760000558570027,0.6259115437641937,-0.10920211822294071,-0.012635041404294134,0.9726133346557617,-0.09507159143686295,-0.15682418644428253,1.0257036660896273,0.4444932395762099,0,5,0,0
1.1800000560469925,0.6259115437641937,-0.10920211822294071,-0.012635041404294134,0.9821889400482178,-0.09534455835819244,-0.1548893302679062,1.0182275314912197,0.4498945399660324,0,5,0,0
1.1840000562369823,0.6259115437641937,-0.10920211822294071,-0.012635041404294134,0.9918158650398254,-0.0947430208325386,-0.15454456210136414,0.9140577938827361,0.6277712668763056,0,5,0,0
1.1880000564269722,0.6695862903720735,-0.19144862191956977,0.017478614827326898,1.0014724731445312,-0.09529194235801697,-0.15382131934165955,1.0492023469149792,0.5826690773130216,0,5,0,0
1.192000056616962,0.6695862903720735,-0.19144862191956977,0.017478614827326898,1.0111570358276367,-0.09578778594732285,-0.15386450290679932,1.048419405969446,0.6694340438477164,0,5,0,0
1.1960000568069518,0.6695862903720735,-0.19144862191956977,0.017478614827326898,1.0208957195281982,-0.09647069871425629,-0.15500545501708984,1.0765253448101952,0.7978688208621637,0,5,0,0
1.2000000569969416,0.6695862903720735,-0.19144862191956977,0.017478614827326898,1.0306669473648071,-0.09655847400426865,-0.15639303624629974,1.0106818750854099,0.8315402636443983,0,5,0,0
1.2040000571869314,0.6736462208203632,-0.5684090822766843,0.036756649717700166,1.0404726266860962,-0.0965203046798706,-0.158579021692276,0.9963630621354742,0.9304852652184135,0,5,0,0
1.2080000573769212,0.6736462208203632,-0.5684090822766843,0.036756649717700166,1.050320029258728,-0.0964537039399147,-0.16103200614452362,0.9927300095380288,0.9707210666393364,0,5,0,0
1.212000057566911,0.6736462208203632,-0.5684090822766843,0.036756649717700166,1.060196876525879,-0.09608539938926697,-0.16364622116088867,0.9553358919103507,0.999709115255919,0,5,0,0
1.2160000577569008,0.6736462208203632,-0.5684090822766843,0.036756649717700166,1.0701217651367188,-0.0954970195889473,-0.1658734530210495,0.9249228223529248,0.9654805359975763,0,5,0,0
1.2200000579468906,0.6960763707242708,-0.5104712820470332,0.008237862707875486,1.080074667930603,-0.095319002866745,-0.16779600083827972,0.969537264844092,0.9392964844860119,0,5,0,0
1.2240000581368804,0.6960763707242708,-0.5104712820470332,0.008237862707875486,1.0900551080703735,-0.09543798118829727,-0.1689549684524536,1.004368040060754,0.858435078122578,0,5,0,0
1.2280000583268702,0.6960763707242708,-0.5104712820470332,0.008237862707875486,1.1000609397888184,-0.0957651287317276,-0.16915363073349,1.0312883881638664,0.7516013511331523,0,5,0,0
1.23200005851686,0.6960763707242708,-0.5104712820470332,0.008237862707875486,1.1100963354110718,-0.09630337357521057,-0.16835400462150574,1.0606504098341862,0.6364994574349945,0,5,0,0
1.2360000587068498,0.6468831746847151,-0.13497308022161614,-0.007174131715695829,1.120160460472107,-0.0970822349190712,-0.16682210564613342,1.0957413756544256,0.5483915413877887,0,5,0,0
1.2400000588968396,0.6468831746847151,-0.13497308022161614,-0.007174131715695829,1.130255937576294,-0.09789158403873444,-0.16491295397281647,1.1074996812787938,0.49870979929991843,0,5,0,0
1.2440000590868294,0.6468831746847151,-0.13497308022161614,-0.007174131715695829,1.1403841972351074,-0.09864777326583862,-0.16296927630901337,1.1093178405880837,0.4874420411812222,0,5,0,0
1.2480000592768192,0.6468831746847151,-0.13497308022161614,-0.007174131715695829,1.1505606174468994,-0.09793547540903091,-0.16219985485076904,0.9372251180788703,0.6168574518691443,0,5,0,0
1.252000059466809,0.6630821567119931,-0.1803114552008305,0.024551940525238618,1.160761833190918,-0.0981828048825264,-0.16083592176437378,1.0478921210881114,0.5449051707639022,0,5,0,0
1.2560000596567988,0.6630821567119931,-0.1803114552008305,0.024551940525238618,1.1709866523742676,-0.09836840629577637,-0.16030287742614746,1.0430398129591558,0.6366327000642763,0,5,0,0
1.2600000598467886,0.6630821567119931,-0.1803114552008305,0.024551940525238618,1.181257724761963,-0.09873795509338379,-0.16117458045482635,1.0676663517960068,0.7985404024610772,0,5,0,0
1.2640000600367785,0.6630821567119931,-0.1803114552008305,0.024551940525238618,1.1915560960769653,-0.09859329462051392,-0.16234871745109558,1.008607830804599,0.8376504071244111,0,5,0,0
1.2680000602267683,0.6427970799609024,-0.5846560614235873,0.054694056805147155,1.2018847465515137,-0.09860774874687195,-0.16454322636127472,1.0268894222393288,0.9616151813896971,0,5,0,0
1.272000060416758,0.6427970799609024,-0.5846560614235873,0.054694056805147155,1.2122585773468018,-0.09880443662405014,-0.167234867811203,1.0495947276637803,1.0287105189565904,0,5,0,0
1.2760000606067479,0.6427970799609024,-0.5846560614235873,0.054694056805147155,1.2226568460464478,-0.0987192913889885,-0.17021547257900238,1.017273978002734,1.0735498268978143,0,5,0,0
