time,roll,pitch,yaw,altitude,linear_velocity_x,linear_velocity_y,desired_roll,desired_pitch,desired_yaw,desired_altitude,desired_linear_velocity_x,desired_linear_velocity_y
0.004000000189989805,0.0,0.0,0.0,0.06905829161405563,3.220294456696138e-05,1.8638242181623355e-05,-0.003944937824448157,-0.002171399846349724,0,5,0,0
0.00800000037997961,0.0,0.0,0.0,0.06795962899923325,3.216322511434555e-05,1.8624474250827916e-05,-0.00031731829175098684,-7.303843538607886e-05,0,5,0,0
0.012000000569969416,0.0,0.0,0.0,0.06670400500297546,3.21235456794966e-05,1.8610711777000688e-05,-0.00031700309591435,-7.302866511005078e-05,0,5,0,0
0.01600000075995922,0.0,0.0,0.0,0.06570035219192505,0.0025692323688417673,-0.0016443810891360044,-0.3111234504705319,0.19366790549168925,0,5,0,0
0.020000000949949026,0.0,0.0,0.0,0.06466511636972427,0.005023260600864887,-0.0037369723431766033,-0.32632922255756147,0.25037717542320675,0,5,0,0
0.02400000113993883,0.0,0.0,0.0,0.06359975785017014,0.007052346132695675,-0.00594946788623929,-0.2988309520064199,0.2727306681933434,0,5,0,0
0.028000001329928637,0.0,0.0,0.0,0.06254293769598007,0.00808501522988081,-0.008534527383744717,-0.19708020344242305,0.3250048319340855,0,5,0,0
0.03200000151991844,0.0,0.0,0.0,0.06145884096622467,0.008380375802516937,-0.00993370171636343,-0.11710671699968318,0.19721329543679028,0,5,0,0
0.03600000170990825,-0.13209015463659574,0.03848881342103151,0.037734429646062995,0.06034613028168678,0.007748373784124851,-0.010431721806526184,-0.006477006378381167,0.09785056446995508,0,5,0,0
0.04000000189989805,-0.13209015463659574,0.03848881342103151,0.037734429646062995,0.05921043083071709,0.006177382543683052,-0.009871430695056915,0.11485436277036634,-0.023426913069684398,0,5,0,0
0.04400000208988786,-0.13209015463659574,0.03848881342103151,0.037734429646062995,0.05806078761816025,0.004296076018363237,-0.008480630815029144,0.1685675853312492,-0.12240199109991129,0,5,0,0
0.04800000227987766,-0.13209015463659574,0.03848881342103151,0.037734429646062995,0.05691932141780853,0.002109016990289092,-0.00613230187445879,0.22483026889705854,-0.23950260353151445,0,5,0,0
0.05200000246986747,-0.2182671419893031,0.13068919106509883,0.10971476054480218,0.05576760321855545,-2.7363385015632957e-05,-0.0036208105739206076,0.2404927901564727,-0.2678956434124057,0,5,0,0
0.05600000265985727,-0.2182671419893031,0.13068919106509883,0.10971476054480218,0.05459858849644661,-0.0017715025460347533,-0.0012235048925504088,0.21381129886177222,-0.26463604817975334,0,5,0,0
0.06000000284984708,-0.2182671419893031,0.13068919106509883,0.10971476054480218,0.053416088223457336,-0.0027490786742419004,0.0008325387607328594,0.13735532083772944,-0.23447024454974838,0,5,0,0
0.06400000303983688,-0.2182671419893031,0.13068919106509883,0.10971476054480218,0.052228230983018875,-0.0028409468941390514,0.0022791377268731594,0.03863868635744363,-0.1716995862980751,0,5,0,0
0.06800000322982669,0.10320930690493772,-0.24427467899709243,0.17749541821162587,0.05101671442389488,-0.002208855003118515,0.0026734538841992617,-0.0491224399102882,-0.05490145684824338,0,5,0,0
0.0720000034198165,0.10320930690493772,-0.24427467899709243,0.17749541821162587,0.04978453740477562,-0.0008238741429522634,0.002032247604802251,-0.14767027621977233,0.06415475947293585,0,5,0,0
0.0760000036098063,0.10320930690493772,-0.24427467899709243,0.17749541821162587,0.048535991460084915,0.001038942369632423,0.0004680745187215507,-0.22005744315120151,0.1742440892584364,0,5,0,0
0.0800000037997961,0.10320930690493772,-0.24427467899709243,0.17749541821162587,0.04734324663877487,0.0023491682950407267,-0.0018345684511587024,-0.17099890230486475,0.26653692208391255,0,5,0,0
0.08400000398978591,0.3786664987817292,-0.7009087608812311,0.2174505467155998,0.04614448547363281,0.004127901513129473,-0.004514845088124275,-0.24150320937295267,0.31975264978972795,0,5,0,0
0.08800000417977571,0.3786664987817292,-0.7009087608812311,0.2174505467155998,0.04493743181228638,0.005414416082203388,-0.0071327961049973965,-0.19900675427889003,0.3232299406413194,0,5,0,0
0.09200000436976552,0.3786664987817292,-0.7009087608812311,0.2174505467155998,0.04371850937604904,0.005938787013292313,-0.00914407055824995,-0.11852356147846299,0.2630458740591517,0,5,0,0
0.09600000455975533,0.3786664987817292,-0.7009087608812311,0.2174505467155998,0.042554158717393875,0.004903322551399469,-0.010877585969865322,0.06730078854130926,0.238758151213193,0,5,0,0
0.10000000474974513,0.41499030288385164,-0.6159483099388151,0.28373148890072114,0.04137181118130684,0.003743405919522047,-0.011385382153093815,0.09289183914370948,0.10292325422063373,0,5,0,0
0.10400000493973494,0.41499030288385164,-0.6159483099388151,0.28373148890072114,0.0401756651699543,0.0018662341171875596,-0.010920412838459015,0.19235028104875374,-0.008346527357532274,0,5,0,0
0.10800000512972474,0.41499030288385164,-0.6159483099388151,0.28373148890072114,0.03897359222173691,-0.0006661714869551361,-0.009468020871281624,0.29138973510403116,-0.12521841510985654,0,5,0,0
0.11200000531971455,0.41499030288385164,-0.6159483099388151,0.28373148890072114,0.037793438881635666,-0.0030723526142537594,-0.00795703288167715,0.3012586670531595,-0.1378353223983924,0,5,0,0
0.11600000550970435,0.6023696245428689,-0.36747462883806525,0.355679005726338,0.03660915046930313,-0.005501565523445606,-0.0058715008199214935,0.32815507524287957,-0.2107995640897311,0,5,0,0
0.12000000569969416,0.6023696245428689,-0.36747462883806525,0.355679005726338,0.03542253002524376,-0.00741055840626359,-0.003926555160433054,0.288738039224796,-0.20275395349100847,0,5,0,0
0.12400000588968396,0.6023696245428689,-0.36747462883806525,0.355679005726338,0.034221354871988297,-0.008703718893229961,-0.0026003667153418064,0.23240939177816697,-0.13844228307758244,0,5,0,0
0.12800000607967377,0.6023696245428689,-0.36747462883806525,0.355679005726338,0.03303218260407448,-0.00865127146244049,-0.002337615005671978,0.0805247969654422,-0.019851052587506867,0,5,0,0
0.13200000626966357,0.9810073919158888,-0.6227979936094588,0.38985467482699787,0.03183034807443619,-0.008102983236312866,-0.0028307142201811075,0.019279275038821438,0.06716136291625208,0,5,0,0
0.13600000645965338,0.9810073919158888,-0.6227979936094588,0.38985467482699787,0.030620543286204338,-0.006897722836583853,-0.004341139458119869,-0.06666614044252434,0.18766265480299113,0,5,0,0
0.14000000664964318,0.9810073919158888,-0.6227979936094588,0.38985467482699787,0.0294183399528265,-0.00534913782030344,-0.006958306767046452,-0.12076317020144,0.32265650104802607,0,5,0,0
0.144000006839633,0.9810073919158888,-0.6227979936094588,0.38985467482699787,0.02824806049466133,-0.004006043076515198,-0.01029257569462061,-0.11106684857814263,0.41669220720720934,0,5,0,0
0.1480000070296228,1.0896091727576436,-0.9727051398057587,0.3993566747348531,0.02708260528743267,-0.0025515456218272448,-0.013622752390801907,-0.13813850379618012,0.42958523258939524,0,5,0,0
0.1520000072196126,1.0896091727576436,-0.9727051398057587,0.3993566747348531,0.0259240735322237,-0.001690614502876997,-0.016723493114113808,-0.07996754791189087,0.41621678614619867,0,5,0,0
0.1560000074096024,1.0896091727576436,-0.9727051398057587,0.3993566747348531,0.024764027446508408,-0.001533495495095849,-0.019119227305054665,-0.002356198854609571,0.3465323779331076,0,5,0,0
0.1600000075995922,1.0896091727576436,-0.9727051398057587,0.3993566747348531,0.02365642972290516,-0.002997172763571143,-0.02105158008635044,0.19462733946330238,0.3021819067438875,0,5,0,0
0.16400000778958201,0.8010414017184022,-0.7786395577860775,0.44922591831146363,0.02254129759967327,-0.004415785428136587,-0.0215691439807415,0.20375429629543063,0.14514018605255577,0,5,0,0
0.16800000797957182,0.8010414017184022,-0.7786395577860775,0.44922591831146363,0.02142280712723732,-0.006479374133050442,-0.021065624430775642,0.2969655349360177,0.028304783319695846,0,5,0,0
0.17200000816956162,0.8010414017184022,-0.7786395577860775,0.44922591831146363,0.0203100498765707,-0.009087421000003815,-0.019505903124809265,0.38431935373714105,-0.09670997964072992,0,5,0,0
0.17600000835955143,0.8010414017184022,-0.7786395577860775,0.44922591831146363,0.019244978204369545,-0.01081123948097229,-0.018636321648955345,0.3021077968243533,-0.022502851170148885,0,5,0,0
0.18000000854954123,0.692450124331522,-0.4490625537708319,0.5153442810999468,0.018186040222644806,-0.012829313054680824,-0.01618066616356373,0.35542301927514774,-0.21071995710894137,0,5,0,0
0.18400000873953104,0.692450124331522,-0.4490625537708319,0.5153442810999468,0.017135193571448326,-0.014424239285290241,-0.013853482902050018,0.32380282591959236,-0.20554231729467415,0,5,0,0
0.18800000892952085,0.692450124331522,-0.4490625537708319,0.5153442810999468,0.01608724519610405,-0.015766898170113564,-0.012381264939904213,0.3088871802722768,-0.1152178824955764,0,5,0,0
0.19200000911951065,0.692450124331522,-0.4490625537708319,0.5153442810999468,0.01508844643831253,-0.014553390443325043,-0.011483032256364822,0.00921830099556395,-0.05420991317485714,0,5,0,0
0.19600000930950046,0.8642597506609473,-0.6413985053253493,0.5809840264122292,0.014086732640862465,-0.014431502670049667,-0.011427689343690872,0.13084129780806145,0.04042123634858634,0,5,0,0
0.20000000949949026,0.8642597506609473,-0.6413985053253493,0.5809840264122292,0.013089125044643879,-0.014026252552866936,-0.012600835412740707,0.09494419746851854,0.18334906651075308,0,5,0,0
0.20400000968948007,0.8642597506609473,-0.6413985053253493,0.5809840264122292,0.01212384458631277,-0.01334040891379118,-0.015600934624671936,0.05655100834705065,0.4009191244152558,0,5,0,0
0.20800000987946987,0.8642597506609473,-0.6413985053253493,0.5809840264122292,0.011215033009648323,-0.013152986764907837,-0.01881861500442028,0.11078076901130204,0.4383128908291936,0,5,0,0
0.21200001006945968,0.7874897460388414,-0.9241227981107664,0.6273176086006784,0.010322842746973038,-0.012646854855120182,-0.022534066811203957,0.06989495596779817,0.5092280627008956,0,5,0,0
0.21600001025944948,0.7874897460388414,-0.9241227981107664,0.6273176086006784,0.00946962833404541,-0.01267415750771761,-0.026279345154762268,0.13020978589116963,0.5276277317342655,0,5,0,0
0.2200000104494393,0.7874897460388414,-0.9241227981107664,0.6273176086006784,0.008618514984846115,-0.012646223418414593,-0.029189718887209892,0.12374666276714077,0.4454125177040423,0,5,0,0
0.2240000106394291,0.7874897460388414,-0.9241227981107664,0.6273176086006784,0.007819002494215965,-0.013929443433880806,-0.031425781548023224,0.28411712336806705,0.37857219827089156,0,5,0,0
0.2280000108294189,0.4716445858340847,-0.5446845722969884,0.6845197428288147,0.007021904923021793,-0.014864910393953323,-0.03224173188209534,0.25438525188184696,0.222150750597303,0,5,0,0
0.2320000110194087,0.4716445858340847,-0.5446845722969884,0.6845197428288147,0.006230168975889683,-0.01598089374601841,-0.03190246596932411,0.28589153268389134,0.09090843127116094,0,5,0,0
0.2360000112093985,0.4716445858340847,-0.5446845722969884,0.6845197428288147,0.005450890399515629,-0.01736801490187645,-0.030053189024329185,0.3303074289581086,-0.08629278190821284,0,5,0,0
0.2400000113993883,0.4716445858340847,-0.5446845722969884,0.6845197428288147,0.00472462922334671,-0.0184005219489336,-0.02881617099046707,0.3007825753382225,-0.02229257099914074,0,5,0,0
0.24400001158937812,0.2853669293778528,-0.03577120462886624,0.7633517493502316,0.0040137688629329205,-0.01904091238975525,-0.025793977081775665,0.2631190618321113,-0.23515171746524388,0,5,0,0
0.24800001177936792,0.2853669293778528,-0.03577120462886624,0.7633517493502316,0.003329882398247719,-0.019305339083075523,-0.022614937275648117,0.22351374199635804,-0.26545876346118025,0,5,0,0
0.25200001196935773,0.2853669293778528,-0.03577120462886624,0.7633517493502316,0.0026541026309132576,-0.019703244790434837,-0.01993432082235813,0.24255647522584606,-0.22006076237117517,0,5,0,0
0.25600001215934753,0.2853669293778528,-0.03577120462886624,0.7633517493502316,0.0020251688547432423,-0.01875021867454052,-0.019357997924089432,0.08109139169647984,0.014413418928654498,0,5,0,0
0.26000001234933734,0.21896929077048816,-0.18354924512558,0.8357661378635088,0.0014026103308424354,-0.01836111582815647,-0.017835227772593498,0.14068579471932216,-0.09811016805939983,0,5,0,0
0.26400001253932714,0.21896929077048816,-0.18354924512558,0.8357661378635088,0.0007875654846429825,-0.017918186262249947,-0.017413737252354622,0.13024399705067136,0.02413961546280733,0,5,0,0
0.26800001272931695,0.21896929077048816,-0.18354924512558,0.8357661378635088,0.0002100630954373628,-0.017739037051796913,-0.01859668269753456,0.15817036721610467,0.2094150668204936,0,5,0,0
0.27200001291930676,0.21896929077048816,-0.18354924512558,0.8357661378635088,-0.0003495222481433302,-0.017215004190802574,-0.020372606813907623,0.11417194577515778,0.2832777548853283,0,5,0,0
0.27600001310929656,0.07860352411151257,-0.5013494041352827,0.877476135412335,-0.0008896213839761913,-0.01698116399347782,-0.023324958980083466,0.14452097170962502,0.42749129277085574,0,5,0,0
0.28000001329928637,0.07860352411151257,-0.5013494041352827,0.877476135412335,-0.0013941389042884111,-0.01715838722884655,-0.026601439341902733,0.19257901817613193,0.4771254779535041,0,5,0,0
0.28400001348927617,0.07860352411151257,-0.5013494041352827,0.877476135412335,-0.001884810859337449,-0.017361395061016083,-0.029905354604125023,0.1975515308502642,0.4934993380055948,0,5,0,0
0.288000013679266,0.07860352411151257,-0.5013494041352827,0.877476135412335,-0.0023265178315341473,-0.01795533485710621,-0.031763024628162384,0.24751386546900556,0.33830366779662613,0,5,0,0
0.2920000138692558,-0.02758892125227167,-0.28854838703504937,0.8760258260173054,-0.0027553336694836617,-0.018450597301125526,-0.033542223274707794,0.24140956976413752,0.33667293417395505,0,5,0,0
0.2960000140592456,-0.02758892125227167,-0.28854838703504937,0.8760258260173054,-0.0031736227683722973,-0.019155455753207207,-0.034193869680166245,0.2720836771679929,0.21251196398966987,0,5,0,0
0.3000000142492354,-0.02758892125227167,-0.28854838703504937,0.8760258260173054,-0.003564009442925453,-0.01969287171959877,-0.03342929854989052,0.25866782098086505,0.050209444586308605,0,5,0,0
0.3040000144392252,-0.02758892125227167,-0.28854838703504937,0.8760258260173054,-0.003909637685865164,-0.02017475664615631,-0.031350329518318176,0.2572878479800915,-0.1059009476179957,0,5,0,0
0.308000014629215,-0.04536705781757132,0.14637657732127024,0.8987953481806528,-0.00423253420740366,-0.02079533040523529,-0.028480907902121544,0.27914598728380763,-0.20623619144704902,0,5,0,0
0.3120000148192048,-0.04536705781757132,0.14637657732127024,0.8987953481806528,-0.004524288233369589,-0.0211477167904377,-0.025220157578587532,0.2525495275304745,-0.26324314184452624,0,5,0,0
0.3160000150091946,-0.04536705781757132,0.14637657732127024,0.8987953481806528,-0.0047857677564024925,-0.021235814318060875,-0.02197105810046196,0.22374897369804456,-0.2748760891688893,0,5,0,0
0.3200000151991844,-0.04536705781757132,0.14637657732127024,0.8987953481806528,-0.005000422243028879,-0.020421050488948822,-0.021047694608569145,0.11407844812211833,-0.01687374264329966,0,5,0,0
0.3240000153891742,0.04987329345161675,-0.15437514132177693,0.9297868951586287,-0.005198861472308636,-0.020207244902849197,-0.018650395795702934,0.17959668877889245,-0.19223589267631697,0,5,0,0
0.32800001557916403,0.04987329345161675,-0.15437514132177693,0.9297868951586287,-0.005382975097745657,-0.019881626591086388,-0.017328642308712006,0.1638092905277082,-0.07648247446693185,0,5,0,0
0.33200001576915383,0.04987329345161675,-0.15437514132177693,0.9297868951586287,-0.00551669392734766,-0.020024197176098824,-0.017391806468367577,0.2179543028388029,0.07961515035667208,0,5,0,0
0.33600001595914364,0.04987329345161675,-0.15437514132177693,0.9297868951586287,-0.005621866323053837,-0.019864462316036224,-0.018620839342474937,0.18239526799441635,0.2157361960156961,0,5,0,0
0.34000001614913344,0.036204930389443085,-0.7909937505724933,0.9310578559157875,-0.0057007912546396255,-0.019771086052060127,-0.020962055772542953,0.18897429766858087,0.3502720147748738,0,5,0,0
0.34400001633912325,0.036204930389443085,-0.7909937505724933,0.9310578559157875,-0.005743330344557762,-0.020013058558106422,-0.023893624544143677,0.22916878890746004,0.4284702698308101,0,5,0,0
0.34800001652911305,0.036204930389443085,-0.7909937505724933,0.9310578559157875,-0.005754092708230019,-0.020492596551775932,-0.027281077578663826,0.26073946716640467,0.49337253370062406,0,5,0,0
0.35200001671910286,0.036204930389443085,-0.7909937505724933,0.9310578559157875,-0.005716695450246334,-0.021473895758390427,-0.029440077021718025,0.3270521303599859,0.3638781651853259,0,5,0,0
0.35600001690909266,-0.025252022332941493,-0.8267829398302934,0.8949997714391528,-0.005655455403029919,-0.022172022610902786,-0.03191370889544487,0.302229723418534,0.4092454323546662,0,5,0,0
0.36000001709908247,-0.025252022332941493,-0.8267829398302934,0.8949997714391528,-0.005571778863668442,-0.02317783050239086,-0.03339643403887749,0.3469575443699484,0.30377948251066983,0,5,0,0
0.3640000172890723,-0.025252022332941493,-0.8267829398302934,0.8949997714391528,-0.005457526538521051,-0.024072133004665375,-0.03356267884373665,0.34341398682394797,0.1564209811082076,0,5,0,0
0.3680000174790621,-0.025252022332941493,-0.8267829398302934,0.8949997714391528,-0.005317219533026218,-0.025584351271390915,-0.032523345202207565,0.4281130921361017,0.01671413379757035,0,5,0,0
0.3720000176690519,0.027126417305728196,-0.4360627502485752,0.8786372112185764,-0.005150080192834139,-0.026733331382274628,-0.030306411907076836,0.3988027626520478,-0.12456081872864583,0,5,0,0
0.3760000178590417,0.027126417305728196,-0.4360627502485752,0.8786372112185764,-0.004948779009282589,-0.027682406827807426,-0.02740068919956684,0.3858706811031235,-0.21360675311362992,0,5,0,0
0.3800000180490315,0.027126417305728196,-0.4360627502485752,0.8786372112185764,-0.0047114817425608635,-0.02841203100979328,-0.023997092619538307,0.3685468458242429,-0.2831743544066867,0,5,0,0
0.3840000182390213,0.027126417305728196,-0.4360627502485752,0.8786372112185764,-0.004427268169820309,-0.028162071481347084,-0.023113392293453217,0.25591167732530984,-0.003165368463223045,0,5,0,0
0.3880000184290111,0.23550287899303873,-0.4582084524492058,0.883378420613924,-0.004116477444767952,-0.028410935774445534,-0.02032267488539219,0.3145861837637179,-0.22881887520564326,0,5,0,0
0.3920000186190009,0.23550287899303873,-0.4582084524492058,0.883378420613924,-0.0037808148190379143,-0.028419632464647293,-0.01839158684015274,0.28772250374433933,-0.1397907888520582,0,5,0,0
0.3960000188089907,0.23550287899303873,-0.4582084524492058,0.883378420613924,-0.003388071432709694,-0.028961485251784325,-0.017766477540135384,0.35319059723993357,0.0046740153550301755,0,5,0,0
0.4000000189989805,0.23550287899303873,-0.4582084524492058,0.883378420613924,-0.0029537403024733067,-0.028391655534505844,-0.018601376563310623,0.22249616423715735,0.17230918331127015,0,5,0,0
0.4040000191889703,0.39262011111105416,-0.9610873498803673,0.8642049315834787,-0.0024898257106542587,-0.02836119383573532,-0.020509982481598854,0.282938513317943,0.30078485090761536,0,5,0,0
0.40800001937896013,0.39262011111105416,-0.9610873498803673,0.8642049315834787,-0.0019842961337417364,-0.028646225109696388,-0.023262443020939827,0.3213505347475613,0.40678416329020883,0,5,0,0
0.41200001956894994,0.39262011111105416,-0.9610873498803673,0.8642049315834787,-0.0014287435915321112,-0.029263798147439957,-0.027078522369265556,0.36500744489249354,0.541770579467662,0,5,0,0
0.41600001975893974,0.39262011111105416,-0.9610873498803673,0.8642049315834787,-0.0008251150720752776,-0.03045484982430935,-0.029721267521381378,0.44150739714153076,0.42041280031761796,0,5,0,0
0.42000001994892955,0.37157360365817294,-1.1457084474952455,0.8060943273230711,-0.00018636841559782624,-0.031208502128720284,-0.032991696149110794,0.39991139352995747,0.5041880825555803,0,5,0,0
0.42400002013891935,0.37157360365817294,-1.1457084474952455,0.8060943273230711,0.000493946485221386,-0.032415036112070084,-0.035519346594810486,0.4630037159144854,0.43082138926491936,0,5,0,0
0.42800002032890916,0.37157360365817294,-1.1457084474952455,0.8060943273230711,0.0012102226028218865,-0.03337075933814049,-0.03688451275229454,0.444424829147671,0.30559110051709826,0,5,0,0
0.43200002051889896,0.37157360365817294,-1.1457084474952455,0.8060943273230711,0.0019835273269563913,-0.03543431684374809,-0.037192922085523605,0.5897767970964749,0.18802886378531425,0,5,0,0
0.43600002070888877,0.415778275960595,-0.7421579870192541,0.7644732211473826,0.002786562079563737,-0.03685634583234787,-0.036036986857652664,0.531913587481275,0.018752856347317187,0,5,0,0
0.4400000208988786,0.415778275960595,-0.7421579870192541,0.7644732211473826,0.0036254411097615957,-0.03813992813229561,-0.034023407846689224,0.5292656945790482,-0.08570472452894431,0,5,0,0
0.4440000210888684,0.415778275960595,-0.7421579870192541,0.7644732211473826,0.004506613593548536,-0.039281439036130905,-0.031024713069200516,0.5247920477720691,-0.2084505627941595,0,5,0,0
0.4480000212788582,0.415778275960595,-0.7421579870192541,0.7644732211473826,0.005434849765151739,-0.0393676683306694,-0.030481304973363876,0.4070296477189038,0.06566869852402889,0,5,0,0
0.452000021468848,0.6335766930881094,-0.5236383036881155,0.7487875693332995,0.006397510413080454,-0.03992262855172157,-0.027726944535970688,0.46540729097064226,-0.19401432516646655,0,5,0,0
0.4560000216588378,0.6335766930881094,-0.5236383036881155,0.7487875693332995,0.007398126181215048,-0.040125489234924316,-0.02553488500416279,0.42792100285477797,-0.13946243069306646,0,5,0,0
0.4600000218488276,0.6335766930881094,-0.5236383036881155,0.7487875693332995,0.008457726798951626,-0.0408569872379303,-0.024487769231200218,0.4948057353119766,-0.014785956383835439,0,5,0,0
0.4640000220388174,0.6335766930881094,-0.5236383036881155,0.7487875693332995,0.009567753411829472,-0.04125609248876572,-0.025062568485736847,0.4615016196039468,0.17003882272855075,0,5,0,0
0.4680000222288072,0.8750147896588301,-0.8567829551522194,0.7208966142827508,0.010709513910114765,-0.041219502687454224,-0.02608172781765461,0.4122189573635734,0.22416856253691325,0,5,0,0
0.472000022418797,0.8750147896588301,-0.8567829551522194,0.7208966142827508,0.011894485913217068,-0.04122082144021988,-0.02816067636013031,0.41659578699850164,0.35177822285811405,0,5,0,0
0.4760000226087868,0.8750147896588301,-0.8567829551522194,0.7208966142827508,0.013136827386915684,-0.041387852281332016,-0.031552813947200775,0.4370080353133189,0.5131562604633999,0,5,0,0
0.4800000227987766,0.8750147896588301,-0.8567829551522194,0.7208966142827508,0.01442462857812643,-0.041789062321186066,-0.035486046224832535,0.4674655880733313,0.589847505885738,0,5,0,0
0.48400002298876643,1.045870291023772,-1.021063044168635,0.6634088517144784,0.015756485983729362,-0.04214632511138916,-0.03957458958029747,0.466195301809532,0.6237691537534349,0,5,0,0
0.48800002317875624,1.045870291023772,-1.021063044168635,0.6634088517144784,0.01714092679321766,-0.042906295508146286,-0.04332718998193741,0.5192025844766892,0.601089960110677,0,5,0,0
0.49200002336874604,1.045870291023772,-1.021063044168635,0.6634088517144784,0.01856163516640663,-0.04373563081026077,-0.04619956016540527,0.5354044544988186,0.5136644249533312,0,5,0,0
0.49600002355873585,1.045870291023772,-1.021063044168635,0.6634088517144784,0.020015008747577667,-0.04501502588391304,-0.04830135405063629,0.5989381631957167,0.43549769431538354,0,5,0,0
0.5000000237487257,1.1520060375265992,-0.483077121126463,0.6037923135010106,0.02149997465312481,-0.046104978770017624,-0.04875081777572632,0.5886360989242291,0.25152541699726627,0,5,0,0
0.5040000239387155,1.1520060375265992,-0.483077121126463,0.6037923135010106,0.02302042581140995,-0.04712700471282005,-0.04810423031449318,0.5913276824104091,0.12574876470592491,0,5,0,0
0.5080000241287053,1.1520060375265992,-0.483077121126463,0.6037923135010106,0.024577077478170395,-0.048103559762239456,-0.046416595578193665,0.5960932061908976,0.001991812713236063,0,5,0,0
0.5120000243186951,1.1520060375265992,-0.483077121126463,0.6037923135010106,0.026180721819400787,-0.047610338777303696,-0.04641954228281975,0.4259254651487708,0.19230540950908112,0,5,0,0
0.5160000245086849,1.2555910165580382,0.04120173658429062,0.5780858143944099,0.02782762423157692,-0.047887470573186874,-0.04445387050509453,0.5154763967682161,-0.036920157052821645,0,5,0,0
0.5200000246986747,1.2555910165580382,0.04120173658429062,0.5780858143944099,0.0295180045068264,-0.04791496321558952,-0.04260256513953209,0.48778191567680007,-0.03135691159667994,0,5,0,0
0.5240000248886645,1.2555910165580382,0.04120173658429062,0.5780858143944099,0.03125939890742302,-0.04828624427318573,-0.04166492819786072,0.5302868081167766,0.06778022927465066,0,5,0,0
0.5280000250786543,1.2555910165580382,0.04120173658429062,0.5780858143944099,0.03304767608642578,-0.046789221465587616,-0.04276682808995247,0.30524469932649817,0.30173835213547034,0,5,0,0
0.5320000252686441,1.2960196950672802,-0.024387121461125927,0.5606781440521048,0.034869950264692307,-0.046540163457393646,-0.042849279940128326,0.443261848906674,0.18748309854475953,0,5,0,0
0.5360000254586339,1.2960196950672802,-0.024387121461125927,0.5606781440521048,0.03673435375094414,-0.04639339819550514,-0.04390987381339073,0.4534134738615141,0.30187183011053764,0,5,0,0
0.5400000256486237,1.2960196950672802,-0.024387121461125927,0.5606781440521048,0.03864588588476181,-0.046330444514751434,-0.04645911604166031,0.4623239325559143,0.47965323289118145,0,5,0,0
0.5440000258386135,1.2960196950672802,-0.024387121461125927,0.5606781440521048,0.04059598594903946,-0.04575119912624359,-0.04934685304760933,0.39855846719039967,0.52940327404812,0,5,0,0
0.5480000260286033,1.181274347633942,-0.1400787417437163,0.5219212409509921,0.04259135574102402,-0.04558936506509781,-0.053014207631349564,0.4440083131581048,0.6319068998230933,0,5,0,0
0.5520000262185931,1.181274347633942,-0.1400787417437163,0.5219212409509921,0.044647134840488434,-0.04567709565162659,-0.05690491199493408,0.47307126558801205,0.6727331381117267,0,5,0,0
0.5560000264085829,1.181274347633942,-0.1400787417437163,0.5219212409509921,0.04674204811453819,-0.045587990432977676,-0.06054786965250969,0.4523955974461844,0.6595787805339202,0,5,0,0
0.5600000265985727,1.181274347633942,-0.1400787417437163,0.5219212409509921,0.04890216514468193,-0.04593409225344658,-0.06324196606874466,0.5049276470527592,0.5637600623440175,0,5,0,0
0.5640000267885625,1.059338509887177,0.1661175053357177,0.45900171753584934,0.05109984427690506,-0.046040672808885574,-0.06495971232652664,0.47915780919114725,0.4609475630832639,0,5,0,0
0.5680000269785523,1.059338509887177,0.1661175053357177,0.45900171753584934,0.05333372578024864,-0.046058692038059235,-0.06565157324075699,0.4694853936173996,0.3484604748556684,0,5,0,0
0.5720000271685421,1.059338509887177,0.1661175053357177,0.45900171753584934,0.055610403418540955,-0.045860279351472855,-0.06511750817298889,0.44326274206069854,0.2085638301874994,0,5,0,0
0.576000027358532,1.059338509887177,0.1661175053357177,0.45900171753584934,0.05793769657611847,-0.04518881067633629,-0.06382326036691666,0.38343771227596857,0.11801946079815934,0,5,0,0
0.5800000275485218,0.9968450082569814,0.5903172268406411,0.42394706090180373,0.060310881584882736,-0.04478052258491516,-0.062001392245292664,0.4090701188827569,0.05152350897986677,0,5,0,0
0.5840000277385116,0.9968450082569814,0.5903172268406411,0.42394706090180373,0.06273576617240906,-0.044169194996356964,-0.06011446192860603,0.380220906727215,0.03680056583171229,0,5,0,0
0.5880000279285014,0.9968450082569814,0.5903172268406411,0.42394706090180373,0.06520533561706543,-0.04355417937040329,-0.05858173966407776,0.3737603763158478,0.07065867693058833,0,5,0,0
0.5920000281184912,0.9968450082569814,0.5903172268406411,0.42394706090180373,0.06772197037935257,-0.041687097400426865,-0.05942736566066742,0.21433214864240738,0.3417479732684586,0,5,0,0
0.596000028308481,0.8436059861519746,0.27520730478684274,0.40912106587069713,0.07027676701545715,-0.04128282517194748,-0.05885057896375656,0.3749545932446794,0.1795606474588381,0,5,0,0
0.6000000284984708,0.8436059861519746,0.27520730478684274,0.40912106587069713,0.07287025451660156,-0.04107608273625374,-0.0591057650744915,0.39520785212388326,0.27432018215923065,0,5,0,0
0.6040000286884606,0.8436059861519746,0.27520730478684274,0.40912106587069713,0.0755206048488617,-0.04136474430561066,-0.06048927083611488,0.4539266911295274,0.40693533415844174,0,5,0,0
0.6080000288784504,0.8436059861519746,0.27520730478684274,0.40912106587069713,0.07822324335575104,-0.04149970784783363,-0.06202118843793869,0.43808489862403405,0.42990818665457264,0,5,0,0
0.6120000290684402,0.5952138765035857,-0.2713344788435156,0.3632644136056496,0.08097171783447266,-0.041695550084114075,-0.06464642286300659,0.44699224306795504,0.5635624125499474,0,5,0,0
0.61600002925843,0.5952138765035857,-0.2713344788435156,0.3632644136056496,0.08377398550510406,-0.04208417609333992,-0.06750987470149994,0.47266767861385983,0.6019777013483568,0,5,0,0
0.6200000294484198,0.5952138765035857,-0.2713344788435156,0.3632644136056496,0.08661570399999619,-0.042285677045583725,-0.07043031603097916,0.4537326058554439,0.6202398168641658,0,5,0,0
0.6240000296384096,0.5952138765035857,-0.2713344788435156,0.3632644136056496,0.08950572460889816,-0.042309802025556564,-0.07301723957061768,0.434120603252175,0.5932420028310743,0,5,0,0
0.6280000298283994,0.5519753723522073,-0.31496680130309285,0.2669029880783415,0.09243681281805038,-0.04272272065281868,-0.07500734180212021,0.48209160730177214,0.5342400354097541,0,5,0,0
0.6320000300183892,0.5519753723522073,-0.31496680130309285,0.2669029880783415,0.09540803730487823,-0.04321325570344925,-0.07605148106813431,0.49583251684090274,0.4321782874743127,0,5,0,0
0.636000030208379,0.5519753723522073,-0.31496680130309285,0.2669029880783415,0.09841934591531754,-0.04367513209581375,-0.07596131414175034,0.4973320021847603,0.3043904863477163,0,5,0,0
0.6400000303983688,0.5519753723522073,-0.31496680130309285,0.2669029880783415,0.10148006677627563,-0.044161394238471985,-0.07463021576404572,0.5050440077402896,0.15964042372053733,0,5,0,0
0.6440000305883586,0.5301846215053024,-0.06363648099225351,0.20141993713957262,0.10458783060312271,-0.04441307857632637,-0.07264643907546997,0.4812774407255043,0.07845336194285762,0,5,0,0
0.6480000307783484,0.5301846215053024,-0.06363648099225351,0.20141993713957262,0.1077471598982811,-0.04449397698044777,-0.07029496133327484,0.46297979368417075,0.027849792321906375,0,5,0,0
0.6520000309683383,0.5301846215053024,-0.06363648099225351,0.20141993713957262,0.11096177995204926,-0.04440770298242569,-0.06797749549150467,0.4434167378483082,0.022569413567820718,0,5,0,0
0.6560000311583281,0.5301846215053024,-0.06363648099225351,0.20141993713957262,0.1142372339963913,-0.04396425560116768,-0.06620392203330994,0.39890577454868303,0.07682189940143666,0,5,0,0
0.6600000313483179,0.5587954584221342,-0.2810204782335407,0.20724677137752295,0.1175553947687149,-0.0438777320086956,-0.06521952152252197,0.4382997695169935,0.16182277658371852,0,5,0,0
0.6640000315383077,0.5587954584221342,-0.2810204782335407,0.20724677137752295,0.12091468274593353,-0.04386003315448761,-0.06529150903224945,0.4459708277464311,0.28111107291496557,0,5,0,0
0.6680000317282975,0.5587954584221342,-0.2810204782335407,0.20724677137752295,0.12431825697422028,-0.044005557894706726,-0.0665423795580864,0.4658943419934564,0.4188985897498353,0,5,0,0
0.6720000319182873,0.5587954584221342,-0.2810204782335407,0.20724677137752295,0.12778569757938385,-0.0447150282561779,-0.06872955709695816,0.5365402410585144,0.5331467848134852,0,5,0,0
0.6760000321082771,0.4869322647176181,-0.8580413374827662,0.1942948833159819,0.13130654394626617,-0.04522807151079178,-0.07159269601106644,0.5196811725095896,0.6208168140506389,0,5,0,0
0.6800000322982669,0.4869322647176181,-0.8580413374827662,0.1942948833159819,0.13488511741161346,-0.04595909267663956,-0.07476145029067993,0.5516241998447874,0.6680529856446056,0,5,0,0
0.6840000324882567,0.4869322647176181,-0.8580413374827662,0.1942948833159819,0.1385183483362198,-0.04679182916879654,-0.07769656926393509,0.5715068388279697,0.6536959625958253,0,5,0,0
0.6880000326782465,0.4869322647176181,-0.8580413374827662,0.1942948833159819,0.14219963550567627,-0.047327764332294464,-0.08009946346282959,0.5435896292145445,0.6036244938411944,0,5,0,0
0.6920000328682363,0.4413285805068329,-0.8081625406161407,0.14215277549134275,0.145925834774971,-0.048241738229990005,-0.08212199807167053,0.5953745039459469,0.5691212732327038,0,5,0,0
0.6960000330582261,0.4413285805068329,-0.8081625406161407,0.14215277549134275,0.14969398081302643,-0.04920600354671478,-0.08304961770772934,0.6107930358993747,0.4498531422815521,0,5,0,0
0.7000000332482159,0.4413285805068329,-0.8081625406161407,0.14215277549134275,0.15350541472434998,-0.05022650212049484,-0.08287452161312103,0.627444806366229,0.32529614295670795,0,5,0,0
0.7040000334382057,0.4413285805068329,-0.8081625406161407,0.14215277549134275,0.15736821293830872,-0.051218897104263306,-0.08131761103868484,0.6343300278366685,0.1638095413377637,0,5,0,0
0.7080000336281955,0.5078302500648408,-0.4446095110115314,0.11369048465900734,0.16128231585025787,-0.05208432674407959,-0.07911527156829834,0.6288257261087687,0.082579312771415,0,5,0,0
0.7120000338181853,0.5078302500648408,-0.4446095110115314,0.11369048465900734,0.16524900496006012,-0.05278513953089714,-0.07649952918291092,0.6174411432351022,0.025792116380024932,0,5,0,0
0.7160000340081751,0.5078302500648408,-0.4446095110115314,0.11369048465900734,0.16927595436573029,-0.05320149287581444,-0.07399333268404007,0.5897306745794618,0.028268826039177908,0,5,0,0
0.7200000341981649,0.5078302500648408,-0.4446095110115314,0.11369048465900734,0.17335399985313416,-0.05317926034331322,-0.07319776713848114,0.5402950706193198,0.21770821161331638,0,5,0,0
0.7240000343881547,0.6717377964133676,-0.64959354099859,0.13614646710823863,0.17747683823108673,-0.053814906626939774,-0.07205798476934433,0.6207920525366484,0.17459763049522806,0,5,0,0
0.7280000345781446,0.6717377964133676,-0.64959354099859,0.13614646710823863,0.18164277076721191,-0.054361492395401,-0.07196639478206635,0.6163690703289986,0.2923256272599375,0,5,0,0
0.7320000347681344,0.6717377964133676,-0.64959354099859,0.13614646710823863,0.18588007986545563,-0.05524080619215965,-0.07313022017478943,0.6627266876432837,0.4383906649094401,0,5,0,0
0.7360000349581242,0.6717377964133676,-0.64959354099859,0.13614646710823863,0.19018511474132538,-0.05587770417332649,-0.07538648694753647,0.6419579959925988,0.5704963089929709,0,5,0,0
0.740000035148114,0.7314126590481969,-1.1669916978044492,0.1462643642219844,0.1945454478263855,-0.056264959275722504,-0.0782637819647789,0.6178807603974739,0.652058996334868,0,5,0,0
0.7440000353381038,0.7314126590481969,-1.1669916978044492,0.1462643642219844,0.1989680677652359,-0.056774530559778214,-0.08150101453065872,0.6368733019009705,0.7056965013409449,0,5,0,0
0.7480000355280936,0.7314126590481969,-1.1669916978044492,0.1462643642219844,0.2034492790699005,-0.05734870955348015,-0.08491872996091843,0.650021095737427,0.7398754893019033,0,5,0,0
0.7520000357180834,0.7314126590481969,-1.1669916978044492,0.1462643642219844,0.20797859132289886,-0.05767481401562691,-0.08741679787635803,0.6255121764447265,0.6466172207853713,0,5,0,0
0.7560000359080732,0.705837961628249,-1.0156891845943197,0.12323957790699018,0.21255452930927277,-0.05832771211862564,-0.08995138853788376,0.668945426840085,0.6610802755137497,0,5,0,0
0.760000036098063,0.705837961628249,-1.0156891845943197,0.12323957790699018,0.21717524528503418,-0.05929022282361984,-0.0914841964840889,0.713544246501649,0.5547305192599835,0,5,0,0
0.7640000362880528,0.705837961628249,-1.0156891845943197,0.12323957790699018,0.22184376418590546,-0.060303982347249985,-0.0919487252831459,0.7295920631251552,0.436627913061518,0,5,0,0
0.7680000364780426,0.705837961628249,-1.0156891845943197,0.12323957790699018,0.22656872868537903,-0.061492763459682465,-0.09108921140432358,0.7613173846938347,0.2844536774775307,0,5,0,0
0.7720000366680324,0.7132147819976289,-0.5127945209920556,0.11558196711487523,0.23134411871433258,-0.06287014484405518,-0.08935477584600449,0.7964596164778518,0.17930170244819624,0,5,0,0
0.7760000368580222,0.7132147819976289,-0.5127945209920556,0.11558196711487523,0.23617134988307953,-0.06418325752019882,-0.08713529258966446,0.802514553732301,0.11606503069946345,0,5,0,0
0.780000037048012,0.7132147819976289,-0.5127945209920556,0.11558196711487523,0.24105724692344666,-0.06524619460105896,-0.08480123430490494,0.7851557622827918,0.09404263044745825,0,5,0,0
0.7840000372380018,0.7132147819976289,-0.5127945209920556,0.11558196711487523,0.2459900975227356,-0.06451353430747986,-0.08473163098096848,0.5759792968069866,0.3487187440682884,0,5,0,0
0.7880000374279916,0.8377153871767548,-0.5998694645495313,0.14612365178664755,0.25096872448921204,-0.06532642990350723,-0.08315683901309967,0.7581400655285834,0.17328543822045533,0,5,0,0
0.7920000376179814,0.8377153871767548,-0.5998694645495313,0.14612365178664755,0.2559908926486969,-0.06600490212440491,-0.08246402442455292,0.749960570526378,0.26993454399520495,0,5,0,0
0.7960000378079712,0.8377153871767548,-0.5998694645495313,0.14612365178664755,0.26106736063957214,-0.06694316118955612,-0.08305522799491882,0.7887298433627381,0.41695072684989476,0,5,0,0
0.800000037997961,0.8377153871767548,-0.5998694645495313,0.14612365178664755,0.2661938965320587,-0.06701201945543289,-0.08438988029956818,0.6917716696030738,0.506129850425128,0,5,0,0
0.8040000381879508,0.9097618940147527,-1.0973158803611769,0.16761114920295841,0.27137231826782227,-0.06736189126968384,-0.08687066286802292,0.7270460789828186,0.6452011188535346,0,5,0,0
0.8080000383779407,0.9097618940147527,-1.0973158803611769,0.16761114920295841,0.2766133248806,-0.06785503029823303,-0.09002354741096497,0.7482578821917713,0.733640182087821,0,5,0,0
0.8120000385679305,0.9097618940147527,-1.0973158803611769,0.16761114920295841,0.2819083631038666,-0.06824110448360443,-0.09381546825170517,0.74023760841862,0.8209246026729061,0,5,0,0
0.8160000387579203,0.9097618940147527,-1.0973158803611769,0.16761114920295841,0.28725144267082214,-0.06862693279981613,-0.09657248854637146,0.7442329359481273,0.7157581519317288,0,5,0,0
0.8200000389479101,0.9156813179306018,-1.2082918620190808,0.14551139659850404,0.2926460802555084,-0.06922248005867004,-0.09984000027179718,0.7739479224233216,0.7864980980781089,0,5,0,0
0.8240000391378999,0.9156813179306018,-1.2082918620190808,0.14551139659850404,0.29809194803237915,-0.07020558416843414,-0.10236981511116028,0.8275476005874701,0.7138721492633087,0,5,0,0
0.8280000393278897,0.9156813179306018,-1.2082918620190808,0.14551139659850404,0.3035871088504791,-0.07113904505968094,-0.10378944128751755,0.8314680813982608,0.5949035299837554,0,5,0,0
0.8320000395178795,0.9156813179306018,-1.2082918620190808,0.14551139659850404,0.3091558516025543,-0.07318934053182602,-0.10411010682582855,0.9777905749286239,0.4728029904973001,0,5,0,0
0.8360000397078693,0.8869608110692652,-0.8122742475378991,0.1312991322017284,0.3147711455821991,-0.07476992160081863,-0.103129081428051,0.9409329655941645,0.32268617535894745,0,5,0,0
0.8400000398978591,0.8869608110692652,-0.8122742475378991,0.1312991322017284,0.3204379081726074,-0.07630585134029388,-0.10144073516130447,0.9514521227087214,0.23660265408844658,0,5,0,0
0.8440000400878489,0.8869608110692652,-0.8122742475378991,0.1312991322017284,0.3261638283729553,-0.07775178551673889,-0.09902936965227127,0.9559735684072603,0.14585520165694282,0,5,0,0
0.8480000402778387,0.8869608110692652,-0.8122742475378991,0.1312991322017284,0.3319367468357086,-0.0773090049624443,-0.09890017658472061,0.7392509073691103,0.4023201772938997,0,5,0,0
0.8520000404678285,0.9952177460156467,-0.6382045613188785,0.15412393621574408,0.3377571403980255,-0.07831069827079773,-0.09709574282169342,0.9119590879668298,0.20687090274610814,0,5,0,0
0.8560000406578183,0.9952177460156467,-0.6382045613188785,0.15412393621574408,0.3436254560947418,-0.07907082885503769,-0.09591443091630936,0.8925743586355118,0.27247705542492795,0,5,0,0
0.8600000408478081,0.9952177460156467,-0.6382045613188785,0.15412393621574408,0.34954744577407837,-0.08019297569990158,-0.09592341631650925,0.9447151176207439,0.406651653753707,0,5,0,0
0.8640000410377979,0.9952177460156467,-0.6382045613188785,0.15412393621574408,0.35552671551704407,-0.08002569526433945,-0.09677477180957794,0.7981738127849585,0.5050559661359236,0,5,0,0
0.8680000412277877,1.1272493193264366,-0.9910336256377795,0.18186450870542747,0.3615531027317047,-0.08034462481737137,-0.09876251965761185,0.8562545565427844,0.6410881214478115,0,5,0,0
0.8720000414177775,1.1272493193264366,-0.9910336256377795,0.18186450870542747,0.3676390051841736,-0.08076909929513931,-0.10159384459257126,0.8725669506368064,0.7475596641977488,0,5,0,0
0.8760000416077673,1.1272493193264366,-0.9910336256377795,0.18186450870542747,0.3737838566303253,-0.08109263330698013,-0.10552657395601273,0.8646411112069657,0.887451837759956,0,5,0,0
0.8800000417977571,1.1272493193264366,-0.9910336256377795,0.18186450870542747,0.3799781799316406,-0.08192869275808334,-0.10921452939510345,0.9308574437683147,0.8749287092177992,0,5,0,0
0.884000041987747,1.132758537599917,-1.1763097798989164,0.1722762927514145,0.38622617721557617,-0.08254053443670273,-0.11278992891311646,0.9119494596402348,0.876838462612294,0,5,0,0
0.8880000421777368,1.132758537599917,-1.1763097798989164,0.1722762927514145,0.3925347924232483,-0.0834866538643837,-0.11582884937524796,0.9592172668790634,0.8289182427925117,0,5,0,0
0.8920000423677266,1.132758537599917,-1.1763097798989164,0.1722762927514145,0.3988869786262512,-0.08425115048885345,-0.11767653375864029,0.9466318715037717,0.7025773515276859,0,5,0,0
0.8960000425577164,1.132758537599917,-1.1763097798989164,0.1722762927514145,0.4053111672401428,-0.08581339567899704,-0.11877083778381348,1.052206984940185,0.622484331378605,0,5,0,0
0.9000000427477062,1.0944129663785371,-0.7303020311671751,0.16117547143319366,0.4117788076400757,-0.08689280599355698,-0.11845963448286057,1.008890709906924,0.46340425463214613,0,5,0,0
0.904000042937696,1.0944129663785371,-0.7303020311671751,0.16117547143319366,0.418297678232193,-0.08786191046237946,-0.11739984899759293,1.0063832161342254,0.37523138060666705,0,5,0,0
0.9080000431276858,1.0944129663785371,-0.7303020311671751,0.16117547143319366,0.4248652160167694,-0.08889792114496231,-0.11547219753265381,1.0244836266714672,0.2701629899585205,0,5,0,0
0.9120000433176756,1.0944129663785371,-0.7303020311671751,0.16117547143319366,0.4314797520637512,-0.08813285827636719,-0.1155145987868309,0.8144237519718731,0.4922407503991551,0,5,0,0
0.9160000435076654,1.1490467680036776,-0.3759296610693455,0.18632230197407437,0.4381404221057892,-0.08875902742147446,-0.11397146433591843,0.9774120592063977,0.30796898577257836,0,5,0,0
0.9200000436976552,1.1490467680036776,-0.3759296610693455,0.18632230197407437,0.4448496699333191,-0.08926212787628174,-0.11277418583631516,0.9688120658704134,0.342359322507245,0,5,0,0
0.924000043887645,1.1490467680036776,-0.3759296610693455,0.18632230197407437,0.45161089301109314,-0.09024828672409058,-0.11261949688196182,1.0332343168783977,0.45930217176476573,0,5,0,0
0.9280000440776348,1.1490467680036776,-0.3759296610693455,0.18632230197407437,0.45842018723487854,-0.0888601765036583,-0.11315573006868362,0.7524612216175063,0.5394474154557526,0,5,0,0
0.9320000442676246,1.177506675791576,-0.5502192315339915,0.22555132259585178,0.46527209877967834,-0.08923239260911942,-0.1141619086265564,0.9544342426813204,0.5966149700243096,0,5,0,0
0.9360000444576144,1.177506675791576,-0.5502192315339915,0.22555132259585178,0.47217845916748047,-0.08986235409975052,-0.11604908108711243,0.9899458817020848,0.7035539870186799,0,5,0,0
0.9400000446476042,1.177506675791576,-0.5502192315339915,0.22555132259585178,0.4791436195373535,-0.09039716422557831,-0.11949930340051651,0.9848064081328737,0.8934847747073865,0,5,0,0
0.944000044837594,1.177506675791576,-0.5502192315339915,0.22555132259585178,0.4861513078212738,-0.09117038547992706,-0.1225760281085968,1.0195786802965736,0.8640673774179854,0,5,0,0
0.9480000450275838,1.0478674038417444,-0.6877920008448366,0.22078514049518772,0.49321070313453674,-0.09183233231306076,-0.1259647160768509,1.013900174443827,0.9130203097265335,0,5,0,0
0.9520000452175736,1.0478674038417444,-0.6877920008448366,0.22078514049518772,0.5003418922424316,-0.09273179620504379,-0.12926043570041656,1.0498380375365068,0.9160544750005382,0,5,0,0
0.9560000454075634,1.0478674038417444,-0.6877920008448366,0.22078514049518772,0.5075139999389648,-0.09301873296499252,-0.13169364631175995,0.9840213510248708,0.8290711229458496,0,5,0,0
0.9600000455975533,1.0478674038417444,-0.6877920008448366,0.22078514049518772,0.5147461891174316,-0.0937419980764389,-0.1331765353679657,1.0405659201573854,0.7284111329957612,0,5,0,0
0.9640000457875431,0.946497125081962,-0.2766976246052171,0.1783368998235738,0.5220190286636353,-0.09398522973060608,-0.13368847966194153,0.9892200398822546,0.6215484819754343,0,5,0,0
0.9680000459775329,0.946497125081962,-0.2766976246052171,0.1783368998235738,0.5293372869491577,-0.09391189366579056,-0.1334611028432846,0.9530982010956173,0.5377856601421949,0,5,0,0
0.9720000461675227,0.946497125081962,-0.2766976246052171,0.1783368998235738,0.536702036857605,-0.09371384233236313,-0.13216154277324677,0.9373121339411953,0.4122839975285828,0,5,0,0
0.9760000463575125,0.946497125081962,-0.2766976246052171,0.1783368998235738,0.5441137552261353,-0.09242941439151764,-0.13210105895996094,0.8024723226082977,0.5517551770956456,0,5,0,0
0.9800000465475023,0.9450101457739872,0.10675121030570135,0.16801068646055053,0.5515695810317993,-0.09198009967803955,-0.13081616163253784,0.8921501613396654,0.40918303279094925,0,5,0,0
0.9840000467374921,0.9450101457739872,0.10675121030570135,0.16801068646055053,0.5590752363204956,-0.09151733666658401,-0.12947674095630646,0.8862292393929397,0.3980022178294894,0,5,0,0
0.9880000469274819,0.9450101457739872,0.10675121030570135,0.16801068646055053,0.5666401386260986,-0.0917612835764885,-0.12873074412345886,0.9683937979597519,0.46208736350840773,0,5,0,0
0.9920000471174717,0.9450101457739872,0.10675121030570135,0.16801068646055053,0.5742520689964294,-0.09040673077106476,-0.13012857735157013,0.7752340366367707,0.7091718754237257,0,5,0,0
0.9960000473074615,0.8007266894432625,-0.07595388955132192,0.1891319614133745,0.5819029211997986,-0.09069989621639252,-0.12979109585285187,0.9637516652563285,0.5129105505779631,0,5,0,0
1.0000000474974513,0.8007266894432625,-0.07595388955132192,0.1891319614133745,0.5895983576774597,-0.09135834127664566,-0.12987549602985382,1.0116493306155858,0.5610215387554626,0,5,0,0
1.004000047687441,0.8007266894432625,-0.07595388955132192,0.1891319614133745,0.5973463654518127,-0.09238937497138977,-0.131052628159523,1.0640976214628102,0.6889769324327527,0,5,0,0
1.008000047877431,0.8007266894432625,-0.07595388955132192,0.1891319614133745,0.6051676273345947,-0.09299130737781525,-0.13194043934345245,1.0220662320324128,0.6602962293881895,0,5,0,0
1.0120000480674207,0.6587990093563205,-0.3402847830128006,0.1778764275257201,0.6130302548408508,-0.09358040243387222,-0.1338421106338501,1.026737573721631,0.7822833921907071,0,5,0,0
1.0160000482574105,0.6587990093563205,-0.3402847830128006,0.1778764275257201,0.6209459900856018,-0.0942167192697525,-0.1360388845205307,1.038639312195215,0.8245960215807494,0,5,0,0
1.0200000484474003,0.6587990093563205,-0.3402847830128006,0.1778764275257201,0.6288999915122986,-0.09427647292613983,-0.13841286301612854,0.9745997576927452,0.8543596440064606,0,5,0,0
1.0240000486373901,0.6587990093563205,-0.3402847830128006,0.1778764275257201,0.636911153793335,-0.09411828219890594,-0.14109858870506287,0.9487249923156036,0.9005127409757195,0,5,0,0
1.02800004882738,0.8470018957900683,-0.2794825701378055,0.10526368817546158,0.6449615359306335,-0.09423164278268814,-0.14278803765773773,0.9806342751451308,0.7955321005874532,0,5,0,0
1.0320000490173697,0.8470018957900683,-0.2794825701378055,0.10526368817546158,0.6530516147613525,-0.09420856088399887,-0.14389652013778687,0.9652797781661343,0.7349526571063617,0,5,0,0
1.0360000492073596,0.8470018957900683,-0.2794825701378055,0.10526368817546158,0.6611810326576233,-0.09413190186023712,-0.14410950243473053,0.9587116782193453,0.6354066833021143,0,5,0,0
1.0400000493973494,0.8470018957900683,-0.2794825701378055,0.10526368817546158,0.6693772673606873,-0.09353877604007721,-0.143935427069664,0.8949024012558332,0.5915118419753046,0,5,0,0
1.0440000495873392,0.9452078249596492,0.07086811216161745,0.0685578754668253,0.677611768245697,-0.0931362509727478,-0.14283832907676697,0.9125432612704544,0.48362622131098876,0,5,0,0
1.048000049777329,0.9452078249596492,0.07086811216161745,0.0685578754668253,0.6858888268470764,-0.09264897555112839,-0.14147475361824036,0.8983584502013788,0.44853274544227845,0,5,0,0
1.0520000499673188,0.9452078249596492,0.07086811216161745,0.0685578754668253,0.6942039728164673,-0.09233731031417847,-0.1402791440486908,0.9152195522241111,0.4629831387381867,0,5,0,0
1.0560000501573086,0.9452078249596492,0.07086811216161745,0.0685578754668253,0.702569842338562,-0.09138995409011841,-0.1405160278081894,0.8344500932306455,0.6254234041223812,0,5,0,0
1.0600000503472984,0.820063965904605,0.040065800527522406,0.09131981214531887,0.710972011089325,-0.09172794222831726,-0.14018039405345917,0.9826513555703759,0.5600090847736521,0,5,0,0
1.0640000505372882,0.820063965904605,0.040065800527522406,0.09131981214531887,0.7194101214408875,-0.09224358201026917,-0.14036354422569275,1.008014946970178,0.6194417469960541,0,5,0,0
1.068000050727278,0.820063965904605,0.040065800527522406,0.09131981214531887,0.727907657623291,-0.09307632595300674,-0.141488179564476,1.0522399859844054,0.7301969362043188,0,5,0,0
1.0720000509172678,0.820063965904605,0.040065800527522406,0.09131981214531887,0.7364665865898132,-0.09336400777101517,-0.142421156167984,0.9940213916742722,0.7127090467150429,0,5,0,0
1.0760000511072576,0.6601766987947262,-0.25460280206493957,0.09142275256653262,0.7450642585754395,-0.0936485156416893,-0.14430195093154907,0.9967341577710812,0.8272080884097772,0,5,0,0
1.0800000512972474,0.6601766987947262,-0.25460280206493957,0.09142275256653262,0.7537078857421875,-0.09387131035327911,-0.14642250537872314,0.9922446659753039,0.8630146833529402,0,5,0,0
1.0840000514872372,0.6601766987947262,-0.25460280206493957,0.09142275256653262,0.762386679649353,-0.09360558539628983,-0.14874234795570374,0.9348536097162704,0.8950709488512565,0,5,0,0
1.088000051677227,0.6601766987947262,-0.25460280206493957,0.09142275256653262,0.7711204290390015,-0.0930095836520195,-0.15114322304725647,0.8919606784806398,0.9141533504263821,0,5,0,0
1.0920000518672168,0.7260372439710465,-0.2635506826753007,0.03889931824548236,0.7798896431922913,-0.09285565465688705,-0.15285305678844452,0.9403774240268887,0.8436173845213778,0,5,0,0
1.0960000520572066,0.7260372439710465,-0.2635506826753007,0.03889931824548236,0.7886946201324463,-0.09275542199611664,-0.15392950177192688,0.9456385477713527,0.7770363634197064,0,5,0,0
1.1000000522471964,0.7260372439710465,-0.2635506826753007,0.03889931824548236,0.7975341081619263,-0.09271446615457535,-0.15413819253444672,0.9521201459318129,0.6806187129279678,0,5,0,0
1.1040000524371862,0.7260372439710465,-0.2635506826753007,0.03889931824548236,0.8064107894897461,-0.09259815514087677,-0.1535263955593109,0.9427018149126836,0.5862351222922544,0,5,0,0
1.108000052627176,0.6980332685419318,0.029448761237218096,0.016478054811049466,0.8153226971626282,-0.09256332367658615,-0.15226051211357117,0.9517421011301653,0.5079522893078681,0,5,0,0
1.1120000528171659,0.6980332685419318,0.029448761237218096,0.016478054811049466,0.8242729902267456,-0.09252559393644333,-0.1506797969341278,0.9512608091468459,0.46657249176054827,0,5,0,0
1.1160000530071557,0.6980332685419318,0.029448761237218096,0.016478054811049466,0.8332610726356506,-0.09254049509763718,-0.14913606643676758,0.9575528940767118,0.46491627288428206,0,5,0,0
1.1200000531971455,0.6980332685419318,0.029448761237218096,0.016478054811049466,0.8423029184341431,-0.09217166900634766,-0.14794352650642395,0.9109165313259924,0.5000101145561815,0,5,0,0
1.1240000533871353,0.6137011869301457,-0.022532684632954807,0.05710808169930106,0.8513776659965515,-0.09230700880289078,-0.1472804695367813,0.9692101258102533,0.557278190070877,0,5,0,0
1.128000053577125,0.6137011869301457,-0.022532684632954807,0.05710808169930106,0.8604844212532043,-0.09249672293663025,-0.14735671877861023,0.9774463719372821,0.6411087880201539,0,5,0,0
1.1320000537671149,0.6137011869301457,-0.022532684632954807,0.05710808169930106,0.8696245551109314,-0.09270299226045609,-0.1483592689037323,0.9815940111637871,0.7496838952037481,0,5,0,0
1.1360000539571047,0.6137011869301457,-0.022532684632954807,0.05710808169930106,0.8788096308708191,-0.09300680458545685,-0.14966975152492523,0.9958289378663638,0.7899274372717873,0,5,0,0
1.1400000541470945,0.5371565387417083,-0.41832538438290007,0.0691706810523991,0.8880323171615601,-0.09315914660692215,-0.1518259048461914,0.9805355317051296,0.8940543819852196,0,5,0,0
1.1440000543370843,0.5371565387417083,-0.41832538438290007,0.0691706810523991,0.8972964882850647,-0.09332885593175888,-0.15426474809646606,0.9844104357548564,0.9359826059022462,0,5,0,0
1.148000054527074,0.5371565387417083,-0.41832538438290007,0.0691706810523991,0.9065932035446167,-0.09329972416162491,-0.15660405158996582,0.961973415280436,0.9345174475126237,0,5,0,0
1.152000054717064,0.5371565387417083,-0.41832538438290007,0.0691706810523991,0.9159380793571472,-0.09296820312738419,-0.15897059440612793,0.9248625380399288,0.9474295718759309,0,5,0,0
1.1560000549070537,0.590869705755252,-0.4203178707716305,0.015442117735626936,0.9253153204917908,-0.09308967739343643,-0.1606786996126175,0.9772626647992025,0.8805733940294513,0,5,0,0
1.1600000550970435,0.590869705755252,-0.4203178707716305,0.015442117735626936,0.9347224235534668,-0.0932934358716011,-0.16155272722244263,0.9887811272605413,0.7906235058646164,0,5,0,0
1.1640000552870333,0.590869705755252,-0.4203178707716305,0.015442117735626936,0.9441601037979126,-0.09370512515306473,-0.1614999920129776,1.016515126646288,0.6865393528079771,0,5,0,0
1.1680000554770231,0.590869705755252,-0.4203178707716305,0.015442117735626936,0.9536311626434326,-0.0940830186009407,-0.16050027310848236,1.0167178292823915,0.5763900172330261,0,5,0,0
1.172000055667013,0.6230433267453888,-0.10387075579218473,-0.0134762697048066,0.9631359577178955,-0.0944758877158165,-0.15881383419036865,1.0225580250298947,0.49276941691811704,0,5,0,0
1.1760000558570027,0.6230433267453888,-0.10387075579218473,-0.0134762697048066,0.9726765751838684,-0.09482298046350479,-0.1567736268043518,1.0211066866067098,0.44518589334749714,0,5,0,0
1.1800000560469925,0.6230433267453888,-0.10387075579218473,-0.0134762697048066,0.9822533130645752,-0.09508537501096725,-0.15485244989395142,1.0144302899193756,0.4512637594741096,0,5,0,0
1.1840000562369823,0.6230433267453888,-0.10387075579218473,-0.0134762697048066,0.9918816089630127,-0.09447722882032394,-0.15452054142951965,0.9106397449876839,0.6290996666127013,0,5,0,0
1.1880000564269722,0.6616851959285862,-0.1861923041438691,0.01682421125270678,1.0015392303466797,-0.09502778947353363,-0.1538083851337433,1.0467279319673048,0.5838423025770222,0,5,0,0
1.192000056616962,0.6616851959285862,-0.1861923041438691,0.01682421125270678,1.0112248659133911,-0.09553194046020508,-0.15385685861110687,1.0467776312644503,0.6699762983785297,0,5,0,0
1.1960000568069518,0.6616851959285862,-0.1861923041438691,0.01682421125270678,1.0209647417068481,-0.09622552245855331,-0.15499664843082428,1.0752553803142233,0.7976805323146983,0,5,0,0
1.2000000569969416,0.6616851959285862,-0.1861923041438691,0.01682421125270678,1.0307378768920898,-0.09632722288370132,-0.1563647836446762,1.009916896089277,0.8292172042886563,0,5,0,0
1.2040000571869314,0.6624700293880255,-0.5608798420797957,0.0359593652140089,1.040544867515564,-0.09629891067743301,-0.1585337519645691,0.9952384710835788,0.9283672787414,0,5,0,0
1.2080000573769212,0.6624700293880255,-0.5608798420797957,0.0359593652140089,1.0503937005996704,-0.09623757004737854,-0.16096431016921997,0.9911403374626611,0.9679046865602372,0,5,0,0
1.212000057566911,0.6624700293880255,-0.5608798420797957,0.0359593652140089,1.0602715015411377,-0.09586573392152786,-0.16355237364768982,0.9527213123585423,0.9963688086525256,0,5,0,0
1.2160000577569008,0.6624700293880255,-0.5608798420797957,0.0359593652140089,1.0701974630355835,-0.09527033567428589,-0.16577185690402985,0.9218452412406762,0.9641793211332421,0,5,0,0
1.2200000579468906,0.6889278144279094,-0.5032637940739947,0.006750282257661959,1.0801517963409424,-0.09508572518825531,-0.16767042875289917,0.9664409630729143,0.9360734859511639,0,5,0,0
1.2240000581368804,0.6889278144279094,-0.5032637940739947,0.006750282257661959,1.0901331901550293,-0.09519188851118088,-0.1688086837530136,1.0004431087992753,0.8554960053896727,0,5,0,0
1.2280000583268702,0.6889278144279094,-0.5032637940739947,0.006750282257661959,1.10014009475708,-0.09550612419843674,-0.16898974776268005,1.0272228202561282,0.7489418555315476,0,5,0,0
1.23200005851686,0.6889278144279094,-0.5032637940739947,0.006750282257661959,1.1101765632629395,-0.09601994603872299,-0.1681865155696869,1.0550449276898675,0.635399256876459,0,5,0,0
1.2360000587068498,0.641731387282389,-0.13036124744898064,-0.009189667781677157,1.1202418804168701,-0.09677691012620926,-0.16665107011795044,1.0902003346708449,0.5472834499607283,0,5,0,0
1.2400000588968396,0.641731387282389,-0.13036124744898064,-0.009189667781677157,1.1303387880325317,-0.09756625443696976,-0.16474364697933197,1.101970711745549,0.4982016543912064,0,5,0,0
1.2440000590868294,0.641731387282389,-0.13036124744898064,-0.009189667781677157,1.140467882156372,-0.0983097031712532,-0.16280943155288696,1.1044778902787744,0.48784140310239077,0,5,0,0
1.2480000592768192,0.641731387282389,-0.13036124744898064,-0.009189667781677157,1.1506450176239014,-0.09758737683296204,-0.16204994916915894,0.9325891487790567,0.6173498544924749,0,5,0,0
1.252000059466809,0.6533512409083956,-0.17700681106124716,0.02234253653153225,1.1608471870422363,-0.09783346205949783,-0.16069726645946503,1.044231097232872,0.5455897636101028,0,5,0,0
1.2560000596567988,0.6533512409083956,-0.17700681106124716,0.02234253653153225,1.1710727214813232,-0.09802588075399399,-0.16017170250415802,1.0403530617351229,0.6369227753419914,0,5,0,0
1.2600000598467886,0.6533512409083956,-0.17700681106124716,0.02234253653153225,1.1813446283340454,-0.09840609133243561,-0.1610460877418518,1.0655179280903606,0.7983011036537179,0,5,0,0
1.2640000600367785,0.6533512409083956,-0.17700681106124716,0.02234253653153225,1.1916439533233643,-0.09828024357557297,-0.16220645606517792,1.0075637630998935,0.8355049680655656,0,5,0,0
1.2680000602267683,0.6314029618008381,-0.5798625117262908,0.052116905187152354,1.201973557472229,-0.09830870479345322,-0.16438883543014526,1.0254440750154377,0.9596052554727674,0,5,0,0
1.272000060416758,0.6314029618008381,-0.5798625117262908,0.052116905187152354,1.212348222732544,-0.09851627796888351,-0.16706186532974243,1.0479063401153985,1.0258965060910734,0,5,0,0
1.2760000606067479,0.6314029618008381,-0.5798625117262908,0.052116905187152354,1.2227472066879272,-0.09843461215496063,-0.17001858353614807,1.0147865402998677,1.070046356536639,0,5,0,0
