time,roll,pitch,yaw,altitude,linear_velocity_x,linear_velocity_y,desired_roll,desired_pitch,desired_yaw,desired_altitude,desired_linear_velocity_x,desired_linear_velocity_y
0.004000000189989805,0.0,0.0,0.0,0.06905829161405563,3.220294456696138e-05,1.8638242181623355e-05,-0.003944937824448157,-0.002171399846349724,0,5,0,0
0.00800000037997961,0.0,0.0,0.0,0.06795962899923325,3.216322511434555e-05,1.8624474250827916e-05,-0.00031731829175098684,-7.303843538607886e-05,0,5,0,0
0.012000000569969416,0.0,0.0,0.0,0.06670400500297546,3.21235456794966e-05,1.8610711777000688e-05,-0.00031700309591435,-7.302866511005078e-05,0,5,0,0
0.01600000075995922,0.0,0.0,0.0,0.06570035219192505,0.0025692323688417673,-0.0016443810891360044,-0.3111234504705319,0.19366790549168925,0,5,0,0
0.020000000949949026,0.0,0.0,0.0,0.06466511636972427,0.005023260600864887,-0.0037369723431766033,-0.32632922255756147,0.25037717542320675,0,5,0,0
0.02400000113993883,0.0,0.0,0.0,0.06359975785017014,0.007052346132695675,-0.00594946788623929,-0.2988309520064199,0.2727306681933434,0,5,0,0
0.028000001329928637,0.0,0.0,0.0,0.06254293769598007,0.008085016161203384,-0.008534527383744717,-0.19708031753166866,0.3250048319340855,0,5,0,0
0.03200000151991844,0.0,0.0,0.0,0.06145884096622467,0.008380377665162086,-0.00993370171636343,-0.11710684040662486,0.19721329543679028,0,5,0,0
0.03600000170990825,-0.13209015463659574,0.03848881342103151,0.037734429646062995,0.06034613028168678,0.007748375181108713,-0.010431721806526184,-0.00647696797138575,0.09785056446995508,0,5,0,0
0.04000000189989805,-0.13209015463659574,0.03848881342103151,0.037734429646062995,0.05921043083071709,0.006177384406328201,-0.009871430695056915,0.1148542917424939,-0.023426913069684398,0,5,0,0
0.04400000208988786,-0.13209015463659574,0.03848881342103151,0.037734429646062995,0.05806078761816025,0.004296077881008387,-0.008480631746351719,0.1685675666857987,-0.12240188259860113,0,5,0,0
0.04800000227987766,-0.13209015463659574,0.03848881342103151,0.037734429646062995,0.05691932514309883,0.0021090195514261723,-0.006132302340120077,0.22483016468020353,-0.23950265405240892,0,5,0,0
0.05200000246986747,-0.2182674663295473,0.13068887259145134,0.10971449381381772,0.05576760694384575,-2.736050373641774e-05,-0.0036208101082593203,0.24049272529563126,-0.26789575004660027,0,5,0,0
0.05600000265985727,-0.2182674663295473,0.13068887259145134,0.10971449381381772,0.05459859222173691,-0.0017714996356517076,-0.001223503495566547,0.21381126644471526,-0.264636158542591,0,5,0,0
0.06000000284984708,-0.2182674663295473,0.13068887259145134,0.10971449381381772,0.053416088223457336,-0.0027490751817822456,0.0008325409144163132,0.13735522038208986,-0.23447033829946864,0,5,0,0
0.06400000303983688,-0.2182674663295473,0.13068887259145134,0.10971449381381772,0.052228230983018875,-0.002840944565832615,0.002279140753671527,0.03863879398859456,-0.17169969664424248,0,5,0,0
0.06800000322982669,0.10320859848808553,-0.24427494893359258,0.17749545742348866,0.05101671442389488,-0.002208852907642722,0.0026734578423202038,-0.04912243472964466,-0.05490157747756206,0,5,0,0
0.0720000034198165,0.10320859848808553,-0.24427494893359258,0.17749545742348866,0.04978453740477562,-0.0008238721638917923,0.0020322527270764112,-0.14767028297644838,0.06415460798126467,0,5,0,0
0.0760000036098063,0.10320859848808553,-0.24427494893359258,0.17749545742348866,0.048535991460084915,0.0010389435337856412,0.00046807920443825424,-0.22005736318126048,0.17424411958169175,0,5,0,0
0.0800000037997961,0.10320859848808553,-0.24427494893359258,0.17749545742348866,0.04734324663877487,0.0023491682950407267,-0.0018345634452998638,-0.17099877140322234,0.2665368659858852,0,5,0,0
0.08400000398978591,0.3786664610506818,-0.7009086952786523,0.21745082641088137,0.04614448547363281,0.00412790197879076,-0.0045148395001888275,-0.24150326648316384,0.31975256188235623,0,5,0,0
0.08800000417977571,0.3786664610506818,-0.7009086952786523,0.21745082641088137,0.04493743181228638,0.005414417013525963,-0.007132791914045811,-0.19900681604794923,0.3232300809561172,0,5,0,0
0.09200000436976552,0.3786664610506818,-0.7009086952786523,0.21745082641088137,0.04371850937604904,0.005938788875937462,-0.009144067764282227,-0.11852368495211066,0.2630460199551794,0,5,0,0
0.09600000455975533,0.3786664610506818,-0.7009086952786523,0.21745082641088137,0.042554158717393875,0.004903324414044619,-0.010877584107220173,0.06730076983697592,0.23875824844314839,0,5,0,0
0.10000000474974513,0.4149914826835633,-0.6159474639909872,0.28373160395023866,0.04137181118130684,0.0037434084806591272,-0.011385384015738964,0.09289173486797161,0.10292368067757467,0,5,0,0
0.10400000493973494,0.4149914826835633,-0.6159474639909872,0.28373160395023866,0.0401756651699543,0.0018662377260625362,-0.010920416563749313,0.19235012699680631,-0.008346302988639379,0,5,0,0
0.10800000512972474,0.4149914826835633,-0.6159474639909872,0.28373160395023866,0.03897359222173691,-0.0006661667721346021,-0.009468024596571922,0.2913895634329511,-0.12521840027959227,0,5,0,0
0.11200000531971455,0.4149914826835633,-0.6159474639909872,0.28373160395023866,0.037793438881635666,-0.003072346094995737,-0.007957040332257748,0.3012583987417198,-0.1378348735539469,0,5,0,0
0.11600000550970435,0.6023711135613736,-0.3674728523788903,0.3556783109730978,0.03660915046930313,-0.00550155621021986,-0.0058715082705020905,0.32815466764726464,-0.21079953432254286,0,5,0,0
0.12000000569969416,0.6023711135613736,-0.3674728523788903,0.3556783109730978,0.03542253002524376,-0.007410548161715269,-0.003926566801965237,0.28873783183893786,-0.20275343545004323,0,5,0,0
0.12400000588968396,0.6023711135613736,-0.3674728523788903,0.3556783109730978,0.034221354871988297,-0.008703707717359066,-0.002600377891212702,0.2324091750522609,-0.13844229074136355,0,5,0,0
0.12800000607967377,0.6023711135613736,-0.3674728523788903,0.3556783109730978,0.03303218260407448,-0.008651258423924446,-0.0023376266472041607,0.08052445680800754,-0.019850953586918504,0,5,0,0
0.13200000626966357,0.9810079965148053,-0.6227969621061116,0.3898547973983491,0.03183034807443619,-0.008102969266474247,-0.002830726094543934,0.019279030308418092,0.06716143668321532,0,5,0,0
0.13600000645965338,0.9810079965148053,-0.6227969621061116,0.3898547973983491,0.03062053956091404,-0.006897707935422659,-0.004341151099652052,-0.06666639452191622,0.18766267527967914,0,5,0,0
0.14000000664964318,0.9810079965148053,-0.6227969621061116,0.3898547973983491,0.02941833809018135,-0.005349121987819672,-0.006958319339901209,-0.12076343363205559,0.3226566562474101,0,5,0,0
0.144000006839633,0.9810079965148053,-0.6227969621061116,0.3898547973983491,0.028248058632016182,-0.004006028641015291,-0.010292590595781803,-0.11106683613910312,0.41669252891625885,0,5,0,0
0.1480000070296228,1.0896098122986426,-0.9727045131847833,0.39935645030860456,0.02708260528743267,-0.0025515311863273382,-0.013622766360640526,-0.13813864855246283,0.42958518389843575,0,5,0,0
0.1520000072196126,1.0896098122986426,-0.9727045131847833,0.39935645030860456,0.0259240735322237,-0.0016905986703932285,-0.01672350987792015,-0.07996786383668716,0.4162171677664819,0,5,0,0
0.1560000074096024,1.0896098122986426,-0.9727045131847833,0.39935645030860456,0.02476402185857296,-0.0015334803611040115,-0.01911924220621586,-0.0023562720897926243,0.34653222826964963,0,5,0,0
0.1600000075995922,1.0896098122986426,-0.9727045131847833,0.39935645030860456,0.02365642413496971,-0.0029971569310873747,-0.021051600575447083,0.19462710204452507,0.3021826176716225,0,5,0,0
0.16400000778958201,0.8010433606795094,-0.7786379714680949,0.4492251678336332,0.022541292011737823,-0.004415770992636681,-0.021569160744547844,0.20375430855286222,0.14513983438151606,0,5,0,0
0.16800000797957182,0.8010433606795094,-0.7786379714680949,0.4492251678336332,0.021422799676656723,-0.006479357369244099,-0.021065648645162582,0.2969651047750131,0.02830571879450909,0,5,0,0
0.17200000816956162,0.8010433606795094,-0.7786379714680949,0.4492251678336332,0.020310040563344955,-0.009087405167520046,-0.019505932927131653,0.38431929955961064,-0.09670923129021862,0,5,0,0
0.17600000835955143,0.8010433606795094,-0.7786379714680949,0.4492251678336332,0.01924496702849865,-0.0108112171292305,-0.01863635703921318,0.3021068392103211,-0.0225020803829592,0,5,0,0
0.18000000854954123,0.6924520073406781,-0.44906082103247763,0.5153432523137602,0.01818602718412876,-0.012829290702939034,-0.016180701553821564,0.355422795023964,-0.21071981487952307,0,5,0,0
0.18400000873953104,0.6924520073406781,-0.44906082103247763,0.5153432523137602,0.017135178670287132,-0.014424216002225876,-0.013853518292307854,0.3238024875255189,-0.20554217498031924,0,5,0,0
0.18800000892952085,0.6924520073406781,-0.44906082103247763,0.5153432523137602,0.016087228432297707,-0.015766873955726624,-0.012381303124129772,0.308886832506863,-0.11521741459235443,0,5,0,0
0.19200000911951065,0.6924520073406781,-0.44906082103247763,0.5153432523137602,0.015088427811861038,-0.014553360641002655,-0.01148307416588068,0.009217373410346785,-0.05420932549610646,0,5,0,0
0.19600000930950046,0.8642605636032686,-0.6413972862888138,0.580984159346998,0.014086714014410973,-0.014431469142436981,-0.011427732184529305,0.13084054243704435,0.040421513534091326,0,5,0,0
0.20000000949949026,0.8642605636032686,-0.6413972862888138,0.580984159346998,0.013089108280837536,-0.014026216231286526,-0.01260087639093399,0.09494351884443707,0.18334902202267114,0,5,0,0
0.20400000968948007,0.8642605636032686,-0.6413972862888138,0.580984159346998,0.012123829685151577,-0.013340373523533344,-0.015600978396832943,0.056550758046397004,0.4009196150770213,0,5,0,0
0.20800000987946987,0.8642605636032686,-0.6413972862888138,0.580984159346998,0.011215019971132278,-0.01315294299274683,-0.018818652257323265,0.11077938704871682,0.43831230776548735,0,5,0,0
0.21200001006945968,0.787489060930595,-0.9241225788889994,0.6273187965820235,0.010322828777134418,-0.012646806426346302,-0.02253410406410694,0.06989394641799382,0.5092282131430889,0,5,0,0
0.21600001025944948,0.787489060930595,-0.9241225788889994,0.6273187965820235,0.009469614364206791,-0.012674106284976006,-0.026279380545020103,0.1302089578263228,0.5276276652632454,0,5,0,0
0.2200000104494393,0.787489060930595,-0.9241225788889994,0.6273187965820235,0.008618500083684921,-0.012646166607737541,-0.029189756140112877,0.12374546436523984,0.44541287786814854,0,5,0,0
0.2240000106394291,0.787489060930595,-0.9241225788889994,0.6273187965820235,0.007818987593054771,-0.01392938382923603,-0.03142581507563591,0.2841162112047917,0.37857191497159487,0,5,0,0
0.2280000108294189,0.47164200897883346,-0.5446841278501957,0.6845218648267071,0.007021889090538025,-0.014864852651953697,-0.032241761684417725,0.2543848820753657,0.22215045246837073,0,5,0,0
0.2320000110194087,0.47164200897883346,-0.5446841278501957,0.6845218648267071,0.006230153143405914,-0.015980832278728485,-0.0319024883210659,0.2858904968342776,0.09090768429841176,0,5,0,0
0.2360000112093985,0.47164200897883346,-0.5446841278501957,0.6845218648267071,0.005450875032693148,-0.017367957159876823,-0.03005320578813553,0.3303072684130942,-0.08629334164490128,0,5,0,0
0.2400000113993883,0.47164200897883346,-0.5446841278501957,0.6845218648267071,0.004724614787846804,-0.018400464206933975,-0.028816180303692818,0.30078199555948876,-0.022293370063369206,0,5,0,0
0.24400001158937812,0.2853610979023432,-0.03576931893997824,0.763354011410236,0.004013754893094301,-0.019040852785110474,-0.025793980807065964,0.2631182537363056,-0.2351523293247041,0,5,0,0
0.24800001177936792,0.2853610979023432,-0.03576931893997824,0.763354011410236,0.0033298679627478123,-0.019305285066366196,-0.02261492982506752,0.22351382784054397,-0.2654600486847134,0,5,0,0
0.25200001196935773,0.2853610979023432,-0.03576931893997824,0.763354011410236,0.0026540886610746384,-0.01970319263637066,-0.019934307783842087,0.24255616047617506,-0.22006144133503452,0,5,0,0
0.25600001215934753,0.2853610979023432,-0.03576931893997824,0.763354011410236,0.0020251560490578413,-0.018750164657831192,-0.01935797929763794,0.08109063909557859,0.014412717568349803,0,5,0,0
0.26000001234933734,0.21896076492596694,-0.18354852161610527,0.8357685163882502,0.0014025979908183217,-0.018361059948801994,-0.01783519610762596,0.14068502335785893,-0.09811175984004197,0,5,0,0
0.26400001253932714,0.21896076492596694,-0.18354852161610527,0.8357685163882502,0.0007875533774495125,-0.01791812852025032,-0.017413699999451637,0.13024320692417587,0.024138839431293767,0,5,0,0
0.26800001272931695,0.21896076492596694,-0.18354852161610527,0.8357685163882502,0.0002100516576319933,-0.017738981172442436,-0.01859663985669613,0.15817001467708888,0.20941426833442023,0,5,0,0
0.27200001291930676,0.21896076492596694,-0.18354852161610527,0.8357685163882502,-0.00034953339491039515,-0.017214950174093246,-0.020372558385133743,0.11417161173295337,0.28327693393128406,0,5,0,0
0.27600001310929656,0.07859333449517415,-0.5013499254121649,0.8774767062825632,-0.0008896317449398339,-0.016981109976768494,-0.023324904963374138,0.14452042799021117,0.4274904493354296,0,5,0,0
0.28000001329928637,0.07859333449517415,-0.5013499254121649,0.8774767062825632,-0.0013941485667601228,-0.01715834252536297,-0.026601381599903107,0.19257961521953385,0.4771248290259053,0,5,0,0
0.28400001348927617,0.07859333449517415,-0.5013499254121649,0.8774767062825632,-0.001884819590486586,-0.01736135222017765,-0.0299052894115448,0.19755130822702224,0.49349824002407283,0,5,0,0
0.288000013679266,0.07859333449517415,-0.5013499254121649,0.8774767062825632,-0.002326526213437319,-0.017955288290977478,-0.031762946397066116,0.2475129768383939,0.3383018888305772,0,5,0,0
0.2920000138692558,-0.027597471380327893,-0.2885483413106574,0.8760255502729343,-0.002755340887233615,-0.018450547009706497,-0.03354213759303093,0.2414086437599235,0.3366717538426558,0,5,0,0
0.2960000140592456,-0.027597471380327893,-0.2885483413106574,0.8760255502729343,-0.0031736292876303196,-0.019155403599143028,-0.03419378027319908,0.27208294195972693,0.21251118763777133,0,5,0,0
0.3000000142492354,-0.027597471380327893,-0.2885483413106574,0.8760255502729343,-0.003564015496522188,-0.019692817702889442,-0.03342920169234276,0.25866706701650743,0.05020821910449089,0,5,0,0
0.3040000144392252,-0.027597471380327893,-0.2885483413106574,0.8760255502729343,-0.003909642808139324,-0.020174702629446983,-0.031350232660770416,0.2572873034336632,-0.10590133514199424,0,5,0,0
0.308000014629215,-0.04537354735737606,0.14637631085663816,0.898795072163161,-0.004232537932693958,-0.02079528011381626,-0.028480807319283485,0.27914589896472153,-0.20623701320874624,0,5,0,0
0.3120000148192048,-0.04537354735737606,0.14637631085663816,0.898795072163161,-0.0045242914929986,-0.02114766277372837,-0.025220051407814026,0.252548563638568,-0.2632441957603444,0,5,0,0
0.3160000150091946,-0.04537354735737606,0.14637631085663816,0.898795072163161,-0.004785769619047642,-0.021235764026641846,-0.021970946341753006,0.22374888512861896,-0.27487716570467013,0,5,0,0
0.3200000151991844,-0.04537354735737606,0.14637631085663816,0.898795072163161,-0.0050004227086901665,-0.020421002060174942,-0.021047579124569893,0.11407816851534583,-0.01687462480983401,0,5,0,0
0.3240000153891742,0.04986824806299523,-0.15437590413858196,0.9297870326657119,-0.005198861472308636,-0.020207198336720467,-0.018650280311703682,0.17959642768681272,-0.19223635602487427,0,5,0,0
0.32800001557916403,0.04986824806299523,-0.15437590413858196,0.9297870326657119,-0.005382973700761795,-0.019881580024957657,-0.017328523099422455,0.1638088197763004,-0.07648337209789134,0,5,0,0
0.33200001576915383,0.04986824806299523,-0.15437590413858196,0.9297870326657119,-0.005516692064702511,-0.020024141296744347,-0.017391685396432877,0.21795269108318055,0.07961445453212868,0,5,0,0
0.33600001595914364,0.04986824806299523,-0.15437590413858196,0.9297870326657119,-0.005621863063424826,-0.019864410161972046,-0.01862071268260479,0.18239516019951255,0.21573505844028856,0,5,0,0
0.34000001614913344,0.036201068192582064,-0.7909945153046793,0.9310573298435447,-0.0057007865980267525,-0.0197710320353508,-0.020961930975317955,0.18897354247487747,0.35027172254081085,0,5,0,0
0.34400001633912325,0.036201068192582064,-0.7909945153046793,0.9310573298435447,-0.005743325222283602,-0.020013004541397095,-0.023893501609563828,0.22916824313168582,0.4284699847522847,0,5,0,0
0.34800001652911305,0.036201068192582064,-0.7909945153046793,0.9310573298435447,-0.005754085257649422,-0.020492542535066605,-0.02728095091879368,0.2607389212609904,0.4933716047742458,0,5,0,0
0.35200001671910286,0.036201068192582064,-0.7909945153046793,0.9310573298435447,-0.005716687999665737,-0.0214738417416811,-0.02943994477391243,0.32705158432493153,0.36387700404224177,0,5,0,0
0.35600001690909266,-0.025255466371337434,-0.82678398910485,0.894998680106875,-0.005655447021126747,-0.022171972319483757,-0.03191358596086502,0.30222963361082184,0.4092459845499967,0,5,0,0
0.36000001709908247,-0.025255466371337434,-0.82678398910485,0.894998680106875,-0.005571770016103983,-0.023177774623036385,-0.03339630737900734,0.34695635081092463,0.30377855266787007,0,5,0,0
0.3640000172890723,-0.025255466371337434,-0.82678398910485,0.894998680106875,-0.005457515828311443,-0.024072077125310898,-0.0335625484585762,0.34341342177352174,0.15642003605132226,0,5,0,0
0.3680000174790621,-0.025255466371337434,-0.82678398910485,0.894998680106875,-0.005317207425832748,-0.025584310293197632,-0.03252321109175682,0.42811435237949436,0.01671317351765872,0,5,0,0
0.3720000176690519,0.027124105108452198,-0.43606317573269743,0.8786370627213791,-0.00515006622299552,-0.026733295992016792,-0.03030628152191639,0.3988030309520117,-0.12456092623004335,0,5,0,0
0.3760000178590417,0.027124105108452198,-0.43606317573269743,0.8786370627213791,-0.004948762711137533,-0.02768237702548504,-0.027400558814406395,0.38587100521091633,-0.21360728002309048,0,5,0,0
0.3800000180490315,0.027124105108452198,-0.43606317573269743,0.8786370627213791,-0.0047114635817706585,-0.028411997482180595,-0.023996956646442413,0.36854608486081974,-0.2831755326369325,0,5,0,0
0.3840000182390213,0.027124105108452198,-0.43606317573269743,0.8786370627213791,-0.004427247680723667,-0.0281620342284441,-0.023113258183002472,0.25591087901957676,-0.0031657013744760126,0,5,0,0
0.3880000184290111,0.23550225602573194,-0.45820610272331835,0.8833797996207573,-0.004116456024348736,-0.028410891070961952,-0.020322538912296295,0.31458489174975174,-0.2288196349889509,0,5,0,0
0.3920000186190009,0.23550225602573194,-0.45820610272331835,0.8833797996207573,-0.0037807917688041925,-0.028419585898518562,-0.018391454592347145,0.28772182163487103,-0.13979090540889144,0,5,0,0
0.3960000188089907,0.23550225602573194,-0.45820610272331835,0.8833797996207573,-0.003388046519830823,-0.028961436823010445,-0.01776634342968464,0.3531898963877847,0.0046732623830432335,0,5,0,0
0.4000000189989805,0.23550225602573194,-0.45820610272331835,0.8833797996207573,-0.00295371375977993,-0.028391597792506218,-0.01860124059021473,0.22249453192389285,0.17230842256236717,0,5,0,0
0.4040000191889703,0.39262274792075347,-0.9610843510253296,0.8642070887704683,-0.002489797305315733,-0.028361132368445396,-0.020509852096438408,0.2829374722469621,0.3007849503878071,0,5,0,0
0.40800001937896013,0.39262274792075347,-0.9610843510253296,0.8642070887704683,-0.0019842665642499924,-0.028646159917116165,-0.02326231636106968,0.3213494562672152,0.4067840678200087,0,5,0,0
0.41200001956894994,0.39262274792075347,-0.9610843510253296,0.8642070887704683,-0.0014287128578871489,-0.029263725504279137,-0.027078399434685707,0.36500587263685913,0.5417704986035802,0,5,0,0
0.41600001975893974,0.39262274792075347,-0.9610843510253296,0.8642070887704683,-0.0008250825922004879,-0.030454764142632484,-0.029721150174736977,0.4415050656523919,0.42041295107121524,0,5,0,0
0.42000001994892955,0.3715800921117801,-1.1457043173922232,0.8060972717323559,-0.0001863343786681071,-0.031208399683237076,-0.03299158066511154,0.3999084750617473,0.5041878213874579,0,5,0,0
0.42400002013891935,0.3715800921117801,-1.1457043173922232,0.8060972717323559,0.0004939816426485777,-0.03241492062807083,-0.035519227385520935,0.4630010858790919,0.43082048426682545,0,5,0,0
0.42800002032890916,0.3715800921117801,-1.1457043173922232,0.8060972717323559,0.001210257993079722,-0.033370643854141235,-0.03688439726829529,0.44442366566810126,0.3055910483332813,0,5,0,0
0.43200002051889896,0.3715800921117801,-1.1457043173922232,0.8060972717323559,0.001983563182875514,-0.03543418273329735,-0.03719281777739525,0.5897733515548318,0.18802969424491867,0,5,0,0
0.43600002070888877,0.4157866049625208,-0.7421506921103085,0.7644758097249116,0.0027865988668054342,-0.03685619682073593,-0.0360368974506855,0.5319104116655308,0.01875416529212831,0,5,0,0
0.4400000208988786,0.4157866049625208,-0.7421506921103085,0.7644758097249116,0.003625477897003293,-0.038139767944812775,-0.03402331843972206,0.5292628257152836,-0.08570509217926461,0,5,0,0
0.4440000210888684,0.4157866049625208,-0.7421506921103085,0.7644758097249116,0.004506650846451521,-0.039281271398067474,-0.031024634838104248,0.5247895230953059,-0.20844962864333486,0,5,0,0
0.4480000212788582,0.4157866049625208,-0.7421506921103085,0.7644758097249116,0.005434885621070862,-0.039367496967315674,-0.030481241643428802,0.40702750447310415,0.06567011122264513,0,5,0,0
0.452000021468848,0.6335845241735637,-0.52362727298488,0.7487886358656475,0.006397546268999577,-0.03992243856191635,-0.027726884931325912,0.4654032846237975,-0.19401415499515628,0,5,0,0
0.4560000216588378,0.6335845241735637,-0.52362727298488,0.7487886358656475,0.0073981620371341705,-0.0401252917945385,-0.02553482912480831,0.42791817881368627,-0.1394622457547054,0,5,0,0
0.4600000218488276,0.6335845241735637,-0.52362727298488,0.7487886358656475,0.008457761257886887,-0.040856778621673584,-0.024487722665071487,0.4948023799163582,-0.014785105661622153,0,5,0,0
0.4640000220388174,0.6335845241735637,-0.52362727298488,0.7487886358656475,0.009567787870764732,-0.04125587269663811,-0.025062520056962967,0.4614981519221184,0.17003840859853836,0,5,0,0
0.4680000222288072,0.8750197486933055,-0.8567751919560864,0.7208998285171654,0.010709548369050026,-0.04121926426887512,-0.026081671938300133,0.4122144646547481,0.22416748982776002,0,5,0,0
0.472000022418797,0.8750197486933055,-0.8567751919560864,0.7208998285171654,0.011894519440829754,-0.041220564395189285,-0.02816062606871128,0.4165911074082533,0.3517786392129885,0,5,0,0
0.4760000226087868,0.8750197486933055,-0.8567751919560864,0.7208998285171654,0.013136859983205795,-0.04138758033514023,-0.0315527617931366,0.4370036251539264,0.5131558310522467,0,5,0,0
0.4800000227987766,0.8750197486933055,-0.8567751919560864,0.7208998285171654,0.014424661174416542,-0.04178880155086517,-0.03548600152134895,0.4674642227127696,0.5898481539074654,0,5,0,0
0.48400002298876643,1.0458759540400835,-1.021055576557326,0.663411435997597,0.015756521373987198,-0.042146049439907074,-0.039574556052684784,0.4661908531097761,0.6237702654933184,0,5,0,0
0.48800002317875624,1.0458759540400835,-1.021055576557326,0.663411435997597,0.017140962183475494,-0.042906004935503006,-0.04332715645432472,0.519197986067947,0.6010898144846781,0,5,0,0
0.49200002336874604,1.0458759540400835,-1.021055576557326,0.663411435997597,0.01856166683137417,-0.043735336512327194,-0.046199530363082886,0.5354010754162744,0.5136647132521067,0,5,0,0
0.49600002355873585,1.0458759540400835,-1.021055576557326,0.663411435997597,0.020015040412545204,-0.04501470923423767,-0.048301320523023605,0.598932464360102,0.43549712944225416,0,5,0,0
0.5000000237487257,1.1520152341554715,-0.4830573074484169,0.603790442793502,0.021500004455447197,-0.04610464349389076,-0.04875078797340393,0.5886306321145753,0.2515257051440499,0,5,0,0
0.5040000239387155,1.1520152341554715,-0.4830573074484169,0.603790442793502,0.02302045375108719,-0.04712666943669319,-0.04810420423746109,0.591324310271786,0.12574906769128485,0,5,0,0
0.5080000241287053,1.1520152341554715,-0.4830573074484169,0.603790442793502,0.024577107280492783,-0.0481032058596611,-0.04641658067703247,0.5960875514627,0.0019929985565941555,0,5,0,0
0.5120000243186951,1.1520152341554715,-0.4830573074484169,0.603790442793502,0.026180749759078026,-0.04760996252298355,-0.04641953110694885,0.4259191669050062,0.19230577203650095,0,5,0,0
0.5160000245086849,1.2555936975962256,0.041223513853746376,0.5780782048266505,0.027827655896544456,-0.04788706824183464,-0.044453855603933334,0.5154694176933967,-0.03692064765260311,0,5,0,0
0.5200000246986747,1.2555936975962256,0.041223513853746376,0.5780782048266505,0.029518036171793938,-0.047914545983076096,-0.04260256513953209,0.48777604387442663,-0.03135524711612331,0,5,0,0
0.5240000248886645,1.2555936975962256,0.041223513853746376,0.5780782048266505,0.03125942498445511,-0.048285819590091705,-0.04166494309902191,0.5302816989796351,0.06778195339561487,0,5,0,0
0.5280000250786543,1.2555936975962256,0.041223513853746376,0.5780782048266505,0.03304769843816757,-0.046788766980171204,-0.04276685789227486,0.3052367765045356,0.3017401359326049,0,5,0,0
0.5320000252686441,1.2960237182538195,-0.02436244655577518,0.5606696342604538,0.0348699688911438,-0.046539705246686935,-0.042849309742450714,0.44325682139807343,0.18748320603286497,0,5,0,0
0.5360000254586339,1.2960237182538195,-0.02436244655577518,0.5606696342604538,0.03673436492681503,-0.04639291763305664,-0.04390990361571312,0.4534061262064524,0.3018719376701687,0,5,0,0
0.5400000256486237,1.2960237182538195,-0.02436244655577518,0.5606696342604538,0.03864589333534241,-0.046329937875270844,-0.04645915329456329,0.4623159038194582,0.47965420853281915,0,5,0,0
0.5440000258386135,1.2960237182538195,-0.02436244655577518,0.5606696342604538,0.04059598594903946,-0.045750658959150314,-0.04934689775109291,0.39854926369113824,0.5294042795993685,0,5,0,0
0.5480000260286033,1.1812814484112188,-0.14005097241508951,0.5219123190083076,0.04259135574102402,-0.045588791370391846,-0.05301426723599434,0.4439987730058491,0.6319088033123151,0,5,0,0
0.5520000262185931,1.1812814484112188,-0.14005097241508951,0.5219123190083076,0.044647131115198135,-0.045676492154598236,-0.05690498277544975,0.4730618450592782,0.6727346673791667,0,5,0,0
0.5560000264085829,1.1812814484112188,-0.14005097241508951,0.5219123190083076,0.046742044389247894,-0.045587360858917236,-0.060547955334186554,0.4523863337312906,0.6595807887067795,0,5,0,0
0.5600000265985727,1.1812814484112188,-0.14005097241508951,0.5219123190083076,0.04890216886997223,-0.045933425426483154,-0.06324207037687302,0.5049167519230346,0.563762564368161,0,5,0,0
0.5640000267885625,1.0593384923560614,0.16614204659108195,0.45899267895057116,0.05109984800219536,-0.04603999853134155,-0.064959816634655,0.47915019069846,0.4609479698820536,0,5,0,0
0.5680000269785523,1.0593384923560614,0.16614204659108195,0.45899267895057116,0.05333372578024864,-0.04605800285935402,-0.06565168499946594,0.469476786268794,0.3484617499152788,0,5,0,0
0.5720000271685421,1.0593384923560614,0.16614204659108195,0.45899267895057116,0.055610399693250656,-0.04585956782102585,-0.06511762738227844,0.4432530712967246,0.20856513533553447,0,5,0,0
0.576000027358532,1.0593384923560614,0.16614204659108195,0.45899267895057116,0.057937704026699066,-0.04518808051943779,-0.0638233944773674,0.38342827259024176,0.11802166406298162,0,5,0,0
0.5800000275485218,0.9968371437200815,0.5903378921149511,0.4239367631897853,0.06031089648604393,-0.044779784977436066,-0.0620015449821949,0.40906186020638213,0.05152620621220225,0,5,0,0
0.5840000277385116,0.9968371437200815,0.5903378921149511,0.4239367631897853,0.06273578852415085,-0.04416843503713608,-0.06011461839079857,0.38021074632896534,0.03680160196016358,0,5,0,0
0.5880000279285014,0.9968371437200815,0.5903378921149511,0.4239367631897853,0.06520535796880722,-0.04355340078473091,-0.05858189985156059,0.3737504468796162,0.07065972834465079,0,5,0,0
0.5920000281184912,0.9968371437200815,0.5903378921149511,0.4239367631897853,0.06772200018167496,-0.04168630391359329,-0.05942750349640846,0.21432248738533405,0.34174600194038907,0,5,0,0
0.596000028308481,0.843599288817169,0.2752339507116232,0.4091167919581571,0.07027679681777954,-0.04128199815750122,-0.058850694447755814,0.3749424992509511,0.17955858700096294,0,5,0,0
0.6000000284984708,0.843599288817169,0.2752339507116232,0.4091167919581571,0.07287029176950455,-0.04107522964477539,-0.05910586193203926,0.3951963335026918,0.27431846652314634,0,5,0,0
0.6040000286884606,0.843599288817169,0.2752339507116232,0.4091167919581571,0.07552063465118408,-0.04136387258768082,-0.06048935651779175,0.4539158223419752,0.4069344122147872,0,5,0,0
0.6080000288784504,0.843599288817169,0.2752339507116232,0.4091167919581571,0.07822326570749283,-0.041498806327581406,-0.062021248042583466,0.43807247236419317,0.4299054841652862,0,5,0,0
0.6120000290684402,0.5952151355437639,-0.2713246788852515,0.36326964274099627,0.08097173273563385,-0.04169464483857155,-0.06464646011590958,0.44698271104859255,0.5635600398382394,0,5,0,0
0.61600002925843,0.5952151355437639,-0.2713246788852515,0.36326964274099627,0.08377399295568466,-0.0420832559466362,-0.06750987470149994,0.47265673808911723,0.6019735032444822,0,5,0,0
0.6200000294484198,0.5952151355437639,-0.2713246788852515,0.36326964274099627,0.08661571145057678,-0.04228473827242851,-0.07043029367923737,0.4537210577179919,0.6202372056802345,0,5,0,0
0.6240000296384096,0.5952151355437639,-0.2713246788852515,0.36326964274099627,0.08950573951005936,-0.04230884462594986,-0.0730171799659729,0.43410886655244896,0.5932375661119254,0,5,0,0
0.6280000298283994,0.551972294788212,-0.3149707942144411,0.2669046610231837,0.09243685007095337,-0.04272174462676048,-0.07500725239515305,0.4820796819950685,0.5342363174570162,0,5,0,0
0.6320000300183892,0.551972294788212,-0.3149707942144411,0.2669046610231837,0.09540806710720062,-0.04321225360035896,-0.07605134695768356,0.49581949016855337,0.4321727140052206,0,5,0,0
0.636000030208379,0.551972294788212,-0.3149707942144411,0.2669046610231837,0.09841936826705933,-0.04367411881685257,-0.07596113532781601,0.497320537702387,0.3043847336355365,0,5,0,0
0.6400000303983688,0.551972294788212,-0.3149707942144411,0.2669046610231837,0.10148010402917862,-0.044160403311252594,-0.0746300145983696,0.5050365362533568,0.15963709568942466,0,5,0,0
0.6440000305883586,0.5301841245221838,-0.06363410851199085,0.20142198660092073,0.1045878678560257,-0.044412072747945786,-0.07264620810747147,0.48126562686158464,0.07844907595785489,0,5,0,0
0.6480000307783484,0.5301841245221838,-0.06363410851199085,0.20142198660092073,0.10774720460176468,-0.04449295997619629,-0.07029467821121216,0.4629682847158705,0.027842782470321903,0,5,0,0
0.6520000309683383,0.5301841245221838,-0.06363410851199085,0.20142198660092073,0.11096182465553284,-0.04440668225288391,-0.06797715276479721,0.44340602736763135,0.022561326284835648,0,5,0,0
0.6560000311583281,0.5301841245221838,-0.06363410851199085,0.20142198660092073,0.11423727869987488,-0.04396321624517441,-0.0662035197019577,0.398893198928482,0.07681357273427719,0,5,0,0
0.6600000313483179,0.5587879958015989,-0.28103352728219805,0.20724925992156926,0.11755547672510147,-0.043876685202121735,-0.06521907448768616,0.43828837416406663,0.16181594641029579,0,5,0,0
0.6640000315383077,0.5587879958015989,-0.28103352728219805,0.20724925992156926,0.12091477960348129,-0.04385897144675255,-0.06529100239276886,0.4459584426435163,0.28110232672647417,0,5,0,0
0.6680000317282975,0.5587879958015989,-0.28103352728219805,0.20724925992156926,0.12431833893060684,-0.04400447756052017,-0.06654182076454163,0.4658813489380858,0.41889047179426003,0,5,0,0
0.6720000319182873,0.5587879958015989,-0.28103352728219805,0.20724925992156926,0.12778577208518982,-0.04471394419670105,-0.06872892379760742,0.5365288845290527,0.5331358527439356,0,5,0,0
0.6760000321082771,0.48688919199462505,-0.8580675383241086,0.19428675036677995,0.13130661845207214,-0.045226965099573135,-0.07159199565649033,0.5196674943316295,0.620806450269614,0,5,0,0
0.6800000322982669,0.48688919199462505,-0.8580675383241086,0.19428675036677995,0.13488516211509705,-0.04595797508955002,-0.07476068288087845,0.5516116645113253,0.6680423518008956,0,5,0,0
0.6840000324882567,0.48688919199462505,-0.8580675383241086,0.19428675036677995,0.13851840794086456,-0.04679069295525551,-0.07769573479890823,0.5714932763128027,0.6536850585284977,0,5,0,0
0.6880000326782465,0.48688919199462505,-0.8580675383241086,0.19428675036677995,0.14219972491264343,-0.04732663556933403,-0.08009855449199677,0.5435790721621229,0.6036124513788355,0,5,0,0
0.6920000328682363,0.44127575221021637,-0.8081929319122939,0.14214353366434573,0.14592589437961578,-0.048240602016448975,-0.08212102204561234,0.5953621932802522,0.569109798397258,0,5,0,0
0.6960000330582261,0.44127575221021637,-0.8081929319122939,0.14214353366434573,0.1496940404176712,-0.04920485243201256,-0.08304858207702637,0.6107797352691151,0.4498422647322907,0,5,0,0
0.7000000332482159,0.44127575221021637,-0.8081929319122939,0.14214353366434573,0.15350545942783356,-0.05022532865405083,-0.0828734040260315,0.6274304412119546,0.3252824203288592,0,5,0,0
0.7040000334382057,0.44127575221021637,-0.8081929319122939,0.14214353366434573,0.1573682278394699,-0.051217734813690186,-0.08131639659404755,0.6343195435078535,0.16379375198450194,0,5,0,0
0.7080000336281955,0.507802581227773,-0.44464253735479686,0.11368485231848437,0.16128236055374146,-0.05208315700292587,-0.07911398261785507,0.6288130689910757,0.08256573687228014,0,5,0,0
0.7120000338181853,0.507802581227773,-0.44464253735479686,0.11368485231848437,0.1652490794658661,-0.052783939987421036,-0.07649816572666168,0.6174256706444486,0.025778239185371088,0,5,0,0
0.7160000340081751,0.507802581227773,-0.44464253735479686,0.11368485231848437,0.16927602887153625,-0.053200285881757736,-0.07399189472198486,0.5897176391570484,0.028254647370191066,0,5,0,0
0.7200000341981649,0.507802581227773,-0.44464253735479686,0.11368485231848437,0.17335405945777893,-0.05317806079983711,-0.07319627702236176,0.5402837832043625,0.21769633532262606,0,5,0,0
0.7240000343881547,0.671709773757937,-0.6496241916615477,0.13613827103632356,0.1774769127368927,-0.05381369590759277,-0.07205644994974136,0.6207785549815623,0.17458640989731347,0,5,0,0
0.7280000345781446,0.671709773757937,-0.6496241916615477,0.13613827103632356,0.18164284527301788,-0.05436026304960251,-0.071964792907238,0.61635454536869,0.2923116200257896,0,5,0,0
0.7320000347681344,0.671709773757937,-0.6496241916615477,0.13613827103632356,0.1858801394701004,-0.05523956939578056,-0.07312852889299393,0.6627133424942739,0.43837378141751515,0,5,0,0
0.7360000349581242,0.671709773757937,-0.6496241916615477,0.13613827103632356,0.19018518924713135,-0.05587644875049591,-0.07538475096225739,0.6419432042806431,0.5704842716624108,0,5,0,0
0.740000035148114,0.7313729670112507,-1.1670177347196726,0.14625434908825502,0.19454553723335266,-0.05626368895173073,-0.07826197147369385,0.6178662357202672,0.6520433038747957,0,5,0,0
0.7440000353381038,0.7313729670112507,-1.1670177347196726,0.14625434908825502,0.19896815717220306,-0.05677323415875435,-0.0814991444349289,0.6368572560566643,0.7056822423546182,0,5,0,0
0.7480000355280936,0.7313729670112507,-1.1670177347196726,0.14625434908825502,0.20344938337802887,-0.057347431778907776,-0.08491680771112442,0.6500102622326407,0.7398618552761975,0,5,0,0
0.7520000357180834,0.7313729670112507,-1.1670177347196726,0.14625434908825502,0.20797866582870483,-0.05767352879047394,-0.08741483092308044,0.6254983316836229,0.6466042414153206,0,5,0,0
0.7560000359080732,0.7058010228402947,-1.0157156523220614,0.12323246682461447,0.21255461871623993,-0.05832641199231148,-0.08994936943054199,0.6689305917567888,0.661066244491307,0,5,0,0
0.760000036098063,0.7058010228402947,-1.0157156523220614,0.12323246682461447,0.21717536449432373,-0.05928891897201538,-0.09148213267326355,0.713530628321622,0.5547171426607377,0,5,0,0
0.7640000362880528,0.7058010228402947,-1.0157156523220614,0.12323246682461447,0.2218438684940338,-0.06030267849564552,-0.09194661676883698,0.7295788609110229,0.43661435258790315,0,5,0,0
0.7680000364780426,0.7058010228402947,-1.0157156523220614,0.12323246682461447,0.22656884789466858,-0.061491459608078,-0.09108706563711166,0.7613041793504584,0.2844408010327397,0,5,0,0
0.7720000366680324,0.7132005048561246,-0.5128147784003536,0.11558020292246363,0.23134422302246094,-0.06286884844303131,-0.089352548122406,0.796447320719196,0.17928346368965806,0,5,0,0
0.7760000368580222,0.7132005048561246,-0.5128147784003536,0.11558020292246363,0.23617145419120789,-0.06418196111917496,-0.08713299036026001,0.8025014166720053,0.1160473265826279,0,5,0,0
0.780000037048012,0.7132005048561246,-0.5128147784003536,0.11558020292246363,0.2410573661327362,-0.0652448832988739,-0.0847988873720169,0.7851407966832041,0.09402809464515849,0,5,0,0
0.7840000372380018,0.7132005048561246,-0.5128147784003536,0.11558020292246363,0.24599020183086395,-0.0645122081041336,-0.08472923934459686,0.5759641790128989,0.3487040237121268,0,5,0,0
0.7880000374279916,0.8377050809759122,-0.5998839358978416,0.14612337123343042,0.2509688138961792,-0.06532510370016098,-0.08315436542034149,0.7581266209321622,0.17326619315073785,0,5,0,0
0.7920000376179814,0.8377050809759122,-0.5998839358978416,0.14612337123343042,0.25599101185798645,-0.06600354611873627,-0.08246144652366638,0.7499434718912097,0.2699123609351796,0,5,0,0
0.7960000378079712,0.8377050809759122,-0.5998839358978416,0.14612337123343042,0.2610674798488617,-0.06694179028272629,-0.0830526053905487,0.788714268806336,0.416935064203903,0,5,0,0
0.800000037997961,0.8377050809759122,-0.5998839358978416,0.14612337123343042,0.2661939859390259,-0.06701061129570007,-0.08438719063997269,0.6917532045672263,0.5061113985322195,0,5,0,0
0.8040000381879508,0.9097387731582401,-1.0973350778056337,0.16761087604241903,0.27137240767478943,-0.06736043095588684,-0.08686792105436325,0.7270254125210214,0.6451841281445709,0,5,0,0
0.8080000383779407,0.9097387731582401,-1.0973350778056337,0.16761087604241903,0.27661341428756714,-0.06785356253385544,-0.09002074599266052,0.7482421668431974,0.7336221080465966,0,5,0,0
0.8120000385679305,0.9097387731582401,-1.0973350778056337,0.16761087604241903,0.28190845251083374,-0.06823959201574326,-0.09381260722875595,0.7402172514539007,0.8209062833466472,0,5,0,0
0.8160000387579203,0.9097387731582401,-1.0973350778056337,0.16761087604241903,0.2872515022754669,-0.06862539052963257,-0.09656956046819687,0.7442139536392901,0.7157387191669031,0,5,0,0
0.8200000389479101,0.915652743691801,-1.2083136326402104,0.14551021916087584,0.2926461100578308,-0.06922090798616409,-0.09983702749013901,0.7739286383182864,0.7864809939355046,0,5,0,0
0.8240000391378999,0.915652743691801,-1.2083136326402104,0.14551021916087584,0.29809197783470154,-0.070203997194767,-0.10236676782369614,0.8275298400426406,0.7138513870228809,0,5,0,0
0.8280000393278897,0.915652743691801,-1.2083136326402104,0.14551021916087584,0.3035871386528015,-0.0711374431848526,-0.10378634929656982,0.8314501679973196,0.5948859342697241,0,5,0,0
0.8320000395178795,0.915652743691801,-1.2083136326402104,0.14551021916087584,0.3091558814048767,-0.07318773865699768,-0.10410697758197784,0.9777743340637376,0.4727860764517485,0,5,0,0
0.8360000397078693,0.8869364595763526,-0.8123008459687288,0.13129911128813102,0.31477120518684387,-0.0747682973742485,-0.10312587767839432,0.9409139827428843,0.3226647646497857,0,5,0,0
0.8400000398978591,0.8869364595763526,-0.8123008459687288,0.13129911128813102,0.3204379379749298,-0.07630421966314316,-0.10143744945526123,0.9514347378161645,0.23658006947776639,0,5,0,0
0.8440000400878489,0.8869364595763526,-0.8123008459687288,0.13129911128813102,0.3261638283729553,-0.07775015383958817,-0.09902600944042206,0.9559570177889556,0.14583314914880718,0,5,0,0
0.8480000402778387,0.8869364595763526,-0.8123008459687288,0.13129911128813102,0.3319367468357086,-0.07730736583471298,-0.09889675676822662,0.7392334401208154,0.40229955454017974,0,5,0,0
0.8520000404678285,0.9952021064568026,-0.6382286402188916,0.15412539083219898,0.3377571105957031,-0.0783090591430664,-0.09709225594997406,0.9119424549749056,0.20684916521271687,0,5,0,0
0.8560000406578183,0.9952021064568026,-0.6382286402188916,0.15412539083219898,0.3436254560947418,-0.07906917482614517,-0.09591089189052582,0.8925558962817515,0.2724567771621723,0,5,0,0
0.8600000408478081,0.9952021064568026,-0.6382286402188916,0.15412539083219898,0.34954750537872314,-0.08019132167100906,-0.09591980278491974,0.9446983276778687,0.40662855422441924,0,5,0,0
0.8640000410377979,0.9952021064568026,-0.6382286402188916,0.15412539083219898,0.35552677512168884,-0.08002403378486633,-0.09677106887102127,0.798156106158449,0.5050308237111596,0,5,0,0
0.8680000412277877,1.1268371318433987,-0.9907227344824845,0.18179870884546284,0.3615531623363495,-0.08034295588731766,-0.0987587496638298,0.8562367714050365,0.6410652163249924,0,5,0,0
0.8720000414177775,1.1268371318433987,-0.9907227344824845,0.18179870884546284,0.36763906478881836,-0.0807674452662468,-0.10159000009298325,0.8725518251118332,0.7475356136346292,0,5,0,0
0.8760000416077673,1.1268371318433987,-0.9907227344824845,0.18179870884546284,0.3737839162349701,-0.08109097182750702,-0.10552267730236053,0.8646233926178034,0.8874300837994423,0,5,0,0
0.8800000417977571,1.1268371318433987,-0.9907227344824845,0.18179870884546284,0.3799782693386078,-0.08192702382802963,-0.10921058058738708,0.9308396466679141,0.8749067371638899,0,5,0,0
0.884000041987747,1.132724151412813,-1.1763430458964175,0.17227513939898192,0.38622620701789856,-0.08253886550664902,-0.11278590559959412,0.9119324967246792,0.8768136683083759,0,5,0,0
0.8880000421777368,1.132724151412813,-1.1763430458964175,0.17227513939898192,0.3925348222255707,-0.08348497748374939,-0.11582479625940323,0.9591993872441108,0.8288983486934896,0,5,0,0
0.8920000423677266,1.132724151412813,-1.1763430458964175,0.17227513939898192,0.39888694882392883,-0.08424949645996094,-0.11767244338989258,0.9466175641776768,0.7025564604098891,0,5,0,0
0.8960000425577164,1.132724151412813,-1.1763430458964175,0.17227513939898192,0.40531110763549805,-0.08581195771694183,-0.11876658350229263,1.0522166277785652,0.6224485251647247,0,5,0,0
0.9000000427477062,1.0944059235544272,-0.730315844340278,0.1611601268450974,0.41177865862846375,-0.08689136058092117,-0.11845533549785614,1.0088751290621873,0.4633816703312045,0,5,0,0
0.904000042937696,1.0944059235544272,-0.730315844340278,0.1611601268450974,0.41829749941825867,-0.08786039799451828,-0.11739546805620193,1.0063602555850935,0.3752042670145326,0,5,0,0
0.9080000431276858,1.0944059235544272,-0.730315844340278,0.1611601268450974,0.4248649775981903,-0.08889631927013397,-0.11546768248081207,1.0244572536373315,0.27012946175651675,0,5,0,0
0.9120000433176756,1.0944059235544272,-0.730315844340278,0.1611601268450974,0.43147942423820496,-0.08813115209341049,-0.1155100017786026,0.8143946553810602,0.49221275067072623,0,5,0,0
0.9160000435076654,1.1491049892919656,-0.3757873609945436,0.18624752340580128,0.43814000487327576,-0.08875713497400284,-0.11396680772304535,0.9773718753355105,0.307943251020531,0,5,0,0
0.9200000436976552,1.1491049892919656,-0.3757873609945436,0.18624752340580128,0.4448491632938385,-0.08925998955965042,-0.1127694770693779,0.9687627126537502,0.342334206028177,0,5,0,0
0.924000043887645,1.1491049892919656,-0.3757873609945436,0.18624752340580128,0.45161038637161255,-0.09024585783481598,-0.1126146912574768,1.0331770229643031,0.4592716271803434,0,5,0,0
0.9280000440776348,1.1491049892919656,-0.3757873609945436,0.18624752340580128,0.45841965079307556,-0.08885744214057922,-0.11315086483955383,0.7523991900223406,0.5394208117275874,0,5,0,0
0.9320000442676246,1.1771001771394018,-0.5497548493214404,0.22532267324593472,0.46527156233787537,-0.08922936767339706,-0.11415699124336243,0.9543709744804305,0.5965889840684447,0,5,0,0
0.9360000444576144,1.1771001771394018,-0.5497548493214404,0.22532267324593472,0.4721778929233551,-0.08985896408557892,-0.1160440519452095,0.9898705726778946,0.7035208364358194,0,5,0,0
0.9400000446476042,1.1771001771394018,-0.5497548493214404,0.22532267324593472,0.4791429340839386,-0.09039337933063507,-0.11949416249990463,0.9847237884561095,0.8934511647515282,0,5,0,0
0.944000044837594,1.1771001771394018,-0.5497548493214404,0.22532267324593472,0.48615050315856934,-0.09116562455892563,-0.1225697249174118,1.0194209100913838,0.8639109183430697,0,5,0,0
0.9480000450275838,1.0480528695767974,-0.687567421900559,0.22059795286958375,0.4932097792625427,-0.09182721376419067,-0.1259583830833435,1.0138083854684523,0.912991121165299,0,5,0,0
0.9520000452175736,1.0480528695767974,-0.687567421900559,0.22059795286958375,0.5003408789634705,-0.09272635728120804,-0.12925417721271515,1.0497472227094442,0.9160373041060393,0,5,0,0
0.9560000454075634,1.0480528695767974,-0.687567421900559,0.22059795286958375,0.5075128674507141,-0.09301280230283737,-0.131687730550766,0.9839063262046455,0.8290854836103378,0,5,0,0
0.9600000455975533,1.0480528695767974,-0.687567421900559,0.22059795286958375,0.5147450566291809,-0.09373679757118225,-0.13317230343818665,1.040595647630416,0.7285830930783986,0,5,0,0
0.9640000457875431,0.9466145013036478,-0.27648505242358395,0.1780380283623208,0.5220178365707397,-0.09397992491722107,-0.1336844116449356,0.9891548342313866,0.6215500971293453,0,5,0,0
0.9680000459775329,0.9466145013036478,-0.27648505242358395,0.1780380283623208,0.5293359756469727,-0.09390648454427719,-0.133457213640213,0.9530319393815734,0.5377896575983099,0,5,0,0
0.9720000461675227,0.9466145013036478,-0.27648505242358395,0.1780380283623208,0.5367007851600647,-0.0937085971236229,-0.1321573257446289,0.9372776736163655,0.4122296766227845,0,5,0,0
0.9760000463575125,0.9466145013036478,-0.27648505242358395,0.1780380283623208,0.5441124439239502,-0.09242387115955353,-0.1320968121290207,0.8023829009502768,0.5517342543992566,0,5,0,0
0.9800000465475023,0.9450194300009587,0.10713407849536086,0.1677128957279114,0.5515682101249695,-0.09197422116994858,-0.1308118849992752,0.8920531818605688,0.40916198062135034,0,5,0,0
0.9840000467374921,0.9450194300009587,0.10713407849536086,0.1677128957279114,0.5590738654136658,-0.09151089936494827,-0.12947237491607666,0.8861015108205508,0.39797409203130607,0,5,0,0
0.9880000469274819,0.9450194300009587,0.10713407849536086,0.1677128957279114,0.5666387677192688,-0.09175438433885574,-0.1287262886762619,0.9682723299428271,0.462058869389282,0,5,0,0
0.9920000471174717,0.9450194300009587,0.10713407849536086,0.1677128957279114,0.5742506980895996,-0.09039933234453201,-0.13012397289276123,0.7751033680232347,0.7091360686852319,0,5,0,0
0.9960000473074615,0.7999227864452456,-0.07527142955329659,0.1886610421949294,0.5819015502929688,-0.0906919538974762,-0.12978635728359222,0.9636105095157264,0.5128758724056541,0,5,0,0
1.0000000474974513,0.7999227864452456,-0.07527142955329659,0.1886610421949294,0.5895969867706299,-0.09134980291128159,-0.12987056374549866,1.011496326586487,0.5609793683630698,0,5,0,0
1.004000047687441,0.7999227864452456,-0.07527142955329659,0.1886610421949294,0.5973449945449829,-0.09238013625144958,-0.13104744255542755,1.0639258570511385,0.6889270307937295,0,5,0,0
1.008000047877431,0.7999227864452456,-0.07527142955329659,0.1886610421949294,0.6051663756370544,-0.09298062324523926,-0.1319338083267212,1.0217961688247295,0.6601064197398075,0,5,0,0
1.0120000480674207,0.659094530277053,-0.3397990890720428,0.17770627723289814,0.6130291223526001,-0.09356904029846191,-0.13383527100086212,1.0265470368150444,0.782231871248217,0,5,0,0
1.0160000482574105,0.659094530277053,-0.3397990890720428,0.17770627723289814,0.6209450364112854,-0.09420473873615265,-0.1360321342945099,1.0384492680756698,0.8245783696766785,0,5,0,0
1.0200000484474003,0.659094530277053,-0.3397990890720428,0.17770627723289814,0.6288991570472717,-0.09426368027925491,-0.1384064108133316,0.9743797687907845,0.8543666380377632,0,5,0,0
1.0240000486373901,0.659094530277053,-0.3397990890720428,0.17770627723289814,0.6369102597236633,-0.09410518407821655,-0.1410924345254898,0.9485589141789661,0.9005209123298861,0,5,0,0
1.02800004882738,0.8471777147602073,-0.27901434528412283,0.10508422081868014,0.6449606418609619,-0.09421826153993607,-0.14278221130371094,0.9804678482437145,0.7955449220216638,0,5,0,0
1.0320000490173697,0.8471777147602073,-0.27901434528412283,0.10508422081868014,0.6530507206916809,-0.0941949188709259,-0.14389115571975708,0.9651132253915081,0.7349824008349487,0,5,0,0
1.0360000492073596,0.8471777147602073,-0.27901434528412283,0.10508422081868014,0.6611802577972412,-0.09411799907684326,-0.1441044956445694,0.9585424843748285,0.635426110861996,0,5,0,0
1.0400000493973494,0.8471777147602073,-0.27901434528412283,0.10508422081868014,0.6693763136863708,-0.09352467209100723,-0.14393067359924316,0.8947378674272946,0.5915205367419353,0,5,0,0
1.0440000495873392,0.9460250089326253,0.07106763977454442,0.06849480795446865,0.6776108741760254,-0.09312201291322708,-0.14283418655395508,0.91238489587856,0.48367758305931247,0,5,0,0
1.048000049777329,0.9460250089326253,0.07106763977454442,0.06849480795446865,0.6858879327774048,-0.09263458847999573,-0.14147137105464935,0.898196883783838,0.4486039027148795,0,5,0,0
1.0520000499673188,0.9460250089326253,0.07106763977454442,0.06849480795446865,0.6942031979560852,-0.09232284873723984,-0.14027659595012665,0.9150655879434976,0.46306600965823175,0,5,0,0
1.0560000501573086,0.9460250089326253,0.07106763977454442,0.06849480795446865,0.7025690078735352,-0.09137555211782455,-0.1405147761106491,0.8343117778567368,0.6255634254396427,0,5,0,0
1.0600000503472984,0.8219555711066019,0.040102288382922235,0.09143768540373472,0.7109713554382324,-0.09171361476182938,-0.14018015563488007,0.9825154272491603,0.5601213074040148,0,5,0,0
1.0640000505372882,0.8219555711066019,0.040102288382922235,0.09143768540373472,0.7194094061851501,-0.09222932904958725,-0.140364408493042,1.007879729499915,0.6195684407277,0,5,0,0
1.068000050727278,0.8219555711066019,0.040102288382922235,0.09143768540373472,0.7279069423675537,-0.09306229650974274,-0.1414903849363327,1.0521237338232028,0.7303558217357622,0,5,0,0
1.0720000509172678,0.8219555711066019,0.040102288382922235,0.09143768540373472,0.7364658713340759,-0.09335022419691086,-0.14242643117904663,0.9939100796949191,0.7130746836076803,0,5,0,0
1.0760000511072576,0.6613371228564855,-0.2546245496385995,0.09154096356764298,0.745063304901123,-0.09363476932048798,-0.14430834352970123,0.99659971600182,0.8273586051403454,0,5,0,0
1.0800000512972474,0.6613371228564855,-0.2546245496385995,0.09154096356764298,0.7537067532539368,-0.09385763108730316,-0.14642982184886932,0.9921142146891658,0.8631471201838028,0,5,0,0
1.0840000514872372,0.6613371228564855,-0.2546245496385995,0.09154096356764298,0.7623854279518127,-0.0935923308134079,-0.14875032007694244,0.9347676065833846,0.895175852569597,0,5,0,0
1.088000051677227,0.6613371228564855,-0.2546245496385995,0.09154096356764298,0.7711190581321716,-0.09299612045288086,-0.15115171670913696,0.8918013106999333,0.914245273267087,0,5,0,0
1.0920000518672168,0.7261600514461459,-0.26319634786082813,0.03900859969398589,0.7798881530761719,-0.09284196048974991,-0.15286190807819366,0.9402131991293625,0.8436923189305522,0,5,0,0
1.0960000520572066,0.7261600514461459,-0.26319634786082813,0.03900859969398589,0.7886932492256165,-0.09274136275053024,-0.15393835306167603,0.945455550922151,0.7770710859386647,0,5,0,0
1.1000000522471964,0.7261600514461459,-0.26319634786082813,0.03900859969398589,0.7975326180458069,-0.09270001202821732,-0.1541471928358078,0.9519298128238803,0.680670816899645,0,5,0,0
1.1040000524371862,0.7261600514461459,-0.26319634786082813,0.03900859969398589,0.8064091801643372,-0.09258224070072174,-0.153532937169075,0.942376979262463,0.5859840406003382,0,5,0,0
1.108000052627176,0.6980070885079561,0.029967496826045,0.016645977869465107,0.8153209686279297,-0.09254690259695053,-0.15226693451404572,0.9515194480300455,0.5079639379396408,0,5,0,0
1.1120000528171659,0.6980070885079561,0.029967496826045,0.016645977869465107,0.8242711424827576,-0.09250884503126144,-0.150686115026474,0.9510549541605453,0.46658541470378473,0,5,0,0
1.1160000530071557,0.6980070885079561,0.029967496826045,0.016645977869465107,0.8332592248916626,-0.09252271056175232,-0.14914274215698242,0.9572570120241459,0.4649826101579176,0,5,0,0
1.1200000531971455,0.6980070885079561,0.029967496826045,0.016645977869465107,0.8423010110855103,-0.09215370565652847,-0.1479501575231552,0.9107152099039358,0.500031026655347,0,5,0,0
1.1240000533871353,0.6136854920780964,-0.02241552472959669,0.05732226761893679,0.8513757586479187,-0.09228899329900742,-0.14728717505931854,0.9690224888450585,0.5573128273309588,0,5,0,0
1.128000053577125,0.6136854920780964,-0.02241552472959669,0.05732226761893679,0.8604822754859924,-0.09247885644435883,-0.14736375212669373,0.9772828133461114,0.6411732519318866,0,5,0,0
1.1320000537671149,0.6136854920780964,-0.02241552472959669,0.05732226761893679,0.8696224093437195,-0.09268515557050705,-0.14836625754833221,0.981417296743345,0.7497062875604273,0,5,0,0
1.1360000539571047,0.6136854920780964,-0.02241552472959669,0.05732226761893679,0.8788074254989624,-0.09298969060182571,-0.14967724680900574,0.9957373611313309,0.7900139002555947,0,5,0,0
1.1400000541470945,0.5379556540465394,-0.41911514846952524,0.06951043290147299,0.8880300521850586,-0.09314241260290146,-0.15183351933956146,0.9804091578518318,0.8940977541865485,0,5,0,0
1.1440000543370843,0.5379556540465394,-0.41911514846952524,0.06951043290147299,0.8972941040992737,-0.09331239014863968,-0.1542726308107376,0.984274131738532,0.9360438337112431,0,5,0,0
1.148000054527074,0.5379556540465394,-0.41911514846952524,0.06951043290147299,0.9065907001495361,-0.09328387677669525,-0.15661197900772095,0.9618826521553165,0.934553727453038,0,5,0,0
1.152000054717064,0.5379556540465394,-0.41911514846952524,0.06951043290147299,0.9159355163574219,-0.09295288473367691,-0.15897880494594574,0.9247669697795583,0.9474938260987674,0,5,0,0
1.1560000549070537,0.5915720983511434,-0.4211808804497813,0.015771250815330453,0.9253125786781311,-0.09307493269443512,-0.16068723797798157,0.9771778272402765,0.8806440091882148,0,5,0,0
1.1600000550970435,0.5915720983511434,-0.4211808804497813,0.015771250815330453,0.9347196817398071,-0.09327922761440277,-0.161561518907547,0.9886974290684394,0.7906867734996128,0,5,0,0
1.1640000552870333,0.5915720983511434,-0.4211808804497813,0.015771250815330453,0.9441571831703186,-0.0936916396021843,-0.1615091860294342,1.0164595779089751,0.6866210156395699,0,5,0,0
1.1680000554770231,0.5915720983511434,-0.4211808804497813,0.015771250815330453,0.9536281824111938,-0.09407040476799011,-0.1605096161365509,1.0166877312567233,0.5764438000649054,0,5,0,0
1.172000055667013,0.6241610157083294,-0.10473731497391456,-0.013132547888473414,0.9631330370903015,-0.0944640263915062,-0.15882360935211182,1.022522012579012,0.4928568029756233,0,5,0,0
1.1760000558570027,0.6241610157083294,-0.10473731497391456,-0.013132547888473414,0.9726734757423401,-0.09481192380189896,-0.1567838340997696,1.0210845615788242,0.445275032437212,0,5,0,0
1.1800000560469925,0.6241610157083294,-0.10473731497391456,-0.013132547888473414,0.9822500944137573,-0.09507500380277634,-0.154863178730011,1.0144015834903009,0.45136506875892746,0,5,0,0
1.1840000562369823,0.6241610157083294,-0.10473731497391456,-0.013132547888473414,0.9918782114982605,-0.09446770697832108,-0.1545320451259613,0.9106379495541692,0.6292326014173498,0,5,0,0
1.1880000564269722,0.6626100991230037,-0.18707031737875351,0.01723261220990271,1.0015357732772827,-0.09501903504133224,-0.15382049977779388,1.0467245695281158,0.5839592700611521,0,5,0,0
1.192000056616962,0.6626100991230037,-0.18707031737875351,0.01723261220990271,1.0112214088439941,-0.09552393853664398,-0.15386962890625,1.046780098326492,0.6701009482574035,0,5,0,0
1.1960000568069518,0.6626100991230037,-0.18707031737875351,0.01723261220990271,1.020961046218872,-0.09621839970350266,-0.1550101488828659,1.0752808712014714,0.797816517125026,0,5,0,0
1.2000000569969416,0.6626100991230037,-0.18707031737875351,0.01723261220990271,1.0307340621948242,-0.09632088989019394,-0.1563786268234253,1.0099402111094447,0.8293110073350227,0,5,0,0
1.2040000571869314,0.6638317792633442,-0.5620328933291209,0.03642813096243871,1.040541172027588,-0.09629332274198532,-0.15854841470718384,0.9952641941316336,0.9285180394115629,0,5,0,0
1.2080000573769212,0.6638317792633442,-0.5620328933291209,0.03642813096243871,1.0503900051116943,-0.09623276442289352,-0.16097991168498993,0.9911780630382301,0.968072650811098,0,5,0,0
1.212000057566911,0.6638317792633442,-0.5620328933291209,0.03642813096243871,1.060267686843872,-0.09586150199174881,-0.16356895864009857,0.9527412953967734,0.9965457757555892,0,5,0,0
1.2160000577569008,0.6638317792633442,-0.5620328933291209,0.03642813096243871,1.0701937675476074,-0.09526684880256653,-0.1657896190881729,0.9218919448673906,0.9643828325796979,0,5,0,0
1.2200000579468906,0.690529095672243,-0.504175478571767,0.007205443399515968,1.0801477432250977,-0.09508297592401505,-0.16768939793109894,0.9664941979859076,0.9362852236609858,0,5,0,0
1.2240000581368804,0.690529095672243,-0.504175478571767,0.007205443399515968,1.0901292562484741,-0.09518986195325851,-0.16882899403572083,1.000501889531154,0.8557282436871972,0,5,0,0
1.2280000583268702,0.690529095672243,-0.504175478571767,0.007205443399515968,1.100136160850525,-0.09550479054450989,-0.16901132464408875,1.0272851740660829,0.7491708301056225,0,5,0,0
1.23200005851686,0.690529095672243,-0.504175478571767,0.007205443399515968,1.1101728677749634,-0.09601879864931107,-0.16821005940437317,1.0550521444523775,0.6357149456549203,0,5,0,0
1.2360000587068498,0.6428334912031775,-0.13096765281121348,-0.00873034350203328,1.1202380657196045,-0.09677650034427643,-0.16667607426643372,1.0902769526051925,0.5475480430654776,0,5,0,0
1.2400000588968396,0.6428334912031775,-0.13096765281121348,-0.00873034350203328,1.1303348541259766,-0.09756655246019363,-0.1647702306509018,1.1020510556856102,0.49848604043355416,0,5,0,0
1.2440000590868294,0.6428334912031775,-0.13096765281121348,-0.00873034350203328,1.1404638290405273,-0.09831088036298752,-0.1628376692533493,1.1045863071055788,0.4881408549335663,0,5,0,0
1.2480000592768192,0.6428334912031775,-0.13096765281121348,-0.00873034350203328,1.1506409645080566,-0.09758931398391724,-0.1620798259973526,0.9326917588027953,0.6176542581584121,0,5,0,0
1.252000059466809,0.6554939439728033,-0.17787290262780261,0.02279027606388989,1.1608431339263916,-0.09783609956502914,-0.1607286036014557,1.0443340116101667,0.5458799671737162,0,5,0,0
1.2560000596567988,0.6554939439728033,-0.17787290262780261,0.02279027606388989,1.171068787574768,-0.09802921116352081,-0.16020451486110687,1.0404620749550786,0.6372206348956526,0,5,0,0
1.2600000598467886,0.6554939439728033,-0.17787290262780261,0.02279027606388989,1.1813406944274902,-0.09841015189886093,-0.1610805243253708,1.0656384435760478,0.7986223065670107,0,5,0,0
1.2640000600367785,0.6554939439728033,-0.17787290262780261,0.02279027606388989,1.191640019416809,-0.09828519821166992,-0.16224431991577148,1.0077116713595258,0.8360428129675195,0,5,0,0
1.2680000602267683,0.6331263817856476,-0.5806484165430812,0.05253205932083946,1.2019695043563843,-0.09831427782773972,-0.16442807018756866,1.0255671675919864,0.9599173376489165,0,5,0,0
1.272000060416758,0.6331263817856476,-0.5806484165430812,0.05253205932083946,1.2123440504074097,-0.09852244704961777,-0.1671023815870285,1.0480328933913876,1.0262037532223671,0,5,0,0
1.2760000606067479,0.6331263817856476,-0.5806484165430812,0.05253205932083946,1.2227429151535034,-0.09844174981117249,-0.17005997896194458,1.0149647059748752,1.0703119574160247,0,5,0,0
