time,roll,pitch,yaw,altitude,linear_velocity_x,linear_velocity_y,desired_roll,desired_pitch,desired_yaw,desired_altitude,desired_linear_velocity_x,desired_linear_velocity_y
0.004000000189989805,0.0,0.0,0.0,0.06905829161405563,3.220294456696138e-05,1.8638242181623355e-05,-0.003944937824448157,-0.002171399846349724,0,5,0,0
0.00800000037997961,0.0,0.0,0.0,0.06795962899923325,3.216322511434555e-05,1.8624474250827916e-05,-0.00031731829175098684,-7.303843538607886e-05,0,5,0,0
0.012000000569969416,0.0,0.0,0.0,0.06670400500297546,3.21235456794966e-05,1.8610711777000688e-05,-0.00031700309591435,-7.302866511005078e-05,0,5,0,0
0.01600000075995922,0.0,0.0,0.0,0.06570035219192505,0.0025692323688417673,-0.0016443801578134298,-0.3111234504705319,0.1936677969903791,0,5,0,0
0.020000000949949026,0.0,0.0,0.0,0.06466511636972427,0.005023260600864887,-0.003736972576007247,-0.32632922255756147,0.2503773073200838,0,5,0,0
0.02400000113993883,0.0,0.0,0.0,0.06359975785017014,0.007052346132695675,-0.005949467420578003,-0.2988309520064199,0.2727305877475658,0,5,0,0
0.028000001329928637,0.0,0.0,0.0,0.06254293769598007,0.00808501522988081,-0.008534527383744717,-0.19708020344242305,0.32500488431818386,0,5,0,0
0.03200000151991844,0.0,0.0,0.0,0.06145884096622467,0.008380375802516937,-0.009933698922395706,-0.11710671699968318,0.1972129699300659,0,5,0,0
0.03600000170990825,-0.1320901408550233,0.03848887535187627,0.03773441476910753,0.06034613028168678,0.007748372852802277,-0.010431718081235886,-0.0064768922891355885,0.09785044477656903,0,5,0,0
0.04000000189989805,-0.1320901408550233,0.03848887535187627,0.03773441476910753,0.05921043083071709,0.0061773816123604774,-0.009871426969766617,0.11485437208806243,-0.023426927998226474,0,5,0,0
0.04400000208988786,-0.1320901408550233,0.03848887535187627,0.03773441476910753,0.05806078761816025,0.004296076484024525,-0.00848062802106142,0.16856742351731208,-0.12240189753608391,0,5,0,0
0.04800000227987766,-0.1320901408550233,0.03848887535187627,0.03773441476910753,0.05691932514309883,0.0021090165246278048,-0.006132299080491066,0.22483037833192646,-0.23950261474817727,0,5,0,0
0.05200000246986747,-0.21826706967580475,0.1306893591187891,0.10971470433483385,0.05576760694384575,-2.7364651032257825e-05,-0.0036208070814609528,0.2404928928641189,-0.2678957360117566,0,5,0,0
0.05600000265985727,-0.21826706967580475,0.1306893591187891,0.10971470433483385,0.05459859222173691,-0.0017715028952807188,-0.0012235011672601104,0.21381119922588454,-0.26463608933247523,0,5,0,0
0.06000000284984708,-0.21826706967580475,0.1306893591187891,0.10971470433483385,0.053416088223457336,-0.002749078208580613,0.0008325429516844451,0.13735522451128437,-0.2344703137686199,0,5,0,0
0.06400000303983688,-0.21826706967580475,0.1306893591187891,0.10971470433483385,0.052228230983018875,-0.002840945962816477,0.0022791409865021706,0.03863862466231977,-0.1716994946388024,0,5,0,0
0.06800000322982669,0.10320934925809441,-0.2442746580653532,0.17749542246792047,0.05101671442389488,-0.002208853606134653,0.0026734573766589165,-0.0491225062653777,-0.054901497095906,0,5,0,0
0.0720000034198165,0.10320934925809441,-0.2442746580653532,0.17749542246792047,0.04978453740477562,-0.0008238725131377578,0.002032250864431262,-0.14767031871363365,0.06415477253566503,0,5,0,0
0.0760000036098063,0.10320934925809441,-0.2442746580653532,0.17749542246792047,0.048535991460084915,0.0010389437666162848,0.0004680761194322258,-0.2200574309332168,0.174244269387855,0,5,0,0
0.0800000037997961,0.10320934925809441,-0.2442746580653532,0.17749542246792047,0.04734324291348457,0.0023491696920245886,-0.0018345678690820932,-0.170998916283679,0.2665370342544935,0,5,0,0
0.08400000398978591,0.37866644949402184,-0.7009087518679972,0.2174506624996982,0.046144481748342514,0.004127902910113335,-0.0045148455537855625,-0.24150322335511964,0.3197527694265588,0,5,0,0
0.08800000417977571,0.37866644949402184,-0.7009087518679972,0.2174506624996982,0.04493742808699608,0.0054144179448485374,-0.007132797967642546,-0.19900682530903258,0.32323010516072526,0,5,0,0
0.09200000436976552,0.37866644949402184,-0.7009087518679972,0.2174506624996982,0.043718501925468445,0.005938789341598749,-0.009144071489572525,-0.11852363717080636,0.26304577292104075,0,5,0,0
0.09600000455975533,0.37866644949402184,-0.7009087518679972,0.2174506624996982,0.04255414754152298,0.004903324414044619,-0.010877586901187897,0.06730082227489308,0.23875815485110197,0,5,0,0
0.10000000474974513,0.41498977222629224,-0.61594849351921,0.28373186730255806,0.04137180373072624,0.0037434082478284836,-0.011385382153093815,0.09289176344130784,0.1029231493594677,0,5,0,0
0.10400000493973494,0.41498977222629224,-0.61594849351921,0.28373186730255806,0.0401756577193737,0.001866237842477858,-0.010920412838459015,0.19235008659378808,-0.00834652744491362,0,5,0,0
0.10800000512972474,0.41498977222629224,-0.61594849351921,0.28373186730255806,0.03897358849644661,-0.000666166830342263,-0.009468020871281624,0.2913895837115562,-0.12521841519723786,0,5,0,0
0.11200000531971455,0.41498977222629224,-0.61594849351921,0.28373186730255806,0.037793438881635666,-0.003072347491979599,-0.007957030087709427,0.30125856337867063,-0.13783564798970419,0,5,0,0
0.11600000550970435,0.602370038346951,-0.3674734489945637,0.3556795218101124,0.03660915046930313,-0.005501559004187584,-0.005871498491615057,0.3281548528091211,-0.21079952111573935,0,5,0,0
0.12000000569969416,0.602370038346951,-0.3674734489945637,0.3556795218101124,0.03542253002524376,-0.007410550490021706,-0.003926553297787905,0.2887378028022,-0.2027539086588419,0,5,0,0
0.12400000588968396,0.602370038346951,-0.3674734489945637,0.3556795218101124,0.034221354871988297,-0.008703707717359066,-0.002600362990051508,0.23240891318488938,-0.13844250763939883,0,5,0,0
0.12800000607967377,0.602370038346951,-0.3674734489945637,0.3556795218101124,0.03303218260407448,-0.008651257492601871,-0.0023376108147203922,0.08052434278585212,-0.01985112186134968,0,5,0,0
0.13200000626966357,0.9810082090954468,-0.6227964979444598,0.3898550039755792,0.03183034807443619,-0.008102966472506523,-0.0028307107277214527,0.01927879287932098,0.06716142739522592,0,5,0,0
0.13600000645965338,0.9810082090954468,-0.6227964979444598,0.3898550039755792,0.03062053956091404,-0.006897704675793648,-0.004341134801506996,-0.0666664794547723,0.1876625050666069,0,5,0,0
0.14000000664964318,0.9810082090954468,-0.6227964979444598,0.3898550039755792,0.02941833809018135,-0.005349117796868086,-0.006958299782127142,-0.12076358027508807,0.32265621101442143,0,5,0,0
0.144000006839633,0.9810082090954468,-0.6227964979444598,0.3898550039755792,0.028248058632016182,-0.004006021656095982,-0.01029257383197546,-0.11106722028614596,0.41669277584850833,0,5,0,0
0.1480000070296228,1.0896101053398115,-0.9727039660076011,0.39935699338709507,0.027082599699497223,-0.0025515269953757524,-0.013622752390801907,-0.13813837612717866,0.4295854419730285,0,5,0,0
0.1520000072196126,1.0896101053398115,-0.9727039660076011,0.39935699338709507,0.025924064218997955,-0.0016905878437682986,-0.016723498702049255,-0.07996871862869015,0.4162174369901234,0,5,0,0
0.1560000074096024,1.0896101053398115,-0.9727039660076011,0.39935699338709507,0.024764016270637512,-0.0015334698837250471,-0.019119227305054665,-0.002356337611096661,0.34653174913987456,0,5,0,0
0.1600000075995922,1.0896101053398115,-0.9727039660076011,0.39935699338709507,0.023656414821743965,-0.002997145289555192,-0.02105158381164074,0.1946268545963491,0.30218234059860305,0,5,0,0
0.16400000778958201,0.8010413169222699,-0.7786390947914095,0.4492268798681031,0.022541280835866928,-0.004415758419781923,-0.02156914211809635,0.2037540779547318,0.14513954981321248,0,5,0,0
0.16800000797957182,0.8010413169222699,-0.7786390947914095,0.4492268798681031,0.021422792226076126,-0.0064793420024216175,-0.021065622568130493,0.29696463665275574,0.02830477571859024,0,5,0,0
0.17200000816956162,0.8010413169222699,-0.7786390947914095,0.4492268798681031,0.020310034975409508,-0.009087389335036278,-0.019505897536873817,0.3843190886772041,-0.09671042125154643,0,5,0,0
0.17600000835955143,0.8010413169222699,-0.7786390947914095,0.4492268798681031,0.019244959577918053,-0.010811205953359604,-0.01863630674779415,0.3021072511230369,-0.022503958712339178,0,5,0,0
0.18000000854954123,0.6924465891041552,-0.4490636169465751,0.5153481175996053,0.018186021596193314,-0.01282927580177784,-0.01618064194917679,0.355422226683952,-0.21072110196214922,0,5,0,0
0.18400000873953104,0.6924465891041552,-0.4490636169465751,0.5153481175996053,0.017135173082351685,-0.014424199238419533,-0.013853451237082481,0.3238021100663916,-0.20554328247863096,0,5,0,0
0.18800000892952085,0.6924465891041552,-0.4490636169465751,0.5153481175996053,0.01608722284436226,-0.015766853466629982,-0.012381225824356079,0.30888620819808954,-0.11521887757573289,0,5,0,0
0.19200000911951065,0.6924465891041552,-0.4490636169465751,0.5153481175996053,0.01508842222392559,-0.014553345739841461,-0.011482986621558666,0.009217852683011701,-0.05421082966778461,0,5,0,0
0.19600000930950046,0.8642540789822045,-0.641401707991883,0.5809889613060147,0.014086708426475525,-0.014431456103920937,-0.011427633464336395,0.13084062120972964,0.040419859648216455,0,5,0,0
0.20000000949949026,0.8642540789822045,-0.641401707991883,0.5809889613060147,0.013089101761579514,-0.01402620505541563,-0.01260076742619276,0.09494361621675179,0.18334743167087225,0,5,0,0
0.20400000968948007,0.8642540789822045,-0.641401707991883,0.5809889613060147,0.012123819440603256,-0.013340359553694725,-0.015600849874317646,0.056550303576583485,0.40091689844782546,0,5,0,0
0.20800000987946987,0.8642540789822045,-0.641401707991883,0.5809889613060147,0.011215008795261383,-0.01315293274819851,-0.018818510696291924,0.11077970322371208,0.43831027205897344,0,5,0,0
0.21200001006945968,0.7874783073974334,-0.9241286861846791,0.6273232995863042,0.010322816669940948,-0.012646795250475407,-0.022533951327204704,0.06989372938401786,0.5092263419140922,0,5,0,0
0.21600001025944948,0.7874783073974334,-0.9241286861846791,0.6273232995863042,0.009469602257013321,-0.012674094177782536,-0.026279209181666374,0.13020873145006384,0.5276248809268934,0,5,0,0
0.2200000104494393,0.7874783073974334,-0.9241286861846791,0.6273232995863042,0.008618487045168877,-0.01264615636318922,-0.029189571738243103,0.12374557091219947,0.44541066957787573,0,5,0,0
0.2240000106394291,0.7874783073974334,-0.9241286861846791,0.6273232995863042,0.007818970829248428,-0.01392937358468771,-0.031425610184669495,0.2841161081795951,0.3785687860429199,0,5,0,0
0.2280000108294189,0.4716281040697806,-0.5446888716862296,0.6845276428273727,0.007021871395409107,-0.014864838682115078,-0.03224153444170952,0.2543843226685998,0.2221470240397767,0,5,0,0
0.2320000110194087,0.4716281040697806,-0.5446888716862296,0.6845276428273727,0.006230132654309273,-0.015980813652276993,-0.0319022610783577,0.2858897860428948,0.09090676989526725,0,5,0,0
0.2360000112093985,0.4716281040697806,-0.5446888716862296,0.6845276428273727,0.005450851749628782,-0.017367931082844734,-0.030052965506911278,0.3303061687319666,-0.0862957756117703,0,5,0,0
0.2400000113993883,0.4716281040697806,-0.5446888716862296,0.6845276428273727,0.004724588245153427,-0.018400436267256737,-0.028815923258662224,0.3007815058275624,-0.02229629079751036,0,5,0,0
0.24400001158937812,0.2853452712474972,-0.035770578593265615,0.7633598674081276,0.004013726022094488,-0.019040832296013832,-0.025793712586164474,0.26311888619885804,-0.235154666763351,0,5,0,0
0.24800001177936792,0.2853452712474972,-0.035770578593265615,0.7633598674081276,0.00332983722910285,-0.019305257126688957,-0.022614650428295135,0.2235127093496806,-0.26546243149739623,0,5,0,0
0.25200001196935773,0.2853452712474972,-0.035770578593265615,0.7633598674081276,0.002654055133461952,-0.01970316283404827,-0.019934024661779404,0.24255565193004258,-0.2200630015380942,0,5,0,0
0.25600001215934753,0.2853452712474972,-0.035770578593265615,0.7633598674081276,0.0020251197274774313,-0.018750134855508804,-0.019357681274414062,0.08109034002548987,0.014409839759973592,0,5,0,0
0.26000001234933734,0.2189438662915514,-0.18355035925823657,0.835772517913711,0.0014025596901774406,-0.018361030146479607,-0.017834892496466637,0.14068472421624464,-0.09811361299098009,0,5,0,0
0.26400001253932714,0.2189438662915514,-0.18355035925823657,0.835772517913711,0.0007875121664255857,-0.01791810430586338,-0.01741337776184082,0.13024359224650953,0.02413544416819402,0,5,0,0
0.26800001272931695,0.2189438662915514,-0.18355035925823657,0.835772517913711,0.0002100082638207823,-0.017738953232765198,-0.018596302717924118,0.15816931494161768,0.20941123175268128,0,5,0,0
0.27200001291930676,0.2189438662915514,-0.18355035925823657,0.835772517913711,-0.00034957900061272085,-0.017214927822351456,-0.020372197031974792,0.11417201556103913,0.28327275188690304,0,5,0,0
0.27600001310929656,0.07857465805844821,-0.5013514725141375,0.8774774145451713,-0.000889679417014122,-0.016981089487671852,-0.023324526846408844,0.1445204313004359,0.42748703751861983,0,5,0,0
0.28000001329928637,0.07857465805844821,-0.5013514725141375,0.8774774145451713,-0.001394198858179152,-0.01715831831097603,-0.02660098299384117,0.19257895257603305,0.4771209152009157,0,5,0,0
0.28400001348927617,0.07857465805844821,-0.5013514725141375,0.8774774145451713,-0.0018848725594580173,-0.01736132986843586,-0.029904872179031372,0.19755129279903677,0.49349446023948845,0,5,0,0
0.288000013679266,0.07857465805844821,-0.5013514725141375,0.8774774145451713,-0.0023265816271305084,-0.017955269664525986,-0.03176251798868179,0.24751320816617728,0.3382989015046065,0,5,0,0
0.2920000138692558,-0.027614933257874286,-0.2885493734720995,0.8760246158904451,-0.0027553988620638847,-0.018450528383255005,-0.03354169800877571,0.2414084559478647,0.3366687207581992,0,5,0,0
0.2960000140592456,-0.027614933257874286,-0.2885493734720995,0.8760246158904451,-0.003173689590767026,-0.019155386835336685,-0.03419332951307297,0.2720829822814559,0.21250810876800683,0,5,0,0
0.3000000142492354,-0.027614933257874286,-0.2885493734720995,0.8760246158904451,-0.003564078826457262,-0.019692810252308846,-0.03342874348163605,0.2586680386428898,0.050205528427836904,0,5,0,0
0.3040000144392252,-0.027614933257874286,-0.2885493734720995,0.8760246158904451,-0.003909708932042122,-0.020174704492092133,-0.03134977072477341,0.2572883681967733,-0.10590362273331719,0,5,0,0
0.308000014629215,-0.045388786880148545,0.14637343053883795,0.8987947900957963,-0.0042326077818870544,-0.02079528383910656,-0.028480328619480133,0.27914614417294653,-0.20624083583715952,0,5,0,0
0.3120000148192048,-0.045388786880148545,0.14637343053883795,0.8987947900957963,-0.00452436413615942,-0.021147673949599266,-0.025219563394784927,0.25254951202212894,-0.2632472186226147,0,5,0,0
0.3160000150091946,-0.045388786880148545,0.14637343053883795,0.8987947900957963,-0.004785845521837473,-0.02123577706515789,-0.02197044901549816,0.22374922352721588,-0.27488022701342646,0,5,0,0
0.3200000151991844,-0.045388786880148545,0.14637343053883795,0.8987947900957963,-0.005000502802431583,-0.020421020686626434,-0.021047066897153854,0.1140789819331394,-0.01687837559528893,0,5,0,0
0.3240000153891742,0.049855859122533784,-0.1543794106711625,0.9297870996815257,-0.005198943894356489,-0.020207220688462257,-0.0186497550457716,0.17959706886358412,-0.19223995067746236,0,5,0,0
0.32800001557916403,0.049855859122533784,-0.1543794106711625,0.9297870996815257,-0.005383059848099947,-0.019881606101989746,-0.017327988520264626,0.16380949826855967,-0.07648658619123376,0,5,0,0
0.33200001576915383,0.049855859122533784,-0.1543794106711625,0.9297870996815257,-0.005516780540347099,-0.02002417854964733,-0.017391139641404152,0.21795431961383308,0.0796109848779212,0,5,0,0
0.33600001595914364,0.049855859122533784,-0.1543794106711625,0.9297870996815257,-0.005621954333037138,-0.019864453002810478,-0.018620170652866364,0.18239621606962958,0.2157332787669255,0,5,0,0
0.34000001614913344,0.03619161520079919,-0.7909943041232782,0.9310578115569731,-0.005700881592929363,-0.019771084189414978,-0.020961381494998932,0.1889751106975604,0.35026865446095656,0,5,0,0
0.34400001633912325,0.03619161520079919,-0.7909943041232782,0.9310578115569731,-0.005743423476815224,-0.020013058558106422,-0.02389293536543846,0.22916899192018303,0.4284658005203724,0,5,0,0
0.34800001652911305,0.03619161520079919,-0.7909943041232782,0.9310578115569731,-0.0057541863061487675,-0.02049259841442108,-0.027280379086732864,0.2607396888100495,0.49336865410361075,0,5,0,0
0.35200001671910286,0.03619161520079919,-0.7909943041232782,0.9310578115569731,-0.0057167913764715195,-0.021473905071616173,-0.02943936362862587,0.32705305517449645,0.36387359562881627,0,5,0,0
0.35600001690909266,-0.025262837797685813,-0.8267809319383879,0.8950012431755412,-0.005655553657561541,-0.022172020748257637,-0.03191300109028816,0.3022284409941719,0.4092431884744286,0,5,0,0
0.36000001709908247,-0.025262837797685813,-0.8267809319383879,0.8950012431755412,-0.005571878515183926,-0.02317783236503601,-0.03339571878314018,0.3469579755835143,0.3037757402785106,0,5,0,0
0.3640000172890723,-0.025262837797685813,-0.8267809319383879,0.8950012431755412,-0.005457627587020397,-0.024072134867310524,-0.03356195241212845,0.3434139989468456,0.15641677333399023,0,5,0,0
0.3680000174790621,-0.025262837797685813,-0.8267809319383879,0.8950012431755412,-0.005317322909832001,-0.025584356859326363,-0.032522622495889664,0.428113560620452,0.016711615570573587,0,5,0,0
0.3720000176690519,0.02711689659456738,-0.4360612317489239,0.8786382222361999,-0.005150184966623783,-0.026733335107564926,-0.030305685475468636,0.3988025838761793,-0.1245641917905171,0,5,0,0
0.3760000178590417,0.02711689659456738,-0.4360612317489239,0.8786382222361999,-0.0049488842487335205,-0.027682416141033173,-0.027399957180023193,0.3858713964192385,-0.21361035983165932,0,5,0,0
0.3800000180490315,0.02711689659456738,-0.4360612317489239,0.8786382222361999,-0.004711588844656944,-0.028412044048309326,-0.023996345698833466,0.368547388876984,-0.28317907025981726,0,5,0,0
0.3840000182390213,0.02711689659456738,-0.4360612317489239,0.8786382222361999,-0.004427376203238964,-0.028162090107798576,-0.023112639784812927,0.2559124858496783,-0.0031690607362695605,0,5,0,0
0.3880000184290111,0.23549324146023168,-0.4582075552783667,0.8833814179814798,-0.004116587806493044,-0.02841094881296158,-0.020321914926171303,0.3145856791546083,-0.22882280865248367,0,5,0,0
0.3920000186190009,0.23549324146023168,-0.4582075552783667,0.8833814179814798,-0.003780926112085581,-0.028419649228453636,-0.018390819430351257,0.2877230841662125,-0.13979475394300464,0,5,0,0
0.3960000188089907,0.23549324146023168,-0.4582075552783667,0.8833814179814798,-0.0033881845884025097,-0.028961505740880966,-0.017765698954463005,0.35319121496388356,0.004669584596855764,0,5,0,0
0.4000000189989805,0.23549324146023168,-0.4582075552783667,0.8833814179814798,-0.002953854389488697,-0.028391677886247635,-0.018600590527057648,0.22249659109363365,0.17230513995942492,0,5,0,0
0.4040000191889703,0.3926127928557177,-0.9610861720616068,0.8642095181987406,-0.0024899409618228674,-0.02836122177541256,-0.020509187132120132,0.2829394152159677,0.300780558846459,0,5,0,0
0.40800001937896013,0.3926127928557177,-0.9610861720616068,0.8642095181987406,-0.0019844132475554943,-0.028646249324083328,-0.023261645808815956,0.32135035171295095,0.40678070005544,0,5,0,0
0.41200001956894994,0.3926127928557177,-0.9610861720616068,0.8642095181987406,-0.0014288623351603746,-0.0292638149112463,-0.02707771584391594,0.3650067682971716,0.541766238854052,0,5,0,0
0.41600001975893974,0.3926127928557177,-0.9610861720616068,0.8642095181987406,-0.0008252355619333684,-0.030454861000180244,-0.029720457270741463,0.4415068742412458,0.42040907150095314,0,5,0,0
0.42000001994892955,0.37156963972160156,-1.1457065839751799,0.8060987779902304,-0.00018649025878403336,-0.03120851144194603,-0.03299088031053543,0.3999112711207114,0.5041841198815915,0,5,0,0
0.42400002013891935,0.37156963972160156,-1.1457065839751799,0.8060987779902304,0.0004938225611113012,-0.03241504356265068,-0.035518523305654526,0.4630035748966693,0.4308171852651449,0,5,0,0
0.42800002032890916,0.37156963972160156,-1.1457065839751799,0.8060987779902304,0.0012100961757823825,-0.03337077796459198,-0.03688368573784828,0.4444262667662527,0.3055872987264665,0,5,0,0
0.43200002051889896,0.37156963972160156,-1.1457065839751799,0.8060987779902304,0.001983399037271738,-0.035434335470199585,-0.037192102521657944,0.589776977474344,0.18802634711546753,0,5,0,0
0.43600002070888877,0.41577590779250295,-0.7421560096015152,0.7644764175507934,0.002786431461572647,-0.036856360733509064,-0.0360361747443676,0.5319133115468653,0.018750367530720846,0,5,0,0
0.4400000208988786,0.41577590779250295,-0.7421560096015152,0.7644764175507934,0.0036253081634640694,-0.038139939308166504,-0.034022584557533264,0.5292653814185574,-0.08570935550061168,0,5,0,0
0.4440000210888684,0.41577590779250295,-0.7421560096015152,0.7644764175507934,0.004506477154791355,-0.039281461387872696,-0.031023893505334854,0.5247935228044863,-0.2084535044510643,0,5,0,0
0.4480000212788582,0.41577590779250295,-0.7421560096015152,0.7644764175507934,0.0054347096011042595,-0.039367690682411194,-0.030480483546853065,0.40702986551954917,0.06566511880241171,0,5,0,0
0.452000021468848,0.6335732824235791,-0.5236374805012021,0.748791024077646,0.00639736745506525,-0.039922650903463364,-0.027726124972105026,0.4654075088249318,-0.19401748030931787,0,5,0,0
0.4560000216588378,0.6335732824235791,-0.5236374805012021,0.748791024077646,0.007397979497909546,-0.040125522762537,-0.02553405426442623,0.4279225898336587,-0.13946709936616206,0,5,0,0
0.4600000218488276,0.6335732824235791,-0.5236374805012021,0.748791024077646,0.008457574062049389,-0.04085700958967209,-0.024486947804689407,0.4948046960149606,-0.014788284752189143,0,5,0,0
0.4640000220388174,0.6335732824235791,-0.5236374805012021,0.748791024077646,0.009567596949636936,-0.04125611111521721,-0.025061745196580887,0.46150138128900864,0.17003522764830636,0,5,0,0
0.4680000222288072,0.8750114087650548,-0.8567829765246817,0.7209007045775944,0.010709352791309357,-0.04121951386332512,-0.026080897077918053,0.41221822547451265,0.22416430701786302,0,5,0,0
0.472000022418797,0.8750114087650548,-0.8567829765246817,0.7209007045775944,0.011894322000443935,-0.041220828890800476,-0.0281598512083292,0.416595436969558,0.3517754545434265,0,5,0,0
0.4760000226087868,0.8750114087650548,-0.8567829765246817,0.7209007045775944,0.013136659748852253,-0.04138785973191261,-0.03155198693275452,0.43700810439739535,0.5131526445230197,0,5,0,0
0.4800000227987766,0.8750114087650548,-0.8567829765246817,0.7209007045775944,0.01442445907741785,-0.041789066046476364,-0.035485222935676575,0.46746520081830667,0.5898445315133328,0,5,0,0
0.48400002298876643,1.0458658942563026,-1.0210646237555208,0.6634133911472039,0.015756312757730484,-0.04214633256196976,-0.03957377001643181,0.46619579001556916,0.6237661923152377,0,5,0,0
0.48800002317875624,1.0458658942563026,-1.0210646237555208,0.6634133911472039,0.017140746116638184,-0.042906299233436584,-0.043326377868652344,0.5192021972484867,0.6010874456208688,0,5,0,0
0.49200002336874604,1.0458658942563026,-1.0210646237555208,0.6634133911472039,0.018561450764536858,-0.04373565688729286,-0.0461987666785717,0.5354072245165896,0.5136632403503766,0,5,0,0
0.49600002355873585,1.0458658942563026,-1.0210646237555208,0.6634133911472039,0.020014818757772446,-0.04501505568623543,-0.04830055311322212,0.5989388750622229,0.4354935443218859,0,5,0,0
0.5000000237487257,1.1520038320214117,-0.48307919363711277,0.60379489574318,0.02149978280067444,-0.04610501602292061,-0.048750024288892746,0.588637304481087,0.2515229712822772,0,5,0,0
0.5040000239387155,1.1520038320214117,-0.48307919363711277,0.60379489574318,0.02302023023366928,-0.047127049416303635,-0.04810343682765961,0.5913289625803613,0.12574547889629,0,5,0,0
0.5080000241287053,1.1520038320214117,-0.48307919363711277,0.60379489574318,0.024576876312494278,-0.04810359328985214,-0.04641580581665039,0.5960922792069138,0.001988959004473212,0,5,0,0
0.5120000243186951,1.1520038320214117,-0.48307919363711277,0.60379489574318,0.026180511340498924,-0.04761037230491638,-0.04641875997185707,0.4259257955306692,0.1923030028202329,0,5,0,0
0.5160000245086849,1.2555901849941797,0.0411971925663502,0.5780879928199223,0.02782740630209446,-0.04788751155138016,-0.04445309191942215,0.5154776399445455,-0.036922969804253,0,5,0,0
0.5200000246986747,1.2555901849941797,0.0411971925663502,0.5780879928199223,0.029517779126763344,-0.0479150116443634,-0.042601801455020905,0.48778323347516456,-0.031358409290893424,0,5,0,0
0.5240000248886645,1.2555901849941797,0.0411971925663502,0.5780879928199223,0.031259167939424515,-0.048286322504282,-0.04166419804096222,0.5302909386969517,0.06778095941420463,0,5,0,0
0.5280000250786543,1.2555901849941797,0.0411971925663502,0.5780879928199223,0.03304744139313698,-0.04678928852081299,-0.042766109108924866,0.3052441082623714,0.3017366106821213,0,5,0,0
0.5320000252686441,1.296019773014813,-0.02439031093311583,0.5606778610834473,0.034869711846113205,-0.04654023423790932,-0.04284857213497162,0.44326297164587813,0.18748140009616163,0,5,0,0
0.5360000254586339,1.296019773014813,-0.02439031093311583,0.5606778610834473,0.03673410043120384,-0.04639348015189171,-0.04390915483236313,0.45341554674639983,0.3018675706620696,0,5,0,0
0.5400000256486237,1.296019773014813,-0.02439031093311583,0.5606778610834473,0.038645628839731216,-0.0463305227458477,-0.046458419412374496,0.46232429199509706,0.4796528330340182,0,5,0,0
0.5440000258386135,1.296019773014813,-0.02439031093311583,0.5606778610834473,0.04059572145342827,-0.04575127363204956,-0.04934616759419441,0.39855878955549334,0.5294016599639362,0,5,0,0
0.5480000260286033,1.1812752147065306,-0.1400780895140851,0.5219194428411453,0.04259109869599342,-0.04558943584561348,-0.05301353335380554,0.44400859844016877,0.6319053288241269,0,5,0,0
0.5520000262185931,1.1812752147065306,-0.1400780895140851,0.5219194428411453,0.04464687034487724,-0.045677170157432556,-0.05690426379442215,0.4730724264920702,0.672733346245762,0,5,0,0
0.5560000264085829,1.1812752147065306,-0.1400780895140851,0.5219194428411453,0.0467417873442173,-0.04558805748820305,-0.06054723262786865,0.4523954267199532,0.659577355462025,0,5,0,0
0.5600000265985727,1.1812752147065306,-0.1400780895140851,0.5219194428411453,0.04890190809965134,-0.04593415558338165,-0.06324135512113571,0.5049278583207555,0.5637604164945311,0,5,0,0
0.5640000267885625,1.0593398412755344,0.16611350337388486,0.45900013341891227,0.05109958350658417,-0.04604075103998184,-0.06495910882949829,0.4791602651342035,0.4609458501120137,0,5,0,0
0.5680000269785523,1.0593398412755344,0.16611350337388486,0.45900013341891227,0.05333345755934715,-0.0460587739944458,-0.06565098464488983,0.46948662972463817,0.3484596582667101,0,5,0,0
0.5720000271685421,1.0593398412755344,0.16611350337388486,0.45900013341891227,0.05561012774705887,-0.04586036130785942,-0.06511694192886353,0.4432635592694938,0.2085639398367996,0,5,0,0
0.576000027358532,1.0593398412755344,0.16611350337388486,0.45900013341891227,0.05793742835521698,-0.04518889635801315,-0.06382273882627487,0.38343898603844145,0.11802226258052834,0,5,0,0
0.5800000275485218,0.9968514802168935,0.5903063507658983,0.4239470482811083,0.06031060963869095,-0.04478062316775322,-0.06200090050697327,0.40907279918365663,0.05152475241079857,0,5,0,0
0.5840000277385116,0.9968514802168935,0.5903063507658983,0.4239470482811083,0.06273550540208817,-0.044169291853904724,-0.06011398509144783,0.3802214545319764,0.036800191342324956,0,5,0,0
0.5880000279285014,0.9968514802168935,0.5903063507658983,0.4239470482811083,0.06520507484674454,-0.04355427995324135,-0.058581285178661346,0.3737617998051884,0.07065922894768048,0,5,0,0
0.5920000281184912,0.9968514802168935,0.5903063507658983,0.4239470482811083,0.06772170960903168,-0.04168720915913582,-0.059426937252283096,0.21433452234895523,0.34174904766063763,0,5,0,0
0.596000028308481,0.8436084539305102,0.27520472672020724,0.40911774094890846,0.07027651369571686,-0.04128292575478554,-0.05885016545653343,0.37495434086308504,0.17956052317782845,0,5,0,0
0.6000000284984708,0.8436084539305102,0.27520472672020724,0.40911774094890846,0.07287000864744186,-0.0410761758685112,-0.059105366468429565,0.39520794455513913,0.2743201165262112,0,5,0,0
0.6040000286884606,0.8436084539305102,0.27520472672020724,0.40911774094890846,0.075520358979702,-0.04136483743786812,-0.06048889830708504,0.453927621974578,0.40693662922489704,0,5,0,0
0.6080000288784504,0.8436084539305102,0.27520472672020724,0.40911774094890846,0.07822299003601074,-0.041499778628349304,-0.062020834535360336,0.4380830915507079,0.42990871718719026,0,5,0,0
0.6120000290684402,0.5952229057618746,-0.27131927124603145,0.3632609063390479,0.08097145706415176,-0.041695620864629745,-0.06464609503746033,0.44699295073533424,0.5635638847941893,0,5,0,0
0.61600002925843,0.5952229057618746,-0.27131927124603145,0.3632609063390479,0.08377370983362198,-0.04208424687385559,-0.06750956177711487,0.47266838645111225,0.601977975160809,0,5,0,0
0.6200000294484198,0.5952229057618746,-0.27131927124603145,0.3632609063390479,0.0866154357790947,-0.0422857441008091,-0.07043002545833588,0.45373285750558723,0.6202410175764881,0,5,0,0
0.6240000296384096,0.5952229057618746,-0.27131927124603145,0.3632609063390479,0.08950546383857727,-0.04230986535549164,-0.07301696389913559,0.4341208178014072,0.5932424242961525,0,5,0,0
0.6280000298283994,0.5519886969867678,-0.31494632077715373,0.26689951734242046,0.09243655949831009,-0.04272276535630226,-0.0750071108341217,0.482089959313223,0.5342439878955526,0,5,0,0
0.6320000300183892,0.5519886969867678,-0.31494632077715373,0.26689951734242046,0.09540779143571854,-0.04321327432990074,-0.07605128735303879,0.4958297699364589,0.4321815503165296,0,5,0,0
0.636000030208379,0.5519886969867678,-0.31494632077715373,0.26689951734242046,0.09841910004615784,-0.04367514327168465,-0.0759611576795578,0.49733127627702595,0.30439389782603593,0,5,0,0
0.6400000303983688,0.5519886969867678,-0.31494632077715373,0.26689951734242046,0.10147983580827713,-0.044161390513181686,-0.07463011145591736,0.5050422946217252,0.15964571994532875,0,5,0,0
0.6440000305883586,0.5301882537487979,-0.06362580637956915,0.20141369177695567,0.1045876070857048,-0.04441307485103607,-0.07264638692140579,0.48127740397855395,0.07845886665873608,0,5,0,0
0.6480000307783484,0.5301882537487979,-0.06362580637956915,0.20141369177695567,0.10774693638086319,-0.04449397698044777,-0.07029494643211365,0.46298021328526207,0.027853769633079284,0,5,0,0
0.6520000309683383,0.5301882537487979,-0.06362580637956915,0.20141369177695567,0.11096154898405075,-0.04440770298242569,-0.06797751784324646,0.4434167383542609,0.02257353994424971,0,5,0,0
0.6560000311583281,0.5301882537487979,-0.06362580637956915,0.20141369177695567,0.11423702538013458,-0.04396425932645798,-0.0662039965391159,0.3989062314116181,0.07682791095349098,0,5,0,0
0.6600000313483179,0.5598150329030642,-0.28150518052017176,0.20762101898019658,0.11755519360303879,-0.0438777357339859,-0.06521964073181152,0.4382998072937305,0.16182812904553215,0,5,0,0
0.6640000315383077,0.5598150329030642,-0.28150518052017176,0.20762101898019658,0.1209145113825798,-0.043860044330358505,-0.06529168784618378,0.4459717782460736,0.2811183406050664,0,5,0,0
0.6680000317282975,0.5598150329030642,-0.28150518052017176,0.20762101898019658,0.12431808561086655,-0.044005561619997025,-0.0665426105260849,0.4658935416156789,0.4189052284202388,0,5,0,0
0.6720000319182873,0.5598150329030642,-0.28150518052017176,0.20762101898019658,0.12778544425964355,-0.04471499100327492,-0.06873028725385666,0.536535258953149,0.5332057134085059,0,5,0,0
0.6760000321082771,0.4869172199348909,-0.8580514467783691,0.19428773796834564,0.1313062310218811,-0.0452280268073082,-0.07159341871738434,0.5196798876473779,0.6208187176389732,0,5,0,0
0.6800000322982669,0.4869172199348909,-0.8580514467783691,0.19428773796834564,0.13488472998142242,-0.0459589809179306,-0.07476207613945007,0.5516155386398824,0.6680444450214578,0,5,0,0
0.6840000324882567,0.4869172199348909,-0.8580514467783691,0.19428773796834564,0.13851790130138397,-0.04679180681705475,-0.07769700884819031,0.5715166736349163,0.653676619686292,0,5,0,0
0.6880000326782465,0.4869172199348909,-0.8580514467783691,0.19428773796834564,0.14219912886619568,-0.04732760041952133,-0.08009960502386093,0.5435720641191893,0.6035913863243519,0,5,0,0
0.6920000328682363,0.441096352123973,-0.8083021269526074,0.1420771375844705,0.14592526853084564,-0.048241376876831055,-0.08212179690599442,0.595348677152406,0.5690817651845697,0,5,0,0
0.6960000330582261,0.441096352123973,-0.8083021269526074,0.1420771375844705,0.1496933549642563,-0.04920543357729912,-0.08304891735315323,0.610763864289924,0.4497940338011429,0,5,0,0
0.7000000332482159,0.441096352123973,-0.8083021269526074,0.1420771375844705,0.15350471436977386,-0.05022566765546799,-0.08287333697080612,0.6274067013708701,0.3252367708627565,0,5,0,0
0.7040000334382057,0.441096352123973,-0.8083021269526074,0.1420771375844705,0.15736746788024902,-0.05121803656220436,-0.08131535351276398,0.6343184820945625,0.16367965525941597,0,5,0,0
0.7080000336281955,0.5068647604265399,-0.44402280957650403,0.1133956919302385,0.1612815260887146,-0.0520830936729908,-0.07911235839128494,0.6287714762690972,0.08249373575260313,0,5,0,0
0.7120000338181853,0.5068647604265399,-0.44402280957650403,0.1133956919302385,0.16524817049503326,-0.05278346687555313,-0.07649590820074081,0.6173749498260095,0.025697832118287245,0,5,0,0
0.7160000340081751,0.5068647604265399,-0.44402280957650403,0.1133956919302385,0.16927507519721985,-0.053199198096990585,-0.07398892194032669,0.5896377187663063,0.02816215205243089,0,5,0,0
0.7200000341981649,0.5068647604265399,-0.44402280957650403,0.1133956919302385,0.17335304617881775,-0.053176190704107285,-0.07319220900535583,0.5401771759345234,0.21755670159608914,0,5,0,0
0.7240000343881547,0.6710442767298493,-0.649163614747032,0.13585319192734652,0.17747579514980316,-0.05381128937005997,-0.07205171138048172,0.6206942377971553,0.17449185943500342,0,5,0,0
0.7280000345781446,0.6710442767298493,-0.649163614747032,0.13585319192734652,0.18164166808128357,-0.05435730889439583,-0.07195943593978882,0.6162634876321555,0.2922204504459403,0,5,0,0
0.7320000347681344,0.6710442767298493,-0.649163614747032,0.13585319192734652,0.1858789026737213,-0.05523593723773956,-0.07312249392271042,0.662600827682363,0.43827317982018044,0,5,0,0
0.7360000349581242,0.6710442767298493,-0.649163614747032,0.13585319192734652,0.19018393754959106,-0.05587300658226013,-0.07537867873907089,0.6419302302728906,0.5704555908439792,0,5,0,0
0.740000035148114,0.7304435181392792,-1.1663049303085495,0.1458464144617474,0.1945442408323288,-0.05625965818762779,-0.07825510203838348,0.6177597751960265,0.6519259223129342,0,5,0,0
0.7440000353381038,0.7304435181392792,-1.1663049303085495,0.1458464144617474,0.1989668309688568,-0.0567685104906559,-0.0814913660287857,0.6367321204917817,0.7055486333870897,0,5,0,0
0.7480000355280936,0.7304435181392792,-1.1663049303085495,0.1458464144617474,0.20344804227352142,-0.05734223127365112,-0.08490779995918274,0.6499046533330057,0.7396872651249438,0,5,0,0
0.7520000357180834,0.7304435181392792,-1.1663049303085495,0.1458464144617474,0.2079773247241974,-0.057667601853609085,-0.08740482479333878,0.6253573648689659,0.6464516176367519,0,5,0,0
0.7560000359080732,0.7047188381742839,-1.0149744878849125,0.12279218847787854,0.2125532329082489,-0.058319661766290665,-0.08993831276893616,0.6687704793764235,0.6609035247173511,0,5,0,0
0.760000036098063,0.7047188381742839,-1.0149744878849125,0.12279218847787854,0.21717393398284912,-0.05928121879696846,-0.0914699137210846,0.7133467487358598,0.5545371715448425,0,5,0,0
0.7640000362880528,0.7047188381742839,-1.0149744878849125,0.12279218847787854,0.221842423081398,-0.06029411777853966,-0.09193328022956848,0.7293964136422774,0.4364349082576181,0,5,0,0
0.7680000364780426,0.7047188381742839,-1.0149744878849125,0.12279218847787854,0.22656741738319397,-0.061481818556785583,-0.0910721868276596,0.7610861789881415,0.2842073750667676,0,5,0,0
0.7720000366680324,0.7118407147989073,-0.5117578668127192,0.11507607882036691,0.23134277760982513,-0.06285817176103592,-0.08933648467063904,0.7962239675674756,0.1790854937354526,0,5,0,0
0.7760000368580222,0.7118407147989073,-0.5117578668127192,0.11507607882036691,0.23617000877857208,-0.0641702264547348,-0.08711560070514679,0.8022649409618091,0.11582808446459367,0,5,0,0
0.780000037048012,0.7118407147989073,-0.5117578668127192,0.11507607882036691,0.2410559356212616,-0.06523192673921585,-0.08478023111820221,0.7848736307389829,0.09381044687952589,0,5,0,0
0.7840000372380018,0.7118407147989073,-0.5117578668127192,0.11507607882036691,0.24598881602287292,-0.06449823826551437,-0.0847092717885971,0.575710316079217,0.3484760536739532,0,5,0,0
0.7880000374279916,0.8359482081380244,-0.5985510431214607,0.14554384858679834,0.250967413187027,-0.0653100460767746,-0.08313313126564026,0.7578534621097375,0.17303813489744865,0,5,0,0
0.7920000376179814,0.8359482081380244,-0.5985510431214607,0.14554384858679834,0.255989670753479,-0.0659874826669693,-0.08243896812200546,0.7496694363257439,0.2696817863167172,0,5,0,0
0.7960000378079712,0.8359482081380244,-0.5985510431214607,0.14554384858679834,0.26106610894203186,-0.06692467629909515,-0.08302871137857437,0.7884246577070018,0.41667949142217653,0,5,0,0
0.800000037997961,0.8359482081380244,-0.5985510431214607,0.14554384858679834,0.2661927044391632,-0.06699205935001373,-0.08436127752065659,0.6914055834282465,0.505779793717172,0,5,0,0
0.8040000381879508,0.9079906077236315,-1.0960078553695929,0.1670366702268631,0.27137115597724915,-0.0673408955335617,-0.08684059977531433,0.7267190393375557,0.6449155567222613,0,5,0,0
0.8080000383779407,0.9079906077236315,-1.0960078553695929,0.1670366702268631,0.27661219239234924,-0.06783304363489151,-0.08999204635620117,0.747925909647984,0.7333513070766239,0,5,0,0
0.8120000385679305,0.9079906077236315,-1.0960078553695929,0.1670366702268631,0.2819072902202606,-0.06821808218955994,-0.09378272294998169,0.7398901951726307,0.8206524650323532,0,5,0,0
0.8160000387579203,0.9079906077236315,-1.0960078553695929,0.1670366702268631,0.28725042939186096,-0.0686032697558403,-0.09653853625059128,0.7439234824962155,0.7154852957808221,0,5,0,0
0.8200000389479101,0.9145599845841158,-1.207892363724505,0.1450774903408129,0.29264509677886963,-0.06919825077056885,-0.09980490803718567,0.7736411302826354,0.7862281416630059,0,5,0,0
0.8240000391378999,0.9145599845841158,-1.207892363724505,0.1450774903408129,0.29809102416038513,-0.07018100470304489,-0.102333664894104,0.8272615552012266,0.7136070942509523,0,5,0,0
0.8280000393278897,0.9145599845841158,-1.207892363724505,0.1450774903408129,0.3035862445831299,-0.0711141973733902,-0.10375218093395233,0.8311885142616031,0.5946280776685692,0,5,0,0
0.8320000395178795,0.9145599845841158,-1.207892363724505,0.1450774903408129,0.30915528535842896,-0.07316744327545166,-0.10407419502735138,0.977902557737524,0.47280944900566846,0,5,0,0
0.8360000397078693,0.8856667629894031,-0.8118187714068098,0.13089625543215094,0.3147708773612976,-0.07474777102470398,-0.10309213399887085,0.9406819402250193,0.32242018178192017,0,5,0,0
0.8400000398978591,0.8856667629894031,-0.8118187714068098,0.13089625543215094,0.3204379081726074,-0.07628326117992401,-0.101402647793293,0.9511756925237029,0.23632027468252367,0,5,0,0
0.8440000400878489,0.8856667629894031,-0.8118187714068098,0.13089625543215094,0.3261641263961792,-0.07772926241159439,-0.09898913651704788,0.9557547516579001,0.14545098693520192,0,5,0,0
0.8480000402778387,0.8856667629894031,-0.8118187714068098,0.13089625543215094,0.33193734288215637,-0.07728578895330429,-0.0988587960600853,0.7389396104530813,0.402023591198411,0,5,0,0
0.8520000404678285,0.9936830795784681,-0.6369906123765862,0.15378097094026907,0.33775800466537476,-0.07828652858734131,-0.09705330431461334,0.9116088596406868,0.20658004115174677,0,5,0,0
0.8560000406578183,0.9936830795784681,-0.6369906123765862,0.15378097094026907,0.3436266779899597,-0.07904528826475143,-0.09587084501981735,0.8921634212881198,0.2721714413834342,0,5,0,0
0.8600000408478081,0.9936830795784681,-0.6369906123765862,0.15378097094026907,0.34954896569252014,-0.08016618341207504,-0.0958787053823471,0.9443050100408925,0.40634394682611763,0,5,0,0
0.8640000410377979,0.9936830795784681,-0.6369906123765862,0.15378097094026907,0.35552847385406494,-0.07999692112207413,-0.09672873467206955,0.7976616749555951,0.5047202127683258,0,5,0,0
0.8680000412277877,1.1261094759070736,-0.9892011318668255,0.18164734481875439,0.3615550994873047,-0.08031420409679413,-0.0987156331539154,0.8557635984830494,0.640802502265597,0,5,0,0
0.8720000414177775,1.1261094759070736,-0.9892011318668255,0.18164734481875439,0.36764127016067505,-0.08073680847883224,-0.10154596716165543,0.8720320684134901,0.7472540407855477,0,5,0,0
0.8760000416077673,1.1261094759070736,-0.9892011318668255,0.18164734481875439,0.3737863600254059,-0.0810583233833313,-0.10547798871994019,0.8640691917608643,0.8871751177530949,0,5,0,0
0.8800000417977571,1.1261094759070736,-0.9892011318668255,0.18164734481875439,0.37998104095458984,-0.0818924754858017,-0.10916543006896973,0.9302789367685876,0.874671607959516,0,5,0,0
0.884000041987747,1.132071261772705,-1.1743113372352831,0.17222346810645642,0.3862292766571045,-0.08250205218791962,-0.11274000257253647,0.9113079773847791,0.8765427294813544,0,5,0,0
0.8880000421777368,1.132071261772705,-1.1743113372352831,0.17222346810645642,0.3925381898880005,-0.08344592154026031,-0.1157781183719635,0.9585548624931772,0.8286216838271725,0,5,0,0
0.8920000423677266,1.132071261772705,-1.1743113372352831,0.17222346810645642,0.39889058470726013,-0.08420820534229279,-0.11762495338916779,0.9459514267765428,0.7022722421630377,0,5,0,0
0.8960000425577164,1.132071261772705,-1.1743113372352831,0.17222346810645642,0.40531501173973083,-0.08576719462871552,-0.1187189444899559,1.0513765236543937,0.622238195472474,0,5,0,0
0.9000000427477062,1.0932809932883985,-0.7276988877737882,0.16117455262834884,0.411782830953598,-0.08684424310922623,-0.11840672791004181,1.0081370965629934,0.4630751487483196,0,5,0,0
0.904000042937696,1.0932809932883985,-0.7276988877737882,0.16117455262834884,0.41830188035964966,-0.08781083673238754,-0.11734578758478165,1.0055876079511787,0.374881600000204,0,5,0,0
0.9080000431276858,1.0932809932883985,-0.7276988877737882,0.16117455262834884,0.4248696267604828,-0.08884444087743759,-0.11541704088449478,1.023675559424327,0.2698154015569233,0,5,0,0
0.9120000433176756,1.0932809932883985,-0.7276988877737882,0.16117455262834884,0.4314843416213989,-0.08807692676782608,-0.11545795202255249,0.8135860089372782,0.49184264149614054,0,5,0,0
0.9160000435076654,1.1472102430070397,-0.3731465537661969,0.18639786925945245,0.4381452202796936,-0.08870049566030502,-0.11391320824623108,0.9765314093637392,0.3075508887088687,0,5,0,0
0.9200000436976552,1.1472102430070397,-0.3731465537661969,0.18639786925945245,0.44485464692115784,-0.08920098841190338,-0.11271399259567261,0.9679043540706667,0.34189645200372704,0,5,0,0
0.924000043887645,1.1472102430070397,-0.3731465537661969,0.18639786925945245,0.4516160786151886,-0.09018432348966599,-0.11255721002817154,1.032273906348376,0.4588131753243765,0,5,0,0
0.9280000440776348,1.1472102430070397,-0.3731465537661969,0.18639786925945245,0.4584255814552307,-0.08879365026950836,-0.1130911111831665,0.7515043580869685,0.5389221137142484,0,5,0,0
0.9320000442676246,1.174272604734917,-0.5471230401514388,0.225606114924652,0.4652777314186096,-0.08916313946247101,-0.11409476399421692,0.9534315036321366,0.5960576112011798,0,5,0,0
0.9360000444576144,1.174272604734917,-0.5471230401514388,0.225606114924652,0.47218433022499084,-0.08979019522666931,-0.11597903072834015,0.988893795640613,0.7029420894648054,0,5,0,0
0.9400000446476042,1.174272604734917,-0.5471230401514388,0.225606114924652,0.47914958000183105,-0.09032215923070908,-0.11942614614963531,0.9837323863637442,0.8928376428701779,0,5,0,0
0.944000044837594,1.174272604734917,-0.5471230401514388,0.225606114924652,0.48615723848342896,-0.09109117090702057,-0.12249676138162613,1.0183089838113337,0.8630578267544959,0,5,0,0
0.9480000450275838,1.044323975920921,-0.6851297151742427,0.22099609516388147,0.4932165741920471,-0.09175039827823639,-0.1258821040391922,1.0127707247531839,0.9123081481442862,0,5,0,0
0.9520000452175736,1.044323975920921,-0.6851297151742427,0.22099609516388147,0.5003477334976196,-0.09264714270830154,-0.1291741132736206,1.048681190058283,0.9152861933643179,0,5,0,0
0.9560000454075634,1.044323975920921,-0.6851297151742427,0.22099609516388147,0.5075197815895081,-0.09293123334646225,-0.1316046565771103,0.9828215830949577,0.8284093051416692,0,5,0,0
0.9600000455975533,1.044323975920921,-0.6851297151742427,0.22099609516388147,0.5147518515586853,-0.0936531126499176,-0.1330840140581131,1.0395163661168871,0.7276377367674431,0,5,0,0
0.9640000457875431,0.9427951338839491,-0.27501403154137005,0.1785863737229058,0.5220245718955994,-0.09389473497867584,-0.13359276950359344,0.988129029691932,0.620800657401501,0,5,0,0
0.9680000459775329,0.9427951338839491,-0.27501403154137005,0.1785863737229058,0.5293427109718323,-0.09382040798664093,-0.1333620548248291,0.9520666318604797,0.5370074826070295,0,5,0,0
0.9720000461675227,0.9427951338839491,-0.27501403154137005,0.1785863737229058,0.5367074608802795,-0.0936211496591568,-0.13205879926681519,0.9362439647850215,0.41145055832377364,0,5,0,0
0.9760000463575125,0.9427951338839491,-0.27501403154137005,0.1785863737229058,0.544119119644165,-0.0923360288143158,-0.1319948136806488,0.8014548354159095,0.5509292687578425,0,5,0,0
0.9800000465475023,0.9407515190174266,0.10726104714297274,0.1682906774057788,0.5515748262405396,-0.09188619256019592,-0.1307062804698944,0.8911465117401446,0.40832722978002595,0,5,0,0
0.9840000467374921,0.9407515190174266,0.10726104714297274,0.1682906774057788,0.5590803623199463,-0.0914231687784195,-0.12936332821846008,0.8852520927469748,0.39714375099105337,0,5,0,0
0.9880000469274819,0.9407515190174266,0.10726104714297274,0.1682906774057788,0.5666451454162598,-0.09166732430458069,-0.12861356139183044,0.9674713179615632,0.4611867133673994,0,5,0,0
0.9920000471174717,0.9407515190174266,0.10726104714297274,0.1682906774057788,0.5742570757865906,-0.09031330049037933,-0.13000786304473877,0.7743526645000471,0.7082836313564305,0,5,0,0
0.9960000473074615,0.7966415676721694,-0.07667252121542485,0.18954274263957893,0.5819078087806702,-0.0906071662902832,-0.12966686487197876,0.9628963524899118,0.5120096180406871,0,5,0,0
1.0000000474974513,0.7966415676721694,-0.07667252121542485,0.18954274263957893,0.5896032452583313,-0.09126658737659454,-0.12974771857261658,1.0108345709406423,0.5601027608857089,0,5,0,0
1.004000047687441,0.7966415676721694,-0.07667252121542485,0.18954274263957893,0.5973512530326843,-0.09229914844036102,-0.13092125952243805,1.063359945014929,0.6880384454172,0,5,0,0
1.008000047877431,0.7966415676721694,-0.07667252121542485,0.18954274263957893,0.6051720976829529,-0.09290419518947601,-0.13180574774742126,1.0215380244712384,0.6593743021269904,0,5,0,0
1.0120000480674207,0.6552435249688997,-0.3422278977013872,0.17848730535099547,0.6130342483520508,-0.09349493682384491,-0.13370391726493835,1.0260605033414658,0.7813270096072285,0,5,0,0
1.0160000482574105,0.6552435249688997,-0.3422278977013872,0.17848730535099547,0.6209495663642883,-0.09413314610719681,-0.1358969360589981,1.0380086259933188,0.823595779481034,0,5,0,0
1.0200000484474003,0.6552435249688997,-0.3422278977013872,0.17848730535099547,0.6289031505584717,-0.09419482201337814,-0.13826695084571838,0.9739914507876982,0.8533197275542435,0,5,0,0
1.0240000486373901,0.6552435249688997,-0.3422278977013872,0.17848730535099547,0.6369136571884155,-0.09403705596923828,-0.1409502476453781,0.9479522610527906,0.8996354201449765,0,5,0,0
1.02800004882738,0.842577269490673,-0.28147620133116424,0.10573121827626031,0.6449635624885559,-0.09416525810956955,-0.14264923334121704,0.9816316983112423,0.7960387271844022,0,5,0,0
1.0320000490173697,0.842577269490673,-0.28147620133116424,0.10573121827626031,0.6530531048774719,-0.09416116029024124,-0.14376123249530792,0.9669329621586272,0.7347957679650279,0,5,0,0
1.0360000492073596,0.842577269490673,-0.28147620133116424,0.10573121827626031,0.6611820459365845,-0.09410544484853745,-0.14397093653678894,0.9607946785785276,0.6344719190478231,0,5,0,0
1.0400000493973494,0.842577269490673,-0.28147620133116424,0.10573121827626031,0.6693769693374634,-0.09353448450565338,-0.1437779664993286,0.8973445092935748,0.5887442743047426,0,5,0,0
1.0440000495873392,0.9411742589951666,0.06904183578666306,0.06884547410735681,0.677610456943512,-0.09314502030611038,-0.14266309142112732,0.9140917305135493,0.48091285327041766,0,5,0,0
1.048000049777329,0.9411742589951666,0.06904183578666306,0.06884547410735681,0.685886561870575,-0.09266422688961029,-0.1412792205810547,0.8992316540839881,0.44545441828247,0,5,0,0
1.0520000499673188,0.9411742589951666,0.06904183578666306,0.06884547410735681,0.6942008137702942,-0.09234935790300369,-0.14006304740905762,0.9149711001638235,0.45979186368664415,0,5,0,0
1.0560000501573086,0.9411742589951666,0.06904183578666306,0.06884547410735681,0.7025659084320068,-0.09139657765626907,-0.14028297364711761,0.8338976361375239,0.6225694237493047,0,5,0,0
1.0600000503472984,0.8211027489970213,0.037215106721149055,0.09178012102194749,0.7109672427177429,-0.09172256290912628,-0.139936625957489,0.981238734698578,0.5578140670699365,0,5,0,0
1.0640000505372882,0.8211027489970213,0.037215106721149055,0.09178012102194749,0.7194044589996338,-0.09222359955310822,-0.14011715352535248,1.0061637183539889,0.6181459221783427,0,5,0,0
1.068000050727278,0.8211027489970213,0.037215106721149055,0.09178012102194749,0.7279012799263,-0.09304284304380417,-0.14124570786952972,1.0503777246498605,0.7296521365395942,0,5,0,0
1.0720000509172678,0.8211027489970213,0.037215106721149055,0.09178012102194749,0.7364584803581238,-0.09332124888896942,-0.14219804108142853,0.9925415218772267,0.7139778682623008,0,5,0,0
1.0760000511072576,0.6616112660033939,-0.2598068153127307,0.09213745402944433,0.7450542449951172,-0.09360024333000183,-0.1440953016281128,0.9956223239141226,0.8282170593035515,0,5,0,0
1.0800000512972474,0.6616112660033939,-0.2598068153127307,0.09213745402944433,0.7536962032318115,-0.09382393211126328,-0.14623410999774933,0.9918625027457896,0.8642973834541907,0,5,0,0
1.0840000514872372,0.6616112660033939,-0.2598068153127307,0.09213745402944433,0.7623733282089233,-0.09356820583343506,-0.1485704630613327,0.9355956120863238,0.896223141850254,0,5,0,0
1.088000051677227,0.6616112660033939,-0.2598068153127307,0.09213745402944433,0.7711052894592285,-0.0929761603474617,-0.15096910297870636,0.8920623909028036,0.9131872981026865,0,5,0,0
1.0920000518672168,0.7218106597031844,-0.26613780090952066,0.03961084312131463,0.7798725962638855,-0.09283418208360672,-0.15269052982330322,0.9414979703952369,0.8442529957013292,0,5,0,0
1.0960000520572066,0.7218106597031844,-0.26613780090952066,0.03961084312131463,0.788675844669342,-0.09274958819150925,-0.15377169847488403,0.947330372012583,0.7769176791084113,0,5,0,0
1.1000000522471964,0.7218106597031844,-0.26613780090952066,0.03961084312131463,0.7975136041641235,-0.09272235631942749,-0.15398168563842773,0.9537338139027581,0.6801192710766225,0,5,0,0
1.1040000524371862,0.7218106597031844,-0.26613780090952066,0.03961084312131463,0.806388258934021,-0.09262136369943619,-0.1533474326133728,0.9446480952405959,0.5829732761259756,0,5,0,0
1.108000052627176,0.6923876867816569,0.02955070071909559,0.016977279145559195,0.815298318862915,-0.0926010012626648,-0.15206626057624817,0.9537376084678638,0.505435161619141,0,5,0,0
1.1120000528171659,0.6923876867816569,0.02955070071909559,0.016977279145559195,0.8242468237876892,-0.09257373213768005,-0.1504669189453125,0.9529100917986035,0.46360483811440545,0,5,0,0
1.1160000530071557,0.6923876867816569,0.02955070071909559,0.016977279145559195,0.8332337141036987,-0.09258744865655899,-0.1489025056362152,0.9578803515903815,0.4616339869286966,0,5,0,0
1.1200000531971455,0.6923876867816569,0.02955070071909559,0.016977279145559195,0.8422739505767822,-0.09221675246953964,-0.14768865704536438,0.9111482825771652,0.49657157428853493,0,5,0,0
1.1240000533871353,0.6123055692327947,-0.02522241665351406,0.05727307941537376,0.8513472676277161,-0.09234362095594406,-0.1470097005367279,0.9686146152434856,0.5543839279429743,0,5,0,0
1.128000053577125,0.6123055692327947,-0.02522241665351406,0.05727307941537376,0.8604524731636047,-0.09252095222473145,-0.14707809686660767,0.9762870409756832,0.6390876910513634,0,5,0,0
1.1320000537671149,0.6123055692327947,-0.02522241665351406,0.05727307941537376,0.8695910573005676,-0.09271343797445297,-0.148077592253685,0.9801392897587196,0.7481896977973949,0,5,0,0
1.1360000539571047,0.6123055692327947,-0.02522241665351406,0.05727307941537376,0.8787749409675598,-0.09301234036684036,-0.14940336346626282,0.995323415041353,0.7905573793624183,0,5,0,0
1.1400000541470945,0.5385582323223342,-0.42578727397021343,0.06936381675096792,0.8879964351654053,-0.09315775334835052,-0.15157243609428406,0.9797335655715869,0.8944688484696428,0,5,0,0
1.1440000543370843,0.5385582323223342,-0.42578727397021343,0.06936381675096792,0.8972594141960144,-0.0933256447315216,-0.15402844548225403,0.9841652810280328,0.9369429382692345,0,5,0,0
1.148000054527074,0.5385582323223342,-0.42578727397021343,0.06936381675096792,0.9065553545951843,-0.09330485016107559,-0.1563846319913864,0.9629540982009085,0.9355129341045418,0,5,0,0
1.152000054717064,0.5385582323223342,-0.42578727397021343,0.06936381675096792,0.9158993363380432,-0.09298042953014374,-0.15875115990638733,0.9257751147508192,0.9465234566713683,0,5,0,0
1.1560000549070537,0.5899320385931556,-0.4271493749648763,0.015992230685201485,0.9252758026123047,-0.09311319887638092,-0.16047604382038116,0.9787601498896477,0.8816231881661103,0,5,0,0
1.1600000550970435,0.5899320385931556,-0.4271493749648763,0.015992230685201485,0.9346820116043091,-0.09333312511444092,-0.16136206686496735,0.9909885616455086,0.7911827059973862,0,5,0,0
1.1640000552870333,0.5899320385931556,-0.4271493749648763,0.015992230685201485,0.9441186785697937,-0.09376121312379837,-0.16131868958473206,1.0189126668199273,0.6868388301736384,0,5,0,0
1.1680000554770231,0.5899320385931556,-0.4271493749648763,0.015992230685201485,0.9535887241363525,-0.09416468441486359,-0.16031543910503387,1.0204039943075713,0.5752248555164444,0,5,0,0
1.172000055667013,0.6234482131135319,-0.10892986844349165,-0.012871954886790455,0.9630925059318542,-0.09457903355360031,-0.15862345695495605,1.0259982331911681,0.49135531399341004,0,5,0,0
1.1760000558570027,0.6234482131135319,-0.10892986844349165,-0.012871954886790455,0.9726321697235107,-0.09494465589523315,-0.15657296776771545,1.0244005593786514,0.4431970926197948,0,5,0,0
1.1800000560469925,0.6234482131135319,-0.10892986844349165,-0.012871954886790455,0.982208251953125,-0.09521723538637161,-0.15463583171367645,1.0168875554823702,0.4485719012968608,0,5,0,0
1.1840000562369823,0.6234482131135319,-0.10892986844349165,-0.012871954886790455,0.9918357133865356,-0.09461544454097748,-0.15428881347179413,0.9127300659183616,0.6264423668701422,0,5,0,0
1.1880000564269722,0.6673719861633398,-0.19102233437538663,0.01724806651349728,1.0014928579330444,-0.0951639786362648,-0.1535634994506836,1.0478553501107553,0.5813513900601228,0,5,0,0
1.192000056616962,0.6673719861633398,-0.19102233437538663,0.01724806651349728,1.011177897453308,-0.09565940499305725,-0.15360470116138458,1.0470645759646735,0.6681178639361721,0,5,0,0
1.1960000568069518,0.6673719861633398,-0.19102233437538663,0.01724806651349728,1.0209170579910278,-0.09634187072515488,-0.15474329888820648,1.0751623825087668,0.7965006847281386,0,5,0,0
1.2000000569969416,0.6673719861633398,-0.19102233437538663,0.01724806651349728,1.030688762664795,-0.096428781747818,-0.15612933039665222,1.0092630201935275,0.8302558202832001,0,5,0,0
1.2040000571869314,0.6707662070543997,-0.5676962784026169,0.036519667118086616,1.0404947996139526,-0.09639014303684235,-0.1583130955696106,0.9949836250745567,0.9291158654174584,0,5,0,0
1.2080000573769212,0.6707662070543997,-0.5676962784026169,0.036519667118086616,1.0503426790237427,-0.09632290154695511,-0.16076357662677765,0.9913245726756611,0.9693091577966468,0,5,0,0
1.212000057566911,0.6707662070543997,-0.5676962784026169,0.036519667118086616,1.0602197647094727,-0.09595441073179245,-0.16337552666664124,0.9539794076369589,0.9983143189292814,0,5,0,0
1.2160000577569008,0.6707662070543997,-0.5676962784026169,0.036519667118086616,1.0701451301574707,-0.09536562860012054,-0.16560006141662598,0.9235376919095795,0.9640256800542668,0,5,0,0
1.2200000579468906,0.6930259870625353,-0.5100233662476227,0.008035191270355749,1.0800985097885132,-0.09518710523843765,-0.16752010583877563,0.968135016787735,0.9378527457615607,0,5,0,0
1.2240000581368804,0.6930259870625353,-0.5100233662476227,0.008035191270355749,1.0900791883468628,-0.09530575573444366,-0.16867631673812866,1.0029823129744861,0.8569511453052676,0,5,0,0
1.2280000583268702,0.6930259870625353,-0.5100233662476227,0.008035191270355749,1.100085735321045,-0.09563244879245758,-0.16887235641479492,1.0298835485568503,0.7501213402649567,0,5,0,0
1.23200005851686,0.6930259870625353,-0.5100233662476227,0.008035191270355749,1.1101216077804565,-0.09617099165916443,-0.1680695116519928,1.0593328899608068,0.6349388339581807,0,5,0,0
1.2360000587068498,0.6433442776744356,-0.1344801264897911,-0.007348033641283113,1.1201859712600708,-0.09694947302341461,-0.16653472185134888,1.0943434620411394,0.5468555452609514,0,5,0,0
1.2400000588968396,0.6433442776744356,-0.1344801264897911,-0.007348033641283113,1.1302818059921265,-0.09775852411985397,-0.16462266445159912,1.106107688182499,0.4971598071919112,0,5,0,0
1.2440000590868294,0.6433442776744356,-0.1344801264897911,-0.007348033641283113,1.1404104232788086,-0.09851422905921936,-0.16267594695091248,1.1078997293513557,0.4858640983101957,0,5,0,0
1.2480000592768192,0.6433442776744356,-0.1344801264897911,-0.007348033641283113,1.1505870819091797,-0.09780161827802658,-0.16190330684185028,0.9358228347175412,0.6152458061129349,0,5,0,0
1.252000059466809,0.6585419209232383,-0.17960726339322106,0.02437880501391815,1.160788893699646,-0.09804867208003998,-0.16053654253482819,1.0464909500446067,0.5433250675094223,0,5,0,0
1.2560000596567988,0.6585419209232383,-0.17960726339322106,0.02437880501391815,1.1710139513015747,-0.09823397547006607,-0.16000071167945862,1.0416328244785833,0.6350457546850609,0,5,0,0
1.2600000598467886,0.6585419209232383,-0.17960726339322106,0.02437880501391815,1.1812856197357178,-0.098603256046772,-0.16086924076080322,1.0662597105898017,0.7968964425828023,0,5,0,0
1.2640000600367785,0.6585419209232383,-0.17960726339322106,0.02437880501391815,1.1915843486785889,-0.09845829010009766,-0.16203869879245758,1.007193619898098,0.8358176729068376,0,5,0,0
1.2680000602267683,0.6393797399892754,-0.5843931388453143,0.054604122915088454,1.2019134759902954,-0.09847259521484375,-0.16423043608665466,1.0254909988440404,0.9599851867225002,0,5,0,0
1.272000060416758,0.6393797399892754,-0.5843931388453143,0.054604122915088454,1.212287425994873,-0.09866903722286224,-0.1669192612171173,1.048182624144711,1.0270634724140053,0,5,0,0
1.2760000606067479,0.6393797399892754,-0.5843931388453143,0.054604122915088454,1.2226861715316772,-0.09858344495296478,-0.16989758610725403,1.0158344469663563,1.0719532476169786,0,5,0,0
