time,roll,pitch,yaw,altitude,linear_velocity_x,linear_velocity_y,desired_roll,desired_pitch,desired_yaw,desired_altitude,desired_linear_velocity_x,desired_linear_velocity_y
0.004000000189989805,0.0,0.0,0.0,0.06905829161405563,3.220294456696138e-05,1.8638242181623355e-05,-0.003944937824448157,-0.002171399846349724,0,5,0,0
0.00800000037997961,0.0,0.0,0.0,0.06795962899923325,3.216322511434555e-05,1.8624474250827916e-05,-0.00031731829175098684,-7.303843538607886e-05,0,5,0,0
0.012000000569969416,0.0,0.0,0.0,0.06670400500297546,3.21235456794966e-05,1.8610711777000688e-05,-0.00031700309591435,-7.302866511005078e-05,0,5,0,0
0.01600000075995922,0.0,0.0,0.0,0.06570035219192505,0.002569232601672411,-0.0016443805070593953,-0.3111234789928433,0.19366783767837037,0,5,0,0
0.020000000949949026,0.0,0.0,0.0,0.06466511636972427,0.005023260600864887,-0.0037369707133620977,-0.32632919636467406,0.2503770510281324,0,5,0,0
0.02400000113993883,0.0,0.0,0.0,0.06359975785017014,0.007052346132695675,-0.005949464160948992,-0.2988309520069787,0.2727304175369175,0,5,0,0
0.028000001329928637,0.0,0.0,0.0,0.06254293769598007,0.008085014298558235,-0.008534523658454418,-0.19708008935373625,0.3250048170097344,0,5,0,0
0.03200000151991844,0.0,0.0,0.0,0.06145884096622467,0.008380375802516937,-0.009933696128427982,-0.11710682177179146,0.1972130635008782,0,5,0,0
0.03600000170990825,-0.13209016188490175,0.03848878088021679,0.03773443743862552,0.06034613028168678,0.007748372852802277,-0.010431717149913311,-0.006476892287459207,0.0978506505695114,0,5,0,0
0.04000000189989805,-0.13209016188490175,0.03848878088021679,0.03773443743862552,0.05921043083071709,0.0061773816123604774,-0.009871425107121468,0.11485437208973881,-0.023427040256398746,0,5,0,0
0.04400000208988786,-0.13209016188490175,0.03848878088021679,0.03773443743862552,0.05806078761816025,0.004296075087040663,-0.008480627089738846,0.16856759465285684,-0.12240179652363173,0,5,0,0
0.04800000227987766,-0.13209016188490175,0.03848878088021679,0.03773443743862552,0.05691932514309883,0.0021090153604745865,-0.006132296286523342,0.22483036378783552,-0.23950283551436521,0,5,0,0
0.05200000246986747,-0.21826755947471194,0.13068884588008448,0.10971434003369353,0.05576760694384575,-2.736403257586062e-05,-0.003620804287493229,0.24049268614232155,-0.2678957472370807,0,5,0,0
0.05600000265985727,-0.21826755947471194,0.13068884588008448,0.10971434003369353,0.05459859222173691,-0.0017715038266032934,-0.0012234982568770647,0.21381138289781032,-0.2646361141271686,0,5,0,0
0.06000000284984708,-0.21826755947471194,0.13068884588008448,0.10971434003369353,0.053416088223457336,-0.0027490791399031878,0.0008325462695211172,0.13735523383531928,-0.23447037294289833,0,5,0,0
0.06400000303983688,-0.21826755947471194,0.13068884588008448,0.10971434003369353,0.052228230983018875,-0.002840947825461626,0.0022791458759456873,0.03863874807783544,-0.17169969107847372,0,5,0,0
0.06800000322982669,0.10320867730424065,-0.2442752276400779,0.17749502791497246,0.05101671442389488,-0.002208855701610446,0.0026734627317637205,-0.04912245909686495,-0.054901570992205426,0,5,0,0
0.0720000034198165,0.10320867730424065,-0.2442752276400779,0.17749502791497246,0.04978453740477562,-0.0008238744921982288,0.0020322573836892843,-0.14767031199469363,0.064154615386768,0,5,0,0
0.0760000036098063,0.10320867730424065,-0.2442752276400779,0.17749502791497246,0.048535991460084915,0.0010389412054792047,0.00046808409388177097,-0.22005733980702546,0.1742440736572455,0,5,0,0
0.0800000037997961,0.10320867730424065,-0.2442752276400779,0.17749502791497246,0.04734324663877487,0.0023491664323955774,-0.0018345589051023126,-0.17099880506802215,0.2665368869311418,0,5,0,0
0.08400000398978591,0.3786669084136106,-0.700908619057957,0.2174502898288646,0.04614448547363281,0.004127900581806898,-0.0045148348435759544,-0.24150330480122376,0.31975252996388326,0,5,0,0
0.08800000417977571,0.3786669084136106,-0.700908619057957,0.2174502898288646,0.04493743181228638,0.005414416082203388,-0.007132786326110363,-0.19900685902038687,0.32322995362188134,0,5,0,0
0.09200000436976552,0.3786669084136106,-0.700908619057957,0.2174502898288646,0.04371850937604904,0.005938788875937462,-0.00914406031370163,-0.11852378962466636,0.26304578037869697,0,5,0,0
0.09600000455975533,0.3786669084136106,-0.700908619057957,0.2174502898288646,0.042554158717393875,0.004903323948383331,-0.010877580381929874,0.06730082698282765,0.23875865240159438,0,5,0,0
0.10000000474974513,0.41499211096906286,-0.6159472906120053,0.2837310598636395,0.04137181118130684,0.0037434084806591272,-0.011385378427803516,0.09289168258342578,0.102923448529321,0,5,0,0
0.10400000493973494,0.41499211096906286,-0.6159472906120053,0.2837310598636395,0.0401756651699543,0.00186623795889318,-0.010920410975813866,0.19235009857684146,-0.008346325602734753,0,5,0,0
0.10800000512972474,0.41499211096906286,-0.6159472906120053,0.2837310598636395,0.03897359222173691,-0.0006661678198724985,-0.00946801993995905,0.29138971807858627,-0.12521831440578857,0,5,0,0
0.11200000531971455,0.41499211096906286,-0.6159472906120053,0.2837310598636395,0.037793438881635666,-0.003072344930842519,-0.00795703660696745,0.30125813836395743,-0.13783478396379356,0,5,0,0
0.11600000550970435,0.6023716794944141,-0.36747234115487626,0.35567787746079765,0.03660915419459343,-0.005501555744558573,-0.005871504079550505,0.32815474167138103,-0.21079960376576998,0,5,0,0
0.12000000569969416,0.6023716794944141,-0.36747234115487626,0.35567787746079765,0.03542253375053406,-0.007410546764731407,-0.003926560282707214,0.28873771319235253,-0.20275372376971162,0,5,0,0
0.12400000588968396,0.6023716794944141,-0.36747234115487626,0.35567787746079765,0.03422136232256889,-0.008703705854713917,-0.0026003727689385414,0.23240910413148475,-0.13844215439025132,0,5,0,0
0.12800000607967377,0.6023716794944141,-0.36747234115487626,0.35567787746079765,0.03303218632936478,-0.008651254698634148,-0.0023376219905912876,0.08052421009116217,-0.019850920158121642,0,5,0,0
0.13200000626966357,0.9810084514409659,-0.6227965435707126,0.38985431351420496,0.031830351799726486,-0.008102966472506523,-0.0028307202737778425,0.019279107219446957,0.0671612820873063,0,5,0,0
0.13600000645965338,0.9810084514409659,-0.6227965435707126,0.38985431351420496,0.03062053956091404,-0.0068977042101323605,-0.004341146908700466,-0.06666653648062315,0.18766284151432386,0,5,0,0
0.14000000664964318,0.9810084514409659,-0.6227965435707126,0.38985431351420496,0.0294183399528265,-0.005349117796868086,-0.00695831561461091,-0.12076352787054133,0.32265669336852837,0,5,0,0
0.144000006839633,0.9810084514409659,-0.6227965435707126,0.38985431351420496,0.02824806235730648,-0.00400602538138628,-0.010292589664459229,-0.11106676391150923,0.4166928391454746,0,5,0,0
0.1480000070296228,1.0896098598149337,-0.9727045598441312,0.3993562021100252,0.02708260715007782,-0.002551529323682189,-0.013622766360640526,-0.13813850997260832,0.42958528830537246,0,5,0,0
0.1520000072196126,1.0896098598149337,-0.9727045598441312,0.3993562021100252,0.0259240735322237,-0.0016905993688851595,-0.01672350987792015,-0.07996756867655463,0.4162171673996339,0,5,0,0
0.1560000074096024,1.0896098598149337,-0.9727045598441312,0.3993562021100252,0.02476402372121811,-0.0015334815252572298,-0.01911924220621586,-0.002356208011268771,0.3465322279028017,0,5,0,0
0.1600000075995922,1.0896098598149337,-0.9727045598441312,0.3993562021100252,0.02365642599761486,-0.002997159957885742,-0.021051602438092232,0.1946273419174417,0.30218283430739484,0,5,0,0
0.16400000778958201,0.801043197146049,-0.7786381745992831,0.4492251069258584,0.022541293874382973,-0.0044157737866044044,-0.021569158881902695,0.20375431036316247,0.14513940746894882,0,5,0,0
0.16800000797957182,0.801043197146049,-0.7786381745992831,0.4492251069258584,0.021422801539301872,-0.006479358766227961,-0.021065643057227135,0.2969649616515967,0.028305276967369605,0,5,0,0
0.17200000816956162,0.801043197146049,-0.7786381745992831,0.4492251069258584,0.020310046151280403,-0.00908740796148777,-0.019505925476551056,0.3843194847340923,-0.09670947103825078,0,5,0,0
0.17600000835955143,0.801043197146049,-0.7786381745992831,0.4492251069258584,0.019244972616434097,-0.010811221785843372,-0.018636347725987434,0.30210709540932246,-0.022502327603923677,0,5,0,0
0.18000000854954123,0.6924521245352635,-0.4490604828807383,0.5153433886342677,0.018186034634709358,-0.012829295359551907,-0.01618069037795067,0.355422841686572,-0.21072006957789025,0,5,0,0
0.18400000873953104,0.6924521245352635,-0.4490604828807383,0.5153433886342677,0.01713518612086773,-0.014424219727516174,-0.013853507116436958,0.3238024201100571,-0.20554222015793916,0,5,0,0
0.18800000892952085,0.6924521245352635,-0.4490604828807383,0.5153433886342677,0.016087237745523453,-0.015766875818371773,-0.012381293810904026,0.3088866416956354,-0.11521724279417615,0,5,0,0
0.19200000911951065,0.6924521245352635,-0.4490604828807383,0.5153433886342677,0.015088437125086784,-0.01455336157232523,-0.011483064852654934,0.009217278061913275,-0.054209363267849274,0,5,0,0
0.19600000930950046,0.8642612520402071,-0.6413962138031545,0.5809843163104758,0.014086725190281868,-0.01443147286772728,-0.011427716352045536,0.13084089413236746,0.04042071623082578,0,5,0,0
0.20000000949949026,0.8642612520402071,-0.6413962138031545,0.5809843163104758,0.013089118525385857,-0.014026220887899399,-0.012600860558450222,0.09494367031659245,0.1833489580979003,0,5,0,0
0.20400000968948007,0.8642612520402071,-0.6413962138031545,0.5809843163104758,0.012123840861022472,-0.013340377248823643,-0.015600965358316898,0.05655069066669799,0.4009198766181829,0,5,0,0
0.20800000987946987,0.8642612520402071,-0.6413962138031545,0.5809843163104758,0.0112150302156806,-0.013152945786714554,-0.01881863921880722,0.11077931036249761,0.4383122549540025,0,5,0,0
0.21200001006945968,0.7874906195197388,-0.9241212210436687,0.6273188440569674,0.01032283902168274,-0.012646808288991451,-0.022534092888236046,0.06989386042301918,0.5092283773029319,0,5,0,0
0.21600001025944948,0.7874906195197388,-0.9241212210436687,0.6273188440569674,0.009469625540077686,-0.012674108147621155,-0.026279371231794357,0.13020897660960318,0.5276278368513173,0,5,0,0
0.2200000104494393,0.7874906195197388,-0.9241212210436687,0.6273188440569674,0.008618511259555817,-0.012646165676414967,-0.02918974868953228,0.12374514088525382,0.44541305688891963,0,5,0,0
0.2240000106394291,0.7874906195197388,-0.9241212210436687,0.6273188440569674,0.007818997837603092,-0.013929382897913456,-0.03142581135034561,0.2841162020439245,0.3785723184321558,0,5,0,0
0.2280000108294189,0.471643910342818,-0.5446824717373832,0.6845218748142086,0.00702190026640892,-0.014864847995340824,-0.03224174678325653,0.25438441655528093,0.22214913480913057,0,5,0,0
0.2320000110194087,0.471643910342818,-0.5446824717373832,0.6845218748142086,0.00623016431927681,-0.015980828553438187,-0.0319024883210659,0.28589056448740124,0.0909093599097871,0,5,0,0
0.2360000112093985,0.471643910342818,-0.5446824717373832,0.6845218748142086,0.005450885742902756,-0.017367945984005928,-0.030053209513425827,0.33030631856952786,-0.08629290840884009,0,5,0,0
0.2400000113993883,0.471643910342818,-0.5446824717373832,0.6845218748142086,0.00472462410107255,-0.018400447443127632,-0.028816185891628265,0.30078119934390407,-0.022293138910885676,0,5,0,0
0.24400001158937812,0.285362479110044,-0.03576678116494024,0.7633536080586015,0.0040137628093361855,-0.019040843471884727,-0.025793982669711113,0.26311899883716044,-0.23515274171161937,0,5,0,0
0.24800001177936792,0.285362479110044,-0.03576678116494024,0.7633536080586015,0.003329876810312271,-0.019305270165205002,-0.022614939138293266,0.22351305019329626,-0.2654591739615387,0,5,0,0
0.25200001196935773,0.285362479110044,-0.03576678116494024,0.7633536080586015,0.00265409704297781,-0.019703170284628868,-0.01993432268500328,0.24255509872190786,-0.22006075377192452,0,5,0,0
0.25600001215934753,0.285362479110044,-0.03576678116494024,0.7633536080586015,0.0020251648966223,-0.018750140443444252,-0.019357996061444283,0.08109018729945339,0.014412993527134918,0,5,0,0
0.26000001234933734,0.2189621835785415,-0.18354458788661024,0.83576900357208,0.0014026063727214932,-0.018361033871769905,-0.0178352203220129,0.14068455287269735,-0.09811082537811193,0,5,0,0
0.26400001253932714,0.2189621835785415,-0.18354458788661024,0.83576900357208,0.000787561759352684,-0.01791810244321823,-0.01741372048854828,0.13024294592399874,0.024138501755820434,0,5,0,0
0.26800001272931695,0.2189621835785415,-0.18354458788661024,0.83576900357208,0.0002100602723658085,-0.01773894764482975,-0.018596654757857323,0.15816884090036218,0.20941369879539856,0,5,0,0
0.27200001291930676,0.2189621835785415,-0.18354458788661024,0.83576900357208,-0.00034952405258081853,-0.017214911058545113,-0.02037256769835949,0.11417059153056419,0.28327634206287233,0,5,0,0
0.27600001310929656,0.07859243850002072,-0.5013459482892174,0.8774790531078103,-0.000889622897375375,-0.01698106713593006,-0.023324910551309586,0.14451957997967033,0.42749005212683705,0,5,0,0
0.28000001329928637,0.07859243850002072,-0.5013459482892174,0.8774790531078103,-0.001394139719195664,-0.01715829223394394,-0.026601389050483704,0.19257827348734893,0.47712506792848275,0,5,0,0
0.28400001348927617,0.07859243850002072,-0.5013459482892174,0.8774790531078103,-0.00188481027726084,-0.017361298203468323,-0.02990528754889965,0.19755034820743292,0.4934971843838609,0,5,0,0
0.288000013679266,0.07859243850002072,-0.5013459482892174,0.8774790531078103,-0.00232651736587286,-0.017955226823687553,-0.03176295384764671,0.2475115230703384,0.3383029659368431,0,5,0,0
0.2920000138692558,-0.02760154560100442,-0.28854346009415177,0.8760270204648454,-0.0027553318068385124,-0.018450481817126274,-0.03354214131832123,0.24140757167764149,0.3366713492237158,0,5,0,0
0.2960000140592456,-0.02760154560100442,-0.28854346009415177,0.8760270204648454,-0.0031736199744045734,-0.019155330955982208,-0.03419378399848938,0.27208137610215677,0.21251120212291075,0,5,0,0
0.3000000142492354,-0.02760154560100442,-0.28854346009415177,0.8760270204648454,-0.0035640066489577293,-0.01969274878501892,-0.033429212868213654,0.25866679553185334,0.05020910160905209,0,5,0,0
0.3040000144392252,-0.02760154560100442,-0.28854346009415177,0.8760270204648454,-0.003909635357558727,-0.020174628123641014,-0.031350236386060715,0.257285928152994,-0.10590215881136938,0,5,0,0
0.308000014629215,-0.045380331559134936,0.1463839932144193,0.8987934901208616,-0.004232532344758511,-0.020795203745365143,-0.028480805456638336,0.2791449239694552,-0.20623764968676422,0,5,0,0
0.3120000148192048,-0.045380331559134936,0.1463839932144193,0.8987934901208616,-0.004524286836385727,-0.02114759385585785,-0.02522004023194313,0.2525487107215514,-0.26324528861322616,0,5,0,0
0.3160000150091946,-0.045380331559134936,0.1463839932144193,0.8987934901208616,-0.004785765428096056,-0.021235689520835876,-0.02197093330323696,0.2237475093204486,-0.2748774278491476,0,5,0,0
0.3200000151991844,-0.045380331559134936,0.1463839932144193,0.8987934901208616,-0.005000420846045017,-0.020420916378498077,-0.021047554910182953,0.11407605210012249,-0.016875979453756226,0,5,0,0
0.3240000153891742,0.04985938370069103,-0.1543673195498519,0.9297889177621517,-0.005198861472308636,-0.020207107067108154,-0.0186502393335104,0.17959488381589583,-0.1922384064650775,0,5,0,0
0.32800001557916403,0.04985938370069103,-0.1543673195498519,0.9297889177621517,-0.00538297463208437,-0.019881486892700195,-0.017328474670648575,0.16380767615055328,-0.07648440471879935,0,5,0,0
0.33200001576915383,0.04985938370069103,-0.1543673195498519,0.9297889177621517,-0.005516694393008947,-0.020024040713906288,-0.017391623929142952,0.21795084406752058,0.07961274096692694,0,5,0,0
0.33600001595914364,0.04985938370069103,-0.1543673195498519,0.9297889177621517,-0.005621866788715124,-0.019864294677972794,-0.018620627000927925,0.1823923257048017,0.21573199052648703,0,5,0,0
0.34000001614913344,0.03619001143098573,-0.790990181554303,0.9310613648296621,-0.0057007921859622,-0.019770897924900055,-0.020961837843060493,0.18897010229864794,0.35027051052929353,0,5,0,0
0.34400001633912325,0.03619001143098573,-0.790990181554303,0.9310613648296621,-0.005743331741541624,-0.020012864843010902,-0.023893410339951515,0.22916621357381106,0.42846982771014763,0,5,0,0
0.34800001652911305,0.03619001143098573,-0.790990181554303,0.9310613648296621,-0.005754094570875168,-0.02049238234758377,-0.02728085033595562,0.2607350100471445,0.49337015295239084,0,5,0,0
0.35200001671910286,0.03619001143098573,-0.790990181554303,0.9310613648296621,-0.0057166991755366325,-0.021473674103617668,-0.029439834877848625,0.3270490650359337,0.36387551470373325,0,5,0,0
0.35600001690909266,-0.025272287650668326,-0.8267842712624915,0.8949978233800455,-0.005655460059642792,-0.02217179909348488,-0.03191345930099487,0.30222726757429647,0.4092435896620018,0,5,0,0
0.36000001709908247,-0.025272287650668326,-0.8267842712624915,0.8949978233800455,-0.005571784917265177,-0.023177601397037506,-0.033396173268556595,0.34695461300136476,0.3037771753935344,0,5,0,0
0.3640000172890723,-0.025272287650668326,-0.8267842712624915,0.8949978233800455,-0.005457533989101648,-0.024071907624602318,-0.033562399446964264,0.34341213990520186,0.15641776062443652,0,5,0,0
0.3680000174790621,-0.025272287650668326,-0.8267842712624915,0.8949978233800455,-0.005317226052284241,-0.025584159418940544,-0.03252305090427399,0.4281149327941459,0.016711272097978125,0,5,0,0
0.3720000176690519,0.027101809026662357,-0.4360725636458024,0.878633008453976,-0.005150086246430874,-0.0267331562936306,-0.030306098982691765,0.3988028845998186,-0.1245641747802013,0,5,0,0
0.3760000178590417,0.027101809026662357,-0.4360725636458024,0.878633008453976,-0.004948784131556749,-0.027682244777679443,-0.027400357648730278,0.3858705139519958,-0.21361018446671337,0,5,0,0
0.3800000180490315,0.027101809026662357,-0.4360725636458024,0.878633008453976,-0.004711486399173737,-0.028411883860826492,-0.023996734991669655,0.3685470368791389,-0.2831787291164828,0,5,0,0
0.3840000182390213,0.027101809026662357,-0.4360725636458024,0.878633008453976,-0.0044272709637880325,-0.02816193178296089,-0.023113012313842773,0.2559111043604584,-0.003169414396798742,0,5,0,0
0.3880000184290111,0.23548230050085017,-0.45822186417401994,0.8833768933456616,-0.004116480238735676,-0.028410809114575386,-0.020322274416685104,0.31458636952275115,-0.22882279450916104,0,5,0,0
0.3920000186190009,0.23548230050085017,-0.45822186417401994,0.8833768933456616,-0.003780815750360489,-0.02841951884329319,-0.018391164019703865,0.2877228196158418,-0.13979500812488166,0,5,0,0
0.3960000188089907,0.23548230050085017,-0.45822186417401994,0.8833768933456616,-0.0033880723640322685,-0.02896137908101082,-0.017766032367944717,0.35319035871972415,0.0046697056068262105,0,5,0,0
0.4000000189989805,0.23548230050085017,-0.45822186417401994,0.8833768933456616,-0.0029537412337958813,-0.028391560539603233,-0.01860092021524906,0.22249645634280768,0.17230608504976322,0,5,0,0
0.4040000191889703,0.39260218800671914,-0.961100766669057,0.8641980222136111,-0.0024898266419768333,-0.028361104428768158,-0.0205095112323761,0.28293823244566313,0.3007812728153268,0,5,0,0
0.40800001937896013,0.39260218800671914,-0.961100766669057,0.8641980222136111,-0.0019842975307255983,-0.02864614687860012,-0.02326195314526558,0.32135099408894374,0.40678009042127394,0,5,0,0
0.41200001956894994,0.39260218800671914,-0.961100766669057,0.8641980222136111,-0.0014287442900240421,-0.029263721778988838,-0.027078010141849518,0.3650068749391965,0.5417659968672756,0,5,0,0
0.41600001975893974,0.39260218800671914,-0.961100766669057,0.8641980222136111,-0.0008251156541518867,-0.030454769730567932,-0.02972073294222355,0.44150616110039775,0.42040812702727426,0,5,0,0
0.42000001994892955,0.3715555770889184,-1.1457193795344434,0.8060869193601898,-0.00018636899767443538,-0.03120841644704342,-0.03299114108085632,0.39990989185626463,0.5041835355242554,0,5,0,0
0.42400002013891935,0.3715555770889184,-1.1457193795344434,0.8060869193601898,0.0004939457285217941,-0.03241495415568352,-0.035518769174814224,0.4630032990348469,0.4308165418932499,0,5,0,0
0.42800002032890916,0.3715555770889184,-1.1457193795344434,0.8060869193601898,0.0012102210894227028,-0.03337068855762482,-0.03688392788171768,0.44442536204714556,0.30558789831997174,0,5,0,0
0.43200002051889896,0.3715555770889184,-1.1457193795344434,0.8060869193601898,0.001983525464311242,-0.03543424606323242,-0.03719232603907585,0.5897760725406602,0.1880251963590539,0,5,0,0
0.43600002070888877,0.4157647546811423,-0.7421694549752493,0.7644693820687267,0.0027865597512573004,-0.0368562787771225,-0.03603638708591461,0.5319133191125694,0.018750010770720693,0,5,0,0
0.4400000208988786,0.4157647546811423,-0.7421694549752493,0.7644693820687267,0.00362543691881001,-0.038139864802360535,-0.03402278944849968,0.5292654633112536,-0.08570932247605717,0,5,0,0
0.4440000210888684,0.4157647546811423,-0.7421694549752493,0.7644693820687267,0.004506610333919525,-0.03928137943148613,-0.031024079769849777,0.5247918536141265,-0.208454802770697,0,5,0,0
0.4480000212788582,0.4157647546811423,-0.7421694549752493,0.7644693820687267,0.005434844642877579,-0.039367612451314926,-0.030480654910206795,0.40702949067975364,0.06566418038454505,0,5,0,0
0.452000021468848,0.6335687629205399,-0.5236486014299548,0.7487870967584953,0.0063975052908062935,-0.03992258012294769,-0.02772628143429756,0.4654076274162077,-0.19401847795632,0,5,0,0
0.4560000216588378,0.6335687629205399,-0.5236486014299548,0.7487870967584953,0.007398120127618313,-0.04012544825673103,-0.02553420513868332,0.42792141370780173,-0.1394670712649611,0,5,0,0
0.4600000218488276,0.6335687629205399,-0.5236486014299548,0.7487870967584953,0.008457719348371029,-0.040856942534446716,-0.024487074464559555,0.49480485151939296,-0.014790448680245608,0,5,0,0
0.4640000220388174,0.6335687629205399,-0.5236486014299548,0.7487870967584953,0.00956774689257145,-0.041256047785282135,-0.02506186068058014,0.4615011547992135,0.1700344861269133,0,5,0,0
0.4680000222288072,0.8750068972157687,-0.8567947789476037,0.7208921319132473,0.010709506459534168,-0.041219450533390045,-0.026080992072820663,0.412217579737587,0.22416243603022448,0,5,0,0
0.472000022418797,0.8750068972157687,-0.8567947789476037,0.7208921319132473,0.011894477531313896,-0.041220761835575104,-0.028159920126199722,0.41659433472365814,0.35177285077035453,0,5,0,0
0.4760000226087868,0.8750068972157687,-0.8567947789476037,0.7208921319132473,0.013136817142367363,-0.041387803852558136,-0.031552039086818695,0.4370087901566486,0.5131510215577388,0,5,0,0
0.4800000227987766,0.8750068972157687,-0.8567947789476037,0.7208921319132473,0.01442461647093296,-0.04178900644183159,-0.03548525273799896,0.4674641728010512,0.5898421905699023,0,5,0,0
0.48400002298876643,1.0458612523709643,-1.0210768597663384,0.6634017833580458,0.015756474807858467,-0.04214628413319588,-0.03957377374172211,0.4661965500213482,0.6237633279774808,0,5,0,0
0.48800002317875624,1.0458612523709643,-1.0210768597663384,0.6634017833580458,0.017140911892056465,-0.042906254529953,-0.04332636296749115,0.5192021562096031,0.6010853449318205,0,5,0,0
0.49200002336874604,1.0458612523709643,-1.0210768597663384,0.6634017833580458,0.01856161840260029,-0.043735601007938385,-0.04619874060153961,0.5354053952043318,0.5136619330855371,0,5,0,0
0.49600002355873585,1.0458612523709643,-1.0210768597663384,0.6634017833580458,0.020014990121126175,-0.045014992356300354,-0.04830051213502884,0.5989373901873061,0.4354917582589154,0,5,0,0
0.5000000237487257,1.1520036839021914,-0.4830881870215183,0.6037880173815323,0.02149995043873787,-0.046104952692985535,-0.048749975860118866,0.5886366576444556,0.25152199349103255,0,5,0,0
0.5040000239387155,1.1520036839021914,-0.4830881870215183,0.6037880173815323,0.023020396009087563,-0.047126997262239456,-0.048103369772434235,0.5913296846626851,0.12574316915289085,0,5,0,0
0.5080000241287053,1.1520036839021914,-0.4830881870215183,0.6037880173815323,0.024577049538493156,-0.04810355231165886,-0.04641572758555412,0.5960931129495989,0.001987442560113184,0,5,0,0
0.5120000243186951,1.1520036839021914,-0.4830881870215183,0.6037880173815323,0.0261806882917881,-0.047610338777303696,-0.04641867056488991,0.42592628460355536,0.19230144145781258,0,5,0,0
0.5160000245086849,1.2555926036117977,0.04119813444365113,0.5780826653054393,0.027827586978673935,-0.047887470573186874,-0.044452983886003494,0.5154763780327234,-0.03692544412203683,0,5,0,0
0.5200000246986747,1.2555926036117977,0.04119813444365113,0.5780826653054393,0.029517965391278267,-0.04791498929262161,-0.04260167479515076,0.4877850914401837,-0.03136095841846695,0,5,0,0
0.5240000248886645,1.2555926036117977,0.04119813444365113,0.5780826653054393,0.03125935420393944,-0.04828628897666931,-0.04166403412818909,0.5302893320616863,0.06777616540593513,0,5,0,0
0.5280000250786543,1.2555926036117977,0.04119813444365113,0.5780826653054393,0.0330476276576519,-0.0467892661690712,-0.04276592284440994,0.30524512790300284,0.3017334032004045,0,5,0,0
0.5320000252686441,1.2960199444291283,-0.024391313645318703,0.5606774323879826,0.034869901835918427,-0.04654023423790932,-0.04284835606813431,0.44326547208934347,0.18747723469631747,0,5,0,0
0.5360000254586339,1.2960199444291283,-0.024391313645318703,0.5606774323879826,0.03673430159687996,-0.04639347270131111,-0.04390891641378403,0.4534146199050685,0.30186415347333095,0,5,0,0
0.5400000256486237,1.2960199444291283,-0.024391313645318703,0.5606774323879826,0.03864583000540733,-0.0463305227458477,-0.04645814374089241,0.4623251160401263,0.47964758979150135,0,5,0,0
0.5440000258386135,1.2960199444291283,-0.024391313645318703,0.5606774323879826,0.04059591516852379,-0.04575127363204956,-0.04934585094451904,0.39855877541024526,0.5293958329535482,0,5,0,0
0.5480000260286033,1.1812735901105214,-0.14008284984101507,0.5219218961694796,0.04259128496050835,-0.04558942839503288,-0.053013209253549576,0.444007671580956,0.6319032430898239,0,5,0,0
0.5520000262185931,1.1812735901105214,-0.14008284984101507,0.5219218961694796,0.04464706778526306,-0.04567715525627136,-0.0569038987159729,0.4730714250912887,0.6727273238662497,0,5,0,0
0.5560000264085829,1.1812735901105214,-0.14008284984101507,0.5219218961694796,0.04674198850989342,-0.04558804631233215,-0.06054685264825821,0.45239571983066856,0.6595742062318874,0,5,0,0
0.5600000265985727,1.1812735901105214,-0.14008284984101507,0.5219218961694796,0.048902109265327454,-0.04593414440751076,-0.06324094533920288,0.5049277323095102,0.5637554706910726,0,5,0,0
0.5640000267885625,1.0593389426840814,0.16611577179377723,0.45900136261933,0.05109978839755058,-0.04604073241353035,-0.06495868414640427,0.47915922638217134,0.4609425200652256,0,5,0,0
0.5680000269785523,1.0593389426840814,0.16611577179377723,0.45900136261933,0.05333366245031357,-0.046058762818574905,-0.06565053761005402,0.4694873418321445,0.3484553995497939,0,5,0,0
0.5720000271685421,1.0593389426840814,0.16611577179377723,0.45900136261933,0.05561034008860588,-0.04586034640669823,-0.06511647999286652,0.4432629768029183,0.20856045859686953,0,5,0,0
0.576000027358532,1.0593389426840814,0.16611577179377723,0.45900136261933,0.057937633246183395,-0.04518888518214226,-0.06382224708795547,0.38343927898822433,0.11801698457058199,0,5,0,0
0.5800000275485218,0.9968455978447485,0.590317164658787,0.4239457742216384,0.06031081825494766,-0.04478061571717262,-0.06200039014220238,0.4090731293684611,0.05152065595558672,0,5,0,0
0.5840000277385116,0.9968455978447485,0.590317164658787,0.4239457742216384,0.06273569911718369,-0.04416929930448532,-0.06011345610022545,0.38022319103169017,0.036796019111728195,0,5,0,0
0.5880000279285014,0.9968455978447485,0.590317164658787,0.4239457742216384,0.06520526856184006,-0.043554287403821945,-0.05858072638511658,0.3737618599422289,0.07065367888127355,0,5,0,0
0.5920000281184912,0.9968455978447485,0.590317164658787,0.4239457742216384,0.0677219033241272,-0.04168722406029701,-0.05942632257938385,0.21433549521784176,0.3417403389356271,0,5,0,0
0.596000028308481,0.8436053233211476,0.2752089147495778,0.40912133804556994,0.07027668505907059,-0.041282959282398224,-0.0588495135307312,0.37495675736236883,0.17955375935227735,0,5,0,0
0.6000000284984708,0.8436053233211476,0.2752089147495778,0.40912133804556994,0.0728701800107956,-0.04107622429728508,-0.05910469591617584,0.3952100910871252,0.274315372061222,0,5,0,0
0.6040000286884606,0.8436053233211476,0.2752089147495778,0.40912133804556994,0.07552052289247513,-0.0413648895919323,-0.06048819050192833,0.4539285485992209,0.40692963857387,0,5,0,0
0.6080000288784504,0.8436053233211476,0.2752089147495778,0.40912133804556994,0.07822316139936447,-0.041499849408864975,-0.06202009692788124,0.43808588099029355,0.429902443746893,0,5,0,0
0.6120000290684402,0.5952109183913009,-0.2713393844009843,0.3632656195283255,0.0809716209769249,-0.04169571027159691,-0.06464532017707825,0.44699592665401156,0.5635566222923378,0,5,0,0
0.61600002925843,0.5952109183913009,-0.2713393844009843,0.3632656195283255,0.08377388119697571,-0.04208432137966156,-0.0675087496638298,0.4726674416807436,0.6019705616982736,0,5,0,0
0.6200000294484198,0.5952109183913009,-0.2713393844009843,0.3632656195283255,0.08661559224128723,-0.04228581488132477,-0.07042918354272842,0.45373313293760476,0.620234321074343,0,5,0,0
0.6240000296384096,0.5952109183913009,-0.2713393844009843,0.3632656195283255,0.0895056203007698,-0.04230993613600731,-0.07301608473062515,0.43412151249843667,0.5932347384821135,0,5,0,0
0.6280000298283994,0.5519708941560241,-0.3149737334633141,0.2669040961222714,0.09243670105934143,-0.04272284731268883,-0.07500617951154709,0.48209202325107287,0.5342344148495279,0,5,0,0
0.6320000300183892,0.5519708941560241,-0.3149737334633141,0.2669040961222714,0.09540792554616928,-0.043213363736867905,-0.0760502964258194,0.49583148949955275,0.43217089828342303,0,5,0,0
0.636000030208379,0.5519708941560241,-0.3149737334633141,0.2669040961222714,0.09841923415660858,-0.04367522895336151,-0.07596011459827423,0.4973317015074368,0.3043838728635548,0,5,0,0
0.6400000303983688,0.5519708941560241,-0.3149737334633141,0.2669040961222714,0.10147995501756668,-0.04416149482131004,-0.07462900131940842,0.5050454209378226,0.15963374771706376,0,5,0,0
0.6440000305883586,0.5301824665815701,-0.0636410037785411,0.2014242063778678,0.10458771884441376,-0.04441317915916443,-0.07264521718025208,0.48127843506929746,0.07844749139479038,0,5,0,0
0.6480000307783484,0.5301824665815701,-0.0636410037785411,0.2014242063778678,0.10774704813957214,-0.04449408873915672,-0.07029370963573456,0.46298215734030984,0.027841284989643222,0,5,0,0
0.6520000309683383,0.5301824665815701,-0.0636410037785411,0.2014242063778678,0.1109616607427597,-0.04440782964229584,-0.0679762214422226,0.44341966991518156,0.022561651961149343,0,5,0,0
0.6560000311583281,0.5301824665815701,-0.0636410037785411,0.2014242063778678,0.11423711478710175,-0.04396439343690872,-0.06620263308286667,0.39890839960993246,0.07681491328691667,0,5,0,0
0.6600000313483179,0.5587881538560832,-0.28103191050478105,0.20725103034644315,0.11755529046058655,-0.043877895921468735,-0.06521820276975632,0.4383043321225092,0.1618139917143475,0,5,0,0
0.6640000315383077,0.5587881538560832,-0.28103191050478105,0.20725103034644315,0.12091458588838577,-0.04386020824313164,-0.06529014557600021,0.44597382615031383,0.2811004295788104,0,5,0,0
0.6680000317282975,0.5587881538560832,-0.28103191050478105,0.20725103034644315,0.12431814521551132,-0.04400574043393135,-0.06654099375009537,0.4658969962461006,0.4188903682516057,0,5,0,0
0.6720000319182873,0.5587881538560832,-0.28103191050478105,0.20725103034644315,0.1277855783700943,-0.044715218245983124,-0.06872812658548355,0.5365429702729402,0.5331358664972616,0,5,0,0
0.6760000321082771,0.4869119604301832,-0.8580528341998049,0.19429489227725835,0.13130642473697662,-0.045228250324726105,-0.07159124314785004,0.5196816949187665,0.6208083174114083,0,5,0,0
0.6800000322982669,0.4869119604301832,-0.8580528341998049,0.19429489227725835,0.13488496840000153,-0.04595927521586418,-0.07475997507572174,0.5516264363255161,0.6680443960578917,0,5,0,0
0.6840000324882567,0.4869119604301832,-0.8580528341998049,0.19429489227725835,0.13851822912693024,-0.04679200053215027,-0.07769505679607391,0.5715072875807068,0.6536855439870216,0,5,0,0
0.6880000326782465,0.4869119604301832,-0.8580528341998049,0.19429489227725835,0.1421995460987091,-0.04732793942093849,-0.08009792864322662,0.543591792020952,0.6036156585224111,0,5,0,0
0.6920000328682363,0.4413068184992306,-0.8081742457062525,0.1421537015228658,0.14592574536800385,-0.04824191704392433,-0.08212044835090637,0.595376704434411,0.569113212780223,0,5,0,0
0.6960000330582261,0.4413068184992306,-0.8081742457062525,0.1421537015228658,0.14969390630722046,-0.04920618236064911,-0.08304806053638458,0.6107948177218535,0.4498458864798149,0,5,0,0
0.7000000332482159,0.4413068184992306,-0.8081742457062525,0.1421537015228658,0.153505340218544,-0.05022668093442917,-0.08287292718887329,0.6274465886178613,0.3252853815556311,0,5,0,0
0.7040000334382057,0.4413068184992306,-0.8081742457062525,0.1421537015228658,0.15736813843250275,-0.05121908709406853,-0.08131599426269531,0.6343331795884012,0.16380036303001178,0,5,0,0
0.7080000336281955,0.5078172493878147,-0.44462379471418917,0.1136927470176276,0.1612822711467743,-0.052084531635046005,-0.07911364734172821,0.6288294464589905,0.08257177714375141,0,5,0,0
0.7120000338181853,0.5078172493878147,-0.44462379471418917,0.1136927470176276,0.16524896025657654,-0.05278533324599266,-0.076497882604599,0.6174418186255606,0.025782811013051354,0,5,0,0
0.7160000340081751,0.5078172493878147,-0.44462379471418917,0.1136927470176276,0.1692759245634079,-0.05320170521736145,-0.07399165630340576,0.5897348895051642,0.028258559249323745,0,5,0,0
0.7200000341981649,0.5078172493878147,-0.44462379471418917,0.1136927470176276,0.17335397005081177,-0.053179480135440826,-0.07319607585668564,0.5402981032929132,0.21769955754029563,0,5,0,0
0.7240000343881547,0.6717258860137185,-0.6496055922741152,0.136147770764271,0.17747680842876434,-0.05381513014435768,-0.07205630838871002,0.6207947039044479,0.17459238476464772,0,5,0,0
0.7280000345781446,0.6717258860137185,-0.6496055922741152,0.136147770764271,0.18164274096488953,-0.05436171963810921,-0.07196468859910965,0.6163717594950837,0.2923152290835642,0,5,0,0
0.7320000347681344,0.6717258860137185,-0.6496055922741152,0.136147770764271,0.18588003516197205,-0.05524105206131935,-0.07312849164009094,0.6627312400445244,0.43838101136789365,0,5,0,0
0.7360000349581242,0.6717258860137185,-0.6496055922741152,0.136147770764271,0.190185084939003,-0.05587796866893768,-0.07538475096225739,0.6419627352931441,0.5704882978632919,0,5,0,0
0.740000035148114,0.7314005777577772,-1.1669991331710914,0.14626543082898638,0.1945454329252243,-0.0562652163207531,-0.07826201617717743,0.6178824921431504,0.6520483471871767,0,5,0,0
0.7440000353381038,0.7314005777577772,-1.1669991331710914,0.14626543082898638,0.1989680528640747,-0.056774795055389404,-0.08149922639131546,0.6368767851677972,0.7056865966850292,0,5,0,0
0.7480000355280936,0.7314005777577772,-1.1669991331710914,0.14626543082898638,0.20344926416873932,-0.05734900012612343,-0.08491694182157516,0.6500269359476424,0.7398680949252852,0,5,0,0
0.7520000357180834,0.7314005777577772,-1.1669991331710914,0.14626543082898638,0.20797854661941528,-0.05767510458827019,-0.08741500973701477,0.6255150836863455,0.6466098221172185,0,5,0,0
0.7560000359080732,0.7061880527744321,-1.016209308844312,0.12330709179112886,0.21255449950695038,-0.05832800641655922,-0.0899496003985405,0.6689487911360606,0.6610728725540622,0,5,0,0
0.760000036098063,0.7061880527744321,-1.016209308844312,0.12330709179112886,0.2171752154827118,-0.05929054319858551,-0.09148245304822922,0.7135503869076777,0.5547283200716483,0,5,0,0
0.7640000362880528,0.7061880527744321,-1.016209308844312,0.12330709179112886,0.22184373438358307,-0.06030433624982834,-0.09194700419902802,0.7295993778469543,0.4366232845787157,0,5,0,0
0.7680000364780426,0.7061880527744321,-1.016209308844312,0.12330709179112886,0.2265685349702835,-0.06149405613541603,-0.09108802676200867,0.7614359303683048,0.2845090270479353,0,5,0,0
0.7720000366680324,0.7132435621615189,-0.5127537358884877,0.11558527795637377,0.23134379088878632,-0.06287133693695068,-0.08935349434614182,0.7964602316412752,0.17928541533923587,0,5,0,0
0.7760000368580222,0.7132435621615189,-0.5127537358884877,0.11558527795637377,0.23617088794708252,-0.06418415904045105,-0.08713378012180328,0.802490891480868,0.11603272866359385,0,5,0,0
0.780000037048012,0.7132435621615189,-0.5127537358884877,0.11558527795637377,0.2410566806793213,-0.06524677574634552,-0.08479912579059601,0.7851255449153417,0.09396686784177333,0,5,0,0
0.7840000372380018,0.7132435621615189,-0.5127537358884877,0.11558527795637377,0.24598942697048187,-0.06451351940631866,-0.08472912758588791,0.5759121058990345,0.3486640270688567,0,5,0,0
0.7880000374279916,0.8373284090422759,-0.5991235482893904,0.14603529678326915,0.25096791982650757,-0.06532564014196396,-0.08315393328666687,0.7580450075547265,0.1732282667315935,0,5,0,0
0.7920000376179814,0.8373284090422759,-0.5991235482893904,0.14603529678326915,0.2559899687767029,-0.06600308418273926,-0.08246057480573654,0.7498267279188074,0.26985926304245383,0,5,0,0
0.7960000378079712,0.8373284090422759,-0.5991235482893904,0.14603529678326915,0.26106634736061096,-0.06694023311138153,-0.08305110037326813,0.7885756722696393,0.4168576365545217,0,5,0,0
0.800000037997961,0.8373284090422759,-0.5991235482893904,0.14603529678326915,0.26619282364845276,-0.06700669974088669,-0.08438469469547272,0.6914494006512406,0.5059897680503812,0,5,0,0
0.8040000381879508,0.908883708203531,-1.0959273848275084,0.1674209149065702,0.27137118577957153,-0.06735527515411377,-0.08686479181051254,0.7268340441128379,0.6451001900884565,0,5,0,0
0.8080000383779407,0.908883708203531,-1.0959273848275084,0.1674209149065702,0.27661216259002686,-0.0678471103310585,-0.09001688659191132,0.7480319516075465,0.7335243436267205,0,5,0,0
0.8120000385679305,0.908883708203531,-1.0959273848275084,0.1674209149065702,0.28190717101097107,-0.0682319700717926,-0.09380841255187988,0.740009569748761,0.8208515918397378,0,5,0,0
0.8160000387579203,0.908883708203531,-1.0959273848275084,0.1674209149065702,0.28725022077560425,-0.06861677020788193,-0.09656462073326111,0.7440155458437563,0.7156349351071367,0,5,0,0
0.8200000389479101,0.9149488203899511,-1.207562580477569,0.14539327936574345,0.29264479875564575,-0.06921126693487167,-0.09983127564191818,0.7737174855179786,0.7863664039056655,0,5,0,0
0.8240000391378999,0.9149488203899511,-1.207562580477569,0.14539327936574345,0.29809069633483887,-0.07019362598657608,-0.10236017405986786,0.8273440502032633,0.7137300607444685,0,5,0,0
0.8280000393278897,0.9149488203899511,-1.207562580477569,0.14539327936574345,0.30358582735061646,-0.07112622261047363,-0.10377883166074753,0.8312424465222445,0.5947516743679582,0,5,0,0
0.8320000395178795,0.9149488203899511,-1.207562580477569,0.14539327936574345,0.3091546893119812,-0.07317797094583511,-0.10409940779209137,0.9778401185740173,0.4727496580286783,0,5,0,0
0.8360000397078693,0.8858610868775288,-0.8115617650754465,0.13118803384421351,0.3147701919078827,-0.07475776970386505,-0.1031171977519989,0.9407231998821743,0.3225048618294728,0,5,0,0
0.8400000398978591,0.8858610868775288,-0.8115617650754465,0.13118803384421351,0.32043707370758057,-0.07629279792308807,-0.10142765939235687,0.9512198994215688,0.2364157026152656,0,5,0,0
0.8440000400878489,0.8858610868775288,-0.8115617650754465,0.13118803384421351,0.3261631727218628,-0.07773797959089279,-0.09901433438062668,0.9557505507050282,0.14557404248975397,0,5,0,0
0.8480000402778387,0.8858610868775288,-0.8115617650754465,0.13118803384421351,0.3319362699985504,-0.07729419320821762,-0.09888380020856857,0.7389892973654307,0.4021031841983958,0,5,0,0
0.8520000404678285,0.9936966261057492,-0.6369200002966773,0.15399283705446212,0.33775684237480164,-0.07829473912715912,-0.09707804769277573,0.911670040151815,0.20665110674206227,0,5,0,0
0.8560000406578183,0.9936966261057492,-0.6369200002966773,0.15399283705446212,0.34362536668777466,-0.07905343174934387,-0.09589536488056183,0.8922382000260729,0.2722458627031334,0,5,0,0
0.8600000408478081,0.9936966261057492,-0.6369200002966773,0.15399283705446212,0.3495475649833679,-0.0801742896437645,-0.09590289741754532,0.9443827884658822,0.40640538024063616,0,5,0,0
0.8640000410377979,0.9936966261057492,-0.6369200002966773,0.15399283705446212,0.35552695393562317,-0.0800052061676979,-0.09675253927707672,0.7977655689220815,0.5047734480709161,0,5,0,0
0.8680000412277877,1.1254256005725454,-0.9891765634102635,0.18170751336141866,0.3615535497665405,-0.08032262325286865,-0.09873894602060318,0.8558638246183545,0.6408420919019098,0,5,0,0
0.8720000414177775,1.1254256005725454,-0.9891765634102635,0.18170751336141866,0.3676396310329437,-0.0807453915476799,-0.10156868398189545,0.8721373070370023,0.7472795660925579,0,5,0,0
0.8760000416077673,1.1254256005725454,-0.9891765634102635,0.18170751336141866,0.3737846314907074,-0.08106713742017746,-0.10550003498792648,0.8641843049305469,0.8871896318593624,0,5,0,0
0.8800000417977571,1.1254256005725454,-0.9891765634102635,0.18170751336141866,0.3799791932106018,-0.08190160989761353,-0.10918661952018738,0.9304073338938444,0.8746617908964607,0,5,0,0
0.884000041987747,1.1311392458418452,-1.1745463871684527,0.17219010670211116,0.3862272799015045,-0.08251158893108368,-0.1127604991197586,0.9114496408047937,0.8765486301801342,0,5,0,0
0.8880000421777368,1.1311392458418452,-1.1745463871684527,0.17219010670211116,0.39253610372543335,-0.08345595747232437,-0.11579787731170654,0.9587124383620353,0.8286196523758294,0,5,0,0
0.8920000423677266,1.1311392458418452,-1.1745463871684527,0.17219010670211116,0.39888837933540344,-0.08421878516674042,-0.11764399707317352,0.9461194961024806,0.7022699099644214,0,5,0,0
0.8960000425577164,1.1311392458418452,-1.1745463871684527,0.17219010670211116,0.40531274676322937,-0.0857790857553482,-0.1187366470694542,1.0516440681394537,0.6221601333587239,0,5,0,0
0.9000000427477062,1.092224784310814,-0.7282362460127774,0.1610450582412232,0.411780446767807,-0.08685680478811264,-0.11842380464076996,1.00833929235477,0.4630750904902694,0,5,0,0
0.904000042937696,1.092224784310814,-0.7282362460127774,0.1610450582412232,0.4182994067668915,-0.08782412856817245,-0.11736222356557846,1.0058038427345664,0.3748773418082296,0,5,0,0
0.9080000431276858,1.092224784310814,-0.7282362460127774,0.1610450582412232,0.42486706376075745,-0.08885838091373444,-0.11543280631303787,1.0238890895758719,0.26980514623185503,0,5,0,0
0.9120000433176756,1.092224784310814,-0.7282362460127774,0.1610450582412232,0.4314817190170288,-0.0880916565656662,-0.11547333747148514,0.8138233976710417,0.49186359259852597,0,5,0,0
0.9160000435076654,1.1469257405329571,-0.3741011058643652,0.18624077284652496,0.4381425678730011,-0.08871608227491379,-0.11392828822135925,0.9767849473855621,0.30757903601075165,0,5,0,0
0.9200000436976552,1.1469257405329571,-0.3741011058643652,0.18624077284652496,0.4448518753051758,-0.08921748399734497,-0.11272892355918884,0.9681728887221663,0.3419416410893006,0,5,0,0
0.924000043887645,1.1469257405329571,-0.3741011058643652,0.18624077284652496,0.45161330699920654,-0.09020189940929413,-0.112572081387043,1.032572564900329,0.458868219965962,0,5,0,0
0.9280000440776348,1.1469257405329571,-0.3741011058643652,0.18624077284652496,0.4584227502346039,-0.0888122171163559,-0.11310609430074692,0.7518029121882218,0.5389969197265325,0,5,0,0
0.9320000442676246,1.1744637696377127,-0.5482475297151036,0.2253566989229161,0.46527472138404846,-0.08918280154466629,-0.11411000788211823,0.9537527919397496,0.596150260685627,0,5,0,0
0.9360000444576144,1.1744637696377127,-0.5482475297151036,0.2253566989229161,0.4721812605857849,-0.08981107920408249,-0.1159946620464325,0.9892416022566681,0.7030505754198968,0,5,0,0
0.9400000446476042,1.1744637696377127,-0.5482475297151036,0.2253566989229161,0.47914648056030273,-0.09034429490566254,-0.11944229155778885,0.9840961158419339,0.8929624731692101,0,5,0,0
0.944000044837594,1.1744637696377127,-0.5482475297151036,0.2253566989229161,0.486154168844223,-0.09111523628234863,-0.12251483649015427,1.0187683433654113,0.8633496753879843,0,5,0,0
0.9480000450275838,1.0450974883128634,-0.6863349357378794,0.2206900311139336,0.49321359395980835,-0.09177567064762115,-0.12590090930461884,1.0131609104446158,0.9124680139033554,0,5,0,0
0.9520000452175736,1.0450974883128634,-0.6863349357378794,0.2206900311139336,0.5003447532653809,-0.09267373383045197,-0.12919379770755768,1.0490971999502277,0.9154663868456197,0,5,0,0
0.9560000454075634,1.0450974883128634,-0.6863349357378794,0.2206900311139336,0.5075168609619141,-0.09295923262834549,-0.13162492215633392,0.9832618000658382,0.8285583442304157,0,5,0,0
0.9600000455975533,1.0450974883128634,-0.6863349357378794,0.2206900311139336,0.5147491693496704,-0.09368261694908142,-0.13310649991035461,1.0399826005445003,0.7279801127753245,0,5,0,0
0.9640000457875431,0.9434758809215559,-0.2757809847950834,0.17819381440961954,0.522022008895874,-0.09392506629228592,-0.133616104722023,0.9885273317439256,0.6209922598676307,0,5,0,0
0.9680000459775329,0.9434758809215559,-0.2757809847950834,0.17819381440961954,0.5293402075767517,-0.09385130554437637,-0.1333862692117691,0.9524413338481622,0.5372060126228415,0,5,0,0
0.9720000461675227,0.9434758809215559,-0.2757809847950834,0.17819381440961954,0.5367050766944885,-0.09365297108888626,-0.13208375871181488,0.9366682149973915,0.4116370410495032,0,5,0,0
0.9760000463575125,0.9434758809215559,-0.2757809847950834,0.17819381440961954,0.5441167950630188,-0.09236812591552734,-0.1320207417011261,0.8018089968220183,0.5511448337210549,0,5,0,0
0.9800000465475023,0.9416637196999114,0.10713242559513755,0.1679234437133269,0.5515726208686829,-0.09191842377185822,-0.1307331770658493,0.891486165990403,0.408546733596982,0,5,0,0
0.9840000467374921,0.9416637196999114,0.10713242559513755,0.1679234437133269,0.5590783357620239,-0.09145524352788925,-0.1293911188840866,0.8855575699338939,0.39735851588152327,0,5,0,0
0.9880000469274819,0.9416637196999114,0.10713242559513755,0.1679234437133269,0.566643238067627,-0.09169906377792358,-0.12864236533641815,0.9677534019952971,0.46141901154762177,0,5,0,0
0.9920000471174717,0.9416637196999114,0.10713242559513755,0.1679234437133269,0.5742552876472473,-0.09034447371959686,-0.13003762066364288,0.7746031770096835,0.7085131101299885,0,5,0,0
0.9960000473074615,0.7977788896216208,-0.0759076006101641,0.18919055559979142,0.5819061398506165,-0.0906376838684082,-0.12969760596752167,0.9631303234474856,0.5122464572605425,0,5,0,0
1.0000000474974513,0.7977788896216208,-0.0759076006101641,0.18919055559979142,0.5896015763282776,-0.0912962406873703,-0.12977945804595947,1.0110365010649072,0.5603453461720584,0,5,0,0
1.004000047687441,0.7977788896216208,-0.0759076006101641,0.18919055559979142,0.5973495841026306,-0.09232757985591888,-0.13095399737358093,1.0635094912891032,0.6882851027855961,0,5,0,0
1.008000047877431,0.7977788896216208,-0.0759076006101641,0.18919055559979142,0.6051706671714783,-0.09293032437562943,-0.1318395882844925,1.0215430735712034,0.6596371861202754,0,5,0,0
1.0120000480674207,0.6561647715888838,-0.34067505378977136,0.1780622619406213,0.6130331754684448,-0.09351969510316849,-0.13373874127864838,1.0261566765776733,0.781580500040268,0,5,0,0
1.0160000482574105,0.6561647715888838,-0.34067505378977136,0.1780622619406213,0.620948851108551,-0.09415634721517563,-0.1359328180551529,1.0380683284418069,0.8238619698634209,0,5,0,0
1.0200000484474003,0.6561647715888838,-0.34067505378977136,0.1780622619406213,0.6289026737213135,-0.09421657025814056,-0.13830409944057465,0.9740484114636953,0.8536145428158339,0,5,0,0
1.0240000486373901,0.6561647715888838,-0.34067505378977136,0.1780622619406213,0.6369136571884155,-0.09405890107154846,-0.1409870982170105,0.9481845863102004,0.8997531117968056,0,5,0,0
1.02800004882738,0.8440750205382205,-0.2798922320398993,0.10537700783379086,0.6449639797210693,-0.09417258948087692,-0.14267387986183167,0.9800752127200483,0.7947682337206199,0,5,0,0
1.0320000490173697,0.8440750205382205,-0.2798922320398993,0.10537700783379086,0.6530539393424988,-0.0941498875617981,-0.14377962052822113,0.9647302420531176,0.73416916052304,0,5,0,0
1.0360000492073596,0.8440750205382205,-0.2798922320398993,0.10537700783379086,0.6611832976341248,-0.09407362341880798,-0.14398987591266632,0.9581676274263335,0.6346136683456868,0,5,0,0
1.0400000493973494,0.8440750205382205,-0.2798922320398993,0.10537700783379086,0.6693791747093201,-0.09348099678754807,-0.1438119113445282,0.8943749383454915,0.5905722160855711,0,5,0,0
1.0440000495873392,0.9419206114401895,0.07043311957837586,0.06858750270227126,0.6776136159896851,-0.09307891130447388,-0.1427120715379715,0.9120133510652358,0.48280440645121975,0,5,0,0
1.048000049777329,0.9419206114401895,0.07043311957837586,0.06858750270227126,0.6858904361724854,-0.09259206801652908,-0.1413457989692688,0.8978318865645395,0.4477048617922968,0,5,0,0
1.0520000499673188,0.9419206114401895,0.07043311957837586,0.06858750270227126,0.6942055821418762,-0.0922805592417717,-0.14014758169651031,0.9146634039663554,0.4621545668090372,0,5,0,0
1.0560000501573086,0.9419206114401895,0.07043311957837586,0.06858750270227126,0.7025712728500366,-0.0913337841629982,-0.14038187265396118,0.8339473984637323,0.6245858153932101,0,5,0,0
1.0600000503472984,0.8172229626992042,0.03945526827434763,0.09134671625752876,0.7109732031822205,-0.09167233854532242,-0.14004382491111755,0.9821525134153162,0.5591816288927265,0,5,0,0
1.0640000505372882,0.8172229626992042,0.03945526827434763,0.09134671625752876,0.7194110751152039,-0.09218861907720566,-0.14022471010684967,1.0075307623061596,0.6186216618127685,0,5,0,0
1.068000050727278,0.8172229626992042,0.03945526827434763,0.09134671625752876,0.7279083728790283,-0.09302212297916412,-0.14134666323661804,1.0517766818698897,0.7293188438902394,0,5,0,0
1.0720000509172678,0.8172229626992042,0.03945526827434763,0.09134671625752876,0.736467182636261,-0.09331097453832626,-0.14227789640426636,0.9936157581567829,0.7119292488090205,0,5,0,0
1.0760000511072576,0.6574989944574824,-0.2553904875997694,0.09139840311981087,0.7450644373893738,-0.09359630197286606,-0.14415651559829712,0.9962971996364023,0.8263706241447155,0,5,0,0
1.0800000512972474,0.6574989944574824,-0.2553904875997694,0.09139840311981087,0.753707766532898,-0.09381985664367676,-0.14627481997013092,0.9918084784217064,0.8621594824387464,0,5,0,0
1.0840000514872372,0.6574989944574824,-0.2553904875997694,0.09139840311981087,0.7623863220214844,-0.09355520457029343,-0.1485925018787384,0.9344632340763926,0.8942168039162967,0,5,0,0
1.088000051677227,0.6574989944574824,-0.2553904875997694,0.09139840311981087,0.7711197733879089,-0.09296023100614548,-0.15099120140075684,0.8915754370539659,0.9132884619807615,0,5,0,0
1.0920000518672168,0.7235554086414739,-0.26444477936589134,0.038829608448480046,0.7798886895179749,-0.09280715882778168,-0.1526990681886673,0.9399813560015271,0.8427677280177553,0,5,0,0
1.0960000520572066,0.7235554086414739,-0.26444477936589134,0.038829608448480046,0.7886934280395508,-0.0927078127861023,-0.1537734866142273,0.9452545844359015,0.7761715207257794,0,5,0,0
1.1000000522471964,0.7235554086414739,-0.26444477936589134,0.038829608448480046,0.7975326776504517,-0.09266775846481323,-0.1539803147315979,0.9517467620809779,0.6797644809328006,0,5,0,0
1.1040000524371862,0.7235554086414739,-0.26444477936589134,0.038829608448480046,0.8064089417457581,-0.09255269169807434,-0.15336719155311584,0.9423793211719352,0.5854355530940378,0,5,0,0
1.108000052627176,0.6958308700364402,0.0284767519854159,0.016345805153727484,0.8153205513954163,-0.09251872450113297,-0.15209950506687164,0.9513853953207387,0.5070914773529533,0,5,0,0
1.1120000528171659,0.6958308700364402,0.0284767519854159,0.016345805153727484,0.8242703676223755,-0.09248194843530655,-0.15051700174808502,0.9509235936147037,0.4657058129203502,0,5,0,0
1.1160000530071557,0.6958308700364402,0.0284767519854159,0.016345805153727484,0.8332582712173462,-0.09249784052371979,-0.14897140860557556,0.957229676397168,0.4640333663819,0,5,0,0
1.1200000531971455,0.6958308700364402,0.0284767519854159,0.016345805153727484,0.8422996997833252,-0.09212993830442429,-0.1477772295475006,0.9105949085002033,0.499145398138474,0,5,0,0
1.1240000533871353,0.6111363624990136,-0.0233619610984677,0.056871893343985895,0.8513742089271545,-0.09226607531309128,-0.14711254835128784,0.968882127630608,0.5564082501165792,0,5,0,0
1.128000053577125,0.6111363624990136,-0.0233619610984677,0.056871893343985895,0.860480546951294,-0.09245653450489044,-0.1471872478723526,0.9771198605540515,0.6402406243553787,0,5,0,0
1.1320000537671149,0.6111363624990136,-0.0233619610984677,0.056871893343985895,0.8696203231811523,-0.09266359359025955,-0.1481882929801941,0.9812803319808404,0.7488143302692787,0,5,0,0
1.1360000539571047,0.6111363624990136,-0.0233619610984677,0.056871893343985895,0.8788051605224609,-0.09296786785125732,-0.1494966596364975,0.9954829042230178,0.7889802614544656,0,5,0,0
1.1400000541470945,0.535313728434025,-0.4188522722969953,0.06894184847337306,0.8880276083946228,-0.09312091767787933,-0.1516515016555786,0.9802241446430688,0.8931920669414335,0,5,0,0
1.1440000543370843,0.535313728434025,-0.4188522722969953,0.06894184847337306,0.8972914814949036,-0.09329133480787277,-0.15408918261528015,0.984106036693661,0.9351319841445396,0,5,0,0
1.148000054527074,0.535313728434025,-0.4188522722969953,0.06894184847337306,0.9065878987312317,-0.09326274693012238,-0.1564275622367859,0.9616559262116151,0.933689528781348,0,5,0,0
1.152000054717064,0.535313728434025,-0.4188522722969953,0.06894184847337306,0.9159323573112488,-0.09293202310800552,-0.15879327058792114,0.9245814327297255,0.9466079479906921,0,5,0,0
1.1560000549070537,0.5902001795881788,-0.4212628629057079,0.015273324755303705,0.9253093004226685,-0.09305428713560104,-0.16050074994564056,0.9769885339775318,0.8797723089976766,0,5,0,0
1.1600000550970435,0.5902001795881788,-0.4212628629057079,0.015273324755303705,0.9347162246704102,-0.09325888007879257,-0.16137441992759705,0.9885202872968966,0.7898507372338233,0,5,0,0
1.1640000552870333,0.5902001795881788,-0.4212628629057079,0.015273324755303705,0.9441535472869873,-0.09367143362760544,-0.16132143139839172,1.01626620125758,0.6857768770166104,0,5,0,0
1.1680000554770231,0.5902001795881788,-0.4212628629057079,0.015273324755303705,0.9536241888999939,-0.0940513014793396,-0.16032414138317108,1.0166134621624938,0.5759385827824399,0,5,0,0
1.172000055667013,0.622897227368635,-0.10471680158854546,-0.013668534414760685,0.9631287455558777,-0.09444501996040344,-0.15863750874996185,1.0223355107573824,0.49202174144844746,0,5,0,0
1.1760000558570027,0.622897227368635,-0.10471680158854546,-0.013668534414760685,0.9726691246032715,-0.09479279816150665,-0.15659700334072113,1.0208725142447168,0.4444248672247163,0,5,0,0
1.1800000560469925,0.622897227368635,-0.10471680158854546,-0.013668534414760685,0.9822454452514648,-0.09505638480186462,-0.15467500686645508,1.014264965848692,0.4504403559131659,0,5,0,0
1.1840000562369823,0.622897227368635,-0.10471680158854546,-0.013668534414760685,0.9918733239173889,-0.09444858133792877,-0.15434269607067108,0.9103822257384968,0.6283211655529983,0,5,0,0
1.1880000564269722,0.6605114232124376,-0.1861779710886207,0.016563454554057364,1.001530647277832,-0.09499925374984741,-0.15363004803657532,1.0464454779208696,0.58305134827166,0,5,0,0
1.192000056616962,0.6605114232124376,-0.1861779710886207,0.016563454554057364,1.0112159252166748,-0.09550319612026215,-0.15367771685123444,1.046456979887103,0.6691464914904571,0,5,0,0
1.1960000568069518,0.6605114232124376,-0.1861779710886207,0.016563454554057364,1.0209554433822632,-0.09619650989770889,-0.15481676161289215,1.0749252715754931,0.7968540189882222,0,5,0,0
1.2000000569969416,0.6605114232124376,-0.1861779710886207,0.016563454554057364,1.0307282209396362,-0.09629601985216141,-0.15618225932121277,1.0093485546647583,0.828166802551213,0,5,0,0
1.2040000571869314,0.661652260724217,-0.5604651703011437,0.03568258802443274,1.0405350923538208,-0.0962672308087349,-0.1583506166934967,0.9948580690195783,0.9275419814442865,0,5,0,0
1.2080000573769212,0.661652260724217,-0.5604651703011437,0.03568258802443274,1.050383448600769,-0.09620552510023117,-0.160780668258667,0.9907687805604513,0.9670886566284778,0,5,0,0
1.212000057566911,0.661652260724217,-0.5604651703011437,0.03568258802443274,1.0602607727050781,-0.09583289176225662,-0.1633688062429428,0.9522930894778221,0.9956180150238303,0,5,0,0
1.2160000577569008,0.661652260724217,-0.5604651703011437,0.03568258802443274,1.0701864957809448,-0.09523729979991913,-0.16558802127838135,0.9214828953353632,0.9633884566626608,0,5,0,0
1.2200000579468906,0.6888449695500776,-0.5033789909822589,0.006497975705136464,1.080140233039856,-0.09505262225866318,-0.16748636960983276,0.9660921164030275,0.9352863148106108,0,5,0,0
1.2240000581368804,0.6888449695500776,-0.5033789909822589,0.006497975705136464,1.0901213884353638,-0.09515900909900665,-0.1686246693134308,1.000129107813791,0.8547387462783622,0,5,0,0
1.2280000583268702,0.6888449695500776,-0.5033789909822589,0.006497975705136464,1.1001280546188354,-0.0954732894897461,-0.1688055843114853,1.026889070935519,0.7481617654342745,0,5,0,0
1.23200005851686,0.6888449695500776,-0.5033789909822589,0.006497975705136464,1.1101644039154053,-0.09598852694034576,-0.16800379753112793,1.0548794860775836,0.6348038826257669,0,5,0,0
1.2360000587068498,0.6416704393056156,-0.13064155718079754,-0.00944012099646655,1.1202291250228882,-0.0967458114027977,-0.1664683073759079,1.0899148082005088,0.5465198202100316,0,5,0,0
1.2400000588968396,0.6416704393056156,-0.13064155718079754,-0.00944012099646655,1.1303253173828125,-0.09753535687923431,-0.164560928940773,1.1016737117333946,0.4974478232144589,0,5,0,0
1.2440000590868294,0.6416704393056156,-0.13064155718079754,-0.00944012099646655,1.1404539346694946,-0.09827940911054611,-0.16262610256671906,1.1042321148061305,0.48701092740121354,0,5,0,0
1.2480000592768192,0.6416704393056156,-0.13064155718079754,-0.00944012099646655,1.1506305932998657,-0.09755721688270569,-0.16186638176441193,0.9322918360395639,0.6165598940690563,0,5,0,0
1.252000059466809,0.6533197303940315,-0.17715439166134797,0.022081769834134915,1.160832405090332,-0.09780339896678925,-0.1605134904384613,1.0439304899660442,0.5448018804202953,0,5,0,0
1.2560000596567988,0.6533197303940315,-0.17715439166134797,0.022081769834134915,1.1710575819015503,-0.09799563139677048,-0.15998755395412445,1.040018667994146,0.6361145198934219,0,5,0,0
1.2600000598467886,0.6533197303940315,-0.17715439166134797,0.022081769834134915,1.1813291311264038,-0.09837580472230911,-0.16086147725582123,1.0651998529380329,0.7974804991126445,0,5,0,0
1.2640000600367785,0.6533197303940315,-0.17715439166134797,0.022081769834134915,1.191628098487854,-0.09824958443641663,-0.16202160716056824,1.0072041705128496,0.8347081119211042,0,5,0,0
1.2680000602267683,0.6311919963471124,-0.5801135915129986,0.051862268697514514,1.2019572257995605,-0.09827787429094315,-0.16420359909534454,1.0251053259391352,0.9587896412347703,0,5,0,0
1.272000060416758,0.6311919963471124,-0.5801135915129986,0.051862268697514514,1.2123314142227173,-0.09848523885011673,-0.16687610745429993,1.0475612394312537,1.025063272446595,0,5,0,0
1.2760000606067479,0.6311919963471124,-0.5801135915129986,0.051862268697514514,1.2227299213409424,-0.09840350598096848,-0.16983237862586975,1.0144566200239176,1.0692192697637846,0,5,0,0
