time,roll,pitch,yaw,altitude,linear_velocity_x,linear_velocity_y,desired_roll,desired_pitch,desired_yaw,desired_altitude,desired_linear_velocity_x,desired_linear_velocity_y
0.004000000189989805,0.0,0.0,0.0,0.0,0.0,0.0,0.0,0.0,0,5,0,0
0.00800000037997961,0.0,0.0,0.0,0.06905829161405563,3.220294456696138e-05,1.8638236724655144e-05,-0.003944937824448157,-0.0021713992105998597,0,5,0,0
0.012000000569969416,0.0,0.0,0.0,0.06795962899923325,3.2203024602495134e-05,1.8638289475347847e-05,-0.00032219382435541983,-7.464855602116789e-05,0,5,0,0
0.01600000075995922,0.0,0.0,0.0,0.06711293011903763,0.002569218399003148,-0.001644426491111517,-0.31111272075244095,0.19367634205404222,0,5,0,0
0.020000000949949026,0.0,0.0,0.0,0.06610926985740662,0.0025691718328744173,-0.0016444368520751595,-0.025698966350986386,0.0065867168253864955,0,5,0,0
0.02400000113993883,0.0,0.0,0.0,0.06507460027933121,0.0050194598734378815,-0.00373620493337512,-0.3258765236204891,0.2502854884034581,0,5,0,0
0.028000001329928637,0.0,0.0,0.0,0.06404799968004227,0.006743425969034433,-0.00656101293861866,-0.2614211538718458,0.34406745438291386,0,5,0,0
0.03200000151991844,0.0,0.0,0.0,0.06302999705076218,0.007214857265353203,-0.008026323281228542,-0.12524262426741561,0.19700447914828226,0,5,0,0
0.03600000170990825,0.0,0.0,0.0,0.06202193349599838,0.007394379936158657,-0.010351776145398617,-0.09421587867771483,0.30309716394827335,0,5,0,0
0.04000000189989805,-0.12694463213597543,0.01801321536795696,0.06255252170181529,0.06099341809749603,0.006918664090335369,-0.011127904057502747,-0.015760995394596737,0.13192933373903826,0,5,0,0
0.04400000208988786,-0.12694463213597543,0.01801321536795696,0.06255252170181529,0.06019008904695511,-0.02424051985144615,-0.03353503346443176,3.7477790181129493,2.655125888034235,0,5,0,0
0.04800000227987766,-0.12694463213597543,0.01801321536795696,0.06255252170181529,0.05981879681348801,-0.02772057056427002,-0.035812534391880035,0.6687437142583911,0.3997387454509927,0,5,0,0
0.05200000246986747,-0.12694463213597543,0.01801321536795696,0.06255252170181529,0.05948096513748169,-0.029544813558459282,-0.03474375605583191,0.5007786922575461,0.019090617862669315,0,5,0,0
0.05600000265985727,0.13071079217156945,-0.31618760100936,0.18685684755036852,0.059153199195861816,-0.03096187487244606,-0.032377514988183975,0.4692156770536181,-0.1362611907402942,0,5,0,0
0.06000000284984708,0.13071079217156945,-0.31618760100936,0.18685684755036852,0.05884982645511627,-0.032138172537088394,-0.031238017603754997,0.4539698760530556,-0.0027355512251270864,0,5,0,0
0.06400000303983688,0.13071079217156945,-0.31618760100936,0.18685684755036852,0.058583274483680725,-0.033511802554130554,-0.030263464897871017,0.4899864931439696,0.011995145725478232,0,5,0,0
0.06800000322982669,0.13071079217156945,-0.31618760100936,0.18685684755036852,0.05835098400712013,-0.03607434034347534,-0.028777001425623894,0.6494505674895149,-0.051471601837285816,0,5,0,0
0.0720000034198165,0.831451607092661,-1.2476284000808116,0.2656980577010841,0.05810461938381195,-0.03788555786013603,-0.02746659331023693,0.583130141336996,-0.03684108776573526,0,5,0,0
0.0760000036098063,0.831451607092661,-1.2476284000808116,0.2656980577010841,0.057831134647130966,-0.03860266134142876,-0.026820208877325058,0.46730599940900497,0.0353404037372418,0,5,0,0
0.0800000037997961,0.831451607092661,-1.2476284000808116,0.2656980577010841,0.057542216032743454,-0.0384671576321125,-0.02699599787592888,0.3701249791109094,0.1286028567818989,0,5,0,0
0.08400000398978591,0.831451607092661,-1.2476284000808116,0.2656980577010841,0.05732885003089905,-0.0554378405213356,-0.04207463562488556,2.464410759756113,1.8655887916898972,0,5,0,0
0.08800000417977571,1.4050340105030275,-2.1439809397916014,0.3093243350416706,0.057372476905584335,-0.05452314391732216,-0.04442000761628151,0.44328955184834823,0.44258455799297614,0,5,0,0
0.09200000436976552,1.4050340105030275,-2.1439809397916014,0.3093243350416706,0.0574023611843586,-0.053393639624118805,-0.04732874408364296,0.4079567897714511,0.5177115933894194,0,5,0,0
0.09600000455975533,1.4050340105030275,-2.1439809397916014,0.3093243350416706,0.057481151074171066,-0.05422595143318176,-0.050118234008550644,0.63711435117377,0.5155746014675247,0,5,0,0
0.10000000474974513,1.4050340105030275,-2.1439809397916014,0.3093243350416706,0.05760699883103371,-0.05420251190662384,-0.05298340320587158,0.5407380212582721,0.535676356172644,0,5,0,0
0.10400000493973494,1.0342789913361037,-2.0762491623883848,0.30726616826214087,0.05771491676568985,-0.053528014570474625,-0.055418118834495544,0.4608775150377337,0.4971221980003629,0,5,0,0
0.10800000512972474,1.0342789913361037,-2.0762491623883848,0.30726616826214087,0.05781467258930206,-0.05374312773346901,-0.05691889300942421,0.5632388065804186,0.39819349149954925,0,5,0,0
0.11200000531971455,1.0342789913361037,-2.0762491623883848,0.30726616826214087,0.05789431184530258,-0.05499863997101784,-0.05828101933002472,0.6929708160261477,0.3881839883639292,0,5,0,0
0.11600000550970435,1.0342789913361037,-2.0762491623883848,0.30726616826214087,0.057983074337244034,-0.05734042823314667,-0.058209627866744995,0.8387323626425064,0.226767382597749,0,5,0,0
0.12000000569969416,0.4205886690038854,-1.7670621947568415,0.3287223397464591,0.05805622786283493,-0.06039299815893173,-0.0576118603348732,0.949365938466114,0.16529727603769592,0,5,0,0
0.12400000588968396,0.4205886690038854,-1.7670621947568415,0.3287223397464591,0.05811164155602455,-0.06415418535470963,-0.056277524679899216,1.0668512195637803,0.07723108957027539,0,5,0,0
0.12800000607967377,0.4205886690038854,-1.7670621947568415,0.3287223397464591,0.0581672266125679,-0.06789052486419678,-0.054491180926561356,1.1015821873511293,0.019365584746711823,0,5,0,0
0.13200000626966357,0.4205886690038854,-1.7670621947568415,0.3287223397464591,0.05824949964880943,-0.07045180350542068,-0.052483003586530685,0.9951697166990917,-0.01349744271640202,0,5,0,0
0.13600000645965338,0.34104869626769374,-1.7192244010562208,0.39389789962548005,0.05831988528370857,-0.07318419218063354,-0.05025697872042656,1.0419191234302334,-0.0467887709453641,0,5,0,0
0.14000000664964318,0.34104869626769374,-1.7192244010562208,0.39389789962548005,0.05837168172001839,-0.07510491460561752,-0.04866138473153114,0.9699941506700476,0.017869110745252825,0,5,0,0
0.144000006839633,0.34104869626769374,-1.7192244010562208,0.39389789962548005,0.05840697139501572,-0.07611186057329178,-0.0481010377407074,0.8774464322562292,0.13220844702927761,0,5,0,0
0.1480000070296228,0.34104869626769374,-1.7192244010562208,0.39389789962548005,0.05843598395586014,-0.0761689767241478,-0.04808313772082329,0.7713445500009388,0.1932775278179161,0,5,0,0
0.1520000072196126,0.7229201068174786,-1.9901730376230362,0.46902961301300927,0.05845241993665695,-0.07561477273702621,-0.04936633259057999,0.6972104733369981,0.34490195463302625,0,5,0,0
0.1560000074096024,0.7229201068174786,-1.9901730376230362,0.46902961301300927,0.05846604332327843,-0.07471638172864914,-0.05157100409269333,0.649684844525801,0.45751052727342695,0,5,0,0
0.1600000075995922,0.7229201068174786,-1.9901730376230362,0.46902961301300927,0.05847018584609032,-0.07349742949008942,-0.0543665736913681,0.6016085792967174,0.5352993181569017,0,5,0,0
0.16400000778958201,0.7229201068174786,-1.9901730376230362,0.46902961301300927,0.05852494016289711,-0.07351473718881607,-0.05769215524196625,0.7410373280004255,0.6083664472977315,0,5,0,0
0.16800000797957182,0.9402425893473504,-2.0944818109554726,0.5256935982060119,0.05857732519507408,-0.07326212525367737,-0.060581274330616,0.7083210803904518,0.5709662940806565,0,5,0,0
0.17200000816956162,0.9402425893473504,-2.0944818109554726,0.5256935982060119,0.058621954172849655,-0.07370979338884354,-0.06295361369848251,0.7917561694220264,0.5224690244054548,0,5,0,0
0.17600000835955143,0.9402425893473504,-2.0944818109554726,0.5256935982060119,0.05866434797644615,-0.07514732331037521,-0.06422161310911179,0.9176712678986844,0.40345691463856437,0,5,0,0
0.18000000854954123,0.9402425893473504,-2.0944818109554726,0.5256935982060119,0.058721549808979034,-0.07757841795682907,-0.06535471975803375,1.0539444288198316,0.39297075759784417,0,5,0,0
0.18400000873953104,0.9237847047186247,-1.726956982548421,0.5965633501921345,0.0587674155831337,-0.08039029687643051,-0.06486598402261734,1.12509438343191,0.20871423345341428,0,5,0,0
0.18800000892952085,0.9237847047186247,-1.726956982548421,0.5965633501921345,0.05881267040967941,-0.08360572904348373,-0.0635584145784378,1.2028490970436307,0.11151770801848604,0,5,0,0
0.19200000911951065,0.9237847047186247,-1.726956982548421,0.5965633501921345,0.05885128304362297,-0.08708204329013824,-0.06169283390045166,1.2671704689851302,0.041427187293403916,0,5,0,0
0.19600000930950046,0.9237847047186247,-1.726956982548421,0.5965633501921345,0.05893692374229431,-0.08840152621269226,-0.06175510957837105,1.0379339494473008,0.2587083320130526,0,5,0,0
0.20000000949949026,1.02446326915266,-1.4783992226489187,0.663924839587257,0.05901828035712242,-0.09107077121734619,-0.05978108569979668,1.2166931963789798,0.021872021886592735,0,5,0,0
0.20400000968948007,1.02446326915266,-1.4783992226489187,0.663924839587257,0.05909254774451256,-0.0931081473827362,-0.05820360407233238,1.1662051765563894,0.06031278516411878,0,5,0,0
0.20800000987946987,1.02446326915266,-1.4783992226489187,0.663924839587257,0.05918973684310913,-0.09487901628017426,-0.057851534336805344,1.1541595089601338,0.19690218120601186,0,5,0,0
0.21200001006945968,1.02446326915266,-1.4783992226489187,0.663924839587257,0.05933546647429466,-0.09414579719305038,-0.05757738649845123,0.8653433831301759,0.20470998860233677,0,5,0,0
0.21600001025944948,1.2557742690366376,-1.6532926720834813,0.7322985992069175,0.05947462469339371,-0.09418932348489761,-0.058604009449481964,0.9533885514194874,0.35529383689099303,0,5,0,0
0.2200000104494393,1.2557742690366376,-1.6532926720834813,0.7322985992069175,0.05962199717760086,-0.09402833878993988,-0.060764946043491364,0.9289968875709632,0.491693697918399,0,5,0,0
0.2240000106394291,1.2557742690366376,-1.6532926720834813,0.7322985992069175,0.059789180755615234,-0.093413807451725,-0.06445076316595078,0.8720517723944287,0.6781406995496656,0,5,0,0
0.2280000108294189,1.2557742690366376,-1.6532926720834813,0.7322985992069175,0.06001850217580795,-0.09378059953451157,-0.06832746416330338,0.9863436462908635,0.7152859243663596,0,5,0,0
0.2320000110194087,1.1971612719504245,-1.7798117873484813,0.7850111114654087,0.060258299112319946,-0.09365200251340866,-0.07213450223207474,0.9295511693560707,0.7228501203618769,0,5,0,0
0.2360000112093985,1.1971612719504245,-1.7798117873484813,0.7850111114654087,0.06052393466234207,-0.09419545531272888,-0.07571909576654434,1.0108173676592895,0.7123452114179031,0,5,0,0
0.2400000113993883,1.1971612719504245,-1.7798117873484813,0.7850111114654087,0.06078929454088211,-0.0948612242937088,-0.07805556058883667,1.0314632942013313,0.5814639306107694,0,5,0,0
0.24400001158937812,1.1971612719504245,-1.7798117873484813,0.7850111114654087,0.06106866896152496,-0.09645327925682068,-0.07953964173793793,1.1518224997539321,0.4916979916770977,0,5,0,0
0.24800001177936792,0.952817991041054,-1.3000814875042874,0.834522882505217,0.06134432554244995,-0.09823601692914963,-0.07967697083950043,1.1913374466970643,0.34092893467065477,0,5,0,0
0.25200001196935773,0.952817991041054,-1.3000814875042874,0.834522882505217,0.06162441521883011,-0.10023403912782669,-0.07883606106042862,1.2357777384529656,0.227702633265723,0,5,0,0
0.25600001215934753,0.952817991041054,-1.3000814875042874,0.834522882505217,0.06190863251686096,-0.1024990901350975,-0.07689789682626724,1.2887149858936207,0.09669341095578851,0,5,0,0
0.26000001234933734,0.952817991041054,-1.3000814875042874,0.834522882505217,0.06224089860916138,-0.10396045446395874,-0.0759267657995224,1.21316338725819,0.20178234176243715,0,5,0,0
0.26400001253932714,0.9227190060421195,-0.8664939020586111,0.8832599418160126,0.06257814168930054,-0.10536710172891617,-0.07327850908041,1.2213270715671252,0.0026885518864431246,0,5,0,0
0.26800001272931695,0.9227190060421195,-0.8664939020586111,0.8832599418160126,0.06292443722486496,-0.10634437948465347,-0.07088729739189148,1.18305100815444,0.022211399222490325,0,5,0,0
0.27200001291930676,0.9227190060421195,-0.8664939020586111,0.8832599418160126,0.06328056007623672,-0.10728441923856735,-0.06947357207536697,1.1885196133058258,0.12669044616345754,0,5,0,0
0.27600001310929656,0.9227190060421195,-0.8664939020586111,0.8832599418160126,0.06368361413478851,-0.10667634755373001,-0.06991440802812576,1.0085323911165056,0.3372597174463211,0,5,0,0
0.28000001329928637,0.9974559893325017,-1.0113033140784011,0.933459798098628,0.06408622115850449,-0.10674384236335754,-0.06983485817909241,1.085464751464055,0.27856572179682426,0,5,0,0
0.28400001348927617,0.9974559893325017,-1.0113033140784011,0.933459798098628,0.06449776887893677,-0.10672033578157425,-0.07094486057758331,1.0752481584168079,0.41700062055441234,0,5,0,0
0.288000013679266,0.9974559893325017,-1.0113033140784011,0.933459798098628,0.0649411678314209,-0.10678920149803162,-0.07363271713256836,1.0865849927356364,0.6054373494782499,0,5,0,0
0.2920000138692558,0.9974559893325017,-1.0113033140784011,0.933459798098628,0.06539410352706909,-0.10651113837957382,-0.07675845175981522,1.0450304962211567,0.6673857890698792,0,5,0,0
0.2960000140592456,0.938499432038926,-1.1646846239539923,0.9590225337383891,0.06586471199989319,-0.10650678724050522,-0.08047878742218018,1.0760351973507032,0.7493528940918843,0,5,0,0
0.3000000142492354,0.938499432038926,-1.1646846239539923,0.9590225337383891,0.06636718660593033,-0.10693346709012985,-0.08421488851308823,1.1290496201049467,0.7662730248244036,0,5,0,0
0.3040000144392252,0.938499432038926,-1.1646846239539923,0.9590225337383891,0.06687585264444351,-0.10732957720756531,-0.08747934550046921,1.1298292175689,0.7264808440865184,0,5,0,0
0.308000014629215,0.938499432038926,-1.1646846239539923,0.9590225337383891,0.06741839647293091,-0.10851834714412689,-0.08971697837114334,1.2311515863961733,0.6201289886848091,0,5,0,0
0.3120000148192048,0.8222606300238939,-0.7293613340552845,0.9500776315342617,0.06796500831842422,-0.10952726751565933,-0.090732641518116,1.2212705804612616,0.48693781223582,0,5,0,0
0.3160000150091946,0.8222606300238939,-0.7293613340552845,0.9500776315342617,0.0685148760676384,-0.11064014583826065,-0.0906083956360817,1.2443601689896522,0.3584185291953172,0,5,0,0
0.3200000151991844,0.8222606300238939,-0.7293613340552845,0.9500776315342617,0.06907811760902405,-0.11172153055667877,-0.08918456733226776,1.25189911755758,0.20673424344588734,0,5,0,0
0.3240000153891742,0.8222606300238939,-0.7293613340552845,0.9500776315342617,0.06968829035758972,-0.11169728636741638,-0.08892161399126053,1.1275415029588005,0.33649426907823543,0,5,0,0
0.32800001557916403,0.8571224526876523,-0.18160327615915772,0.9481322934442697,0.07031384855508804,-0.11227213591337204,-0.08677789568901062,1.2009574935681426,0.11654161473877855,0,5,0,0
0.33200001576915383,0.8571224526876523,-0.18160327615915772,0.9481322934442697,0.07095993310213089,-0.11259535700082779,-0.08441568911075592,1.176151733075665,0.08271545620619347,0,5,0,0
0.33600001595914364,0.8571224526876523,-0.18160327615915772,0.9481322934442697,0.07163123786449432,-0.11320598423480988,-0.08254285156726837,1.214862889739023,0.1304762226817932,0,5,0,0
0.34000001614913344,0.8571224526876523,-0.18160327615915772,0.9481322934442697,0.07234946638345718,-0.11185985058546066,-0.08301201462745667,0.9815344279807957,0.3960271591662538,0,5,0,0
0.34400001633912325,0.9063315840171559,-0.235758592638637,0.9667598008473586,0.07307471334934235,-0.11168091744184494,-0.08186717331409454,1.1113231814173548,0.21006879173804247,0,5,0,0
0.34800001652911305,0.9063315840171559,-0.235758592638637,0.9667598008473586,0.07380945235490799,-0.11152254790067673,-0.08153564482927322,1.112320545298811,0.30043605222057523,0,5,0,0
0.35200001671910286,0.9063315840171559,-0.235758592638637,0.9667598008473586,0.07457947731018066,-0.111661396920681,-0.08260267972946167,1.1474141094079204,0.46224081160252284,0,5,0,0
0.35600001690909266,0.9063315840171559,-0.235758592638637,0.9667598008473586,0.07537176460027695,-0.11103587597608566,-0.08437459915876389,1.0554337691438935,0.5488304941261056,0,5,0,0
0.36000001709908247,0.8419127561764193,-0.4587797134413687,0.9698871254395263,0.07617916166782379,-0.11087850481271744,-0.08709734678268433,1.1067930138209103,0.6668986850778293,0,5,0,0
0.3640000172890723,0.8419127561764193,-0.4587797134413687,0.9698871254395263,0.07701724022626877,-0.11100111901760101,-0.09030033648014069,1.1397839110002779,0.733954595392136,0,5,0,0
0.3680000174790621,0.8419127561764193,-0.4587797134413687,0.9698871254395263,0.07787354290485382,-0.11108614504337311,-0.09380382299423218,1.1366721080695754,0.7819995609001399,0,5,0,0
0.3720000176690519,0.8419127561764193,-0.4587797134413687,0.9698871254395263,0.07878367602825165,-0.11092846840620041,-0.09652914851903915,1.1080575217502522,0.7055894258303836,0,5,0,0
0.3760000178590417,0.7639762056562434,-0.3371749742451702,0.9288884397235144,0.07970856130123138,-0.1112341582775116,-0.09898851811885834,1.1635101121843654,0.6857444365444287,0,5,0,0
0.3800000180490315,0.7639762056562434,-0.3371749742451702,0.9288884397235144,0.08064628392457962,-0.11174268275499344,-0.10050521045923233,1.1916824315208931,0.586001231772061,0,5,0,0
0.3840000182390213,0.7639762056562434,-0.3371749742451702,0.9288884397235144,0.08159787207841873,-0.11216530948877335,-0.10090554505586624,1.1865143999067753,0.4622545032726904,0,5,0,0
0.3880000184290111,0.7639762056562434,-0.3371749742451702,0.9288884397235144,0.08258088678121567,-0.11252524703741074,-0.09986633062362671,1.18333130300531,0.29638806669252776,0,5,0,0
0.3920000186190009,0.7217006202437702,0.11731666151101441,0.9062226628836416,0.08358199894428253,-0.11296229064464569,-0.09807714074850082,1.1966472797682965,0.2050944590237522,0,5,0,0
0.3960000188089907,0.7217006202437702,0.11731666151101441,0.9062226628836416,0.08460525423288345,-0.11320959776639938,-0.09579271823167801,1.178046700430586,0.14047300194648943,0,5,0,0
0.4000000189989805,0.7217006202437702,0.11731666151101441,0.9062226628836416,0.08566003292798996,-0.11312984675168991,-0.09340491890907288,1.1407266633241084,0.11951608637397759,0,5,0,0
0.4040000191889703,0.7217006202437702,0.11731666151101441,0.9062226628836416,0.0867617279291153,-0.11166953295469284,-0.09351778775453568,0.97107822661559,0.40151716000251464,0,5,0,0
0.40800001937896013,0.8061767337705492,0.012923975671462907,0.9292356524513501,0.08787962794303894,-0.11139750480651855,-0.09182555228471756,1.1023074283010843,0.19189437363559836,0,5,0,0
0.41200001956894994,0.8061767337705492,0.012923975671462907,0.9292356524513501,0.08901184797286987,-0.1110992580652237,-0.09092869609594345,1.0966420075341903,0.27800534262886845,0,5,0,0
0.41600001975893974,0.8061767337705492,0.012923975671462907,0.9292356524513501,0.09019017219543457,-0.11129563301801682,-0.09110334515571594,1.1545178045359572,0.39946692164266123,0,5,0,0
0.42000001994892955,0.8061767337705492,0.012923975671462907,0.9292356524513501,0.09139208495616913,-0.11075527220964432,-0.09216027706861496,1.066497239923749,0.503172650232016,0,5,0,0
0.42400002013891935,0.7994704521628357,-0.4923746154254665,0.9353932985295795,0.09261515736579895,-0.11063803732395172,-0.09430281817913055,1.1131920864095435,0.6341001703794106,0,5,0,0
0.42800002032890916,0.7994704521628357,-0.4923746154254665,0.9353932985295795,0.09386702626943588,-0.11071688681840897,-0.09708750247955322,1.1363057936141887,0.7177130230313971,0,5,0,0
0.43200002051889896,0.7994704521628357,-0.4923746154254665,0.9353932985295795,0.09514599293470383,-0.11090859770774841,-0.10056589543819427,1.1511859894759016,0.8099101733692384,0,5,0,0
0.43600002070888877,0.7994704521628357,-0.4923746154254665,0.9353932985295795,0.09647297859191895,-0.11111383885145187,-0.10337824374437332,1.155027227682499,0.746477654547735,0,5,0,0
0.4400000208988786,0.7693996108466384,-0.663072979558624,0.8855999741609721,0.09782341867685318,-0.11145578324794769,-0.10645881295204163,1.1740932807486293,0.7892302825259417,0,5,0,0
0.4440000210888684,0.7693996108466384,-0.663072979558624,0.8855999741609721,0.09919897466897964,-0.11210648715496063,-0.1087578609585762,1.2156048186840411,0.7107663624792635,0,5,0,0
0.4480000212788582,0.7693996108466384,-0.663072979558624,0.8855999741609721,0.10059357434511185,-0.11266427487134933,-0.10997944325208664,1.2110000191717298,0.5947017553718298,0,5,0,0
0.452000021468848,0.7693996108466384,-0.663072979558624,0.8855999741609721,0.10204704850912094,-0.11406705528497696,-0.1101231500506401,1.3203632581778846,0.47427989071564725,0,5,0,0
0.4560000216588378,0.7614136578678314,-0.3279903618101005,0.8367355815307751,0.10352250188589096,-0.11483543366193771,-0.10896290093660355,1.2569524212662522,0.3232053720354322,0,5,0,0
0.4600000218488276,0.7614136578678314,-0.3279903618101005,0.8367355815307751,0.10502465069293976,-0.11545522511005402,-0.10705137997865677,1.2467113995998085,0.23129813310229094,0,5,0,0
0.4640000220388174,0.7614136578678314,-0.3279903618101005,0.8367355815307751,0.10655909031629562,-0.11589673161506653,-0.10445687919855118,1.2313475616725038,0.14433560016046337,0,5,0,0
0.4680000222288072,0.7614136578678314,-0.3279903618101005,0.8367355815307751,0.10814169049263,-0.11525318771600723,-0.10322236269712448,1.103120565685416,0.2926434919213463,0,5,0,0
0.472000022418797,0.8770328993015468,-0.16943245753890537,0.8277169706939671,0.1097492128610611,-0.11565933376550674,-0.10144957900047302,1.225549722198519,0.2252407795493314,0,5,0,0
0.4760000226087868,0.8770328993015468,-0.16943245753890537,0.8277169706939671,0.11138150095939636,-0.11580656468868256,-0.10038234293460846,1.1981720168708185,0.30058685761381726,0,5,0,0
0.4800000227987766,0.8770328993015468,-0.16943245753890537,0.8277169706939671,0.11305748671293259,-0.11618024855852127,-0.10060470551252365,1.2276636434685235,0.44679759976447614,0,5,0,0
0.48400002298876643,0.8770328993015468,-0.16943245753890537,0.8277169706939671,0.11479055881500244,-0.11548438668251038,-0.10165819525718689,1.100658296556614,0.5447573402413928,0,5,0,0
0.48800002317875624,0.9571529172603441,-0.5409231412949741,0.8190769030024856,0.11654959619045258,-0.11518725007772446,-0.10368456691503525,1.142819970804308,0.6625608798799691,0,5,0,0
0.49200002336874604,0.9571529172603441,-0.5409231412949741,0.8190769030024856,0.11834800988435745,-0.11499587446451187,-0.10646500438451767,1.153080315770876,0.7587705455600674,0,5,0,0
0.49600002355873585,0.9571529172603441,-0.5409231412949741,0.8190769030024856,0.12018120288848877,-0.11471660435199738,-0.11005650460720062,1.1406748038074488,0.8646452374755782,0,5,0,0
0.5000000237487257,0.9571529172603441,-0.5409231412949741,0.8190769030024856,0.12206245958805084,-0.11458639055490494,-0.11276111006736755,1.156416507875423,0.7759586299492985,0,5,0,0
0.5040000239387155,0.900858022696009,-0.7327278471160834,0.7796897198008657,0.1239745169878006,-0.1144406870007515,-0.11605478823184967,1.153491532409142,0.8556825501999832,0,5,0,0
0.5080000241287053,0.900858022696009,-0.7327278471160834,0.7796897198008657,0.1259194016456604,-0.1147102415561676,-0.11873139441013336,1.2031789176637722,0.7972533351232154,0,5,0,0
0.5120000243186951,0.900858022696009,-0.7327278471160834,0.7796897198008657,0.1278911978006363,-0.11497560888528824,-0.1203378289937973,1.2056374694935434,0.6835735855848744,0,5,0,0
0.5160000245086849,0.900858022696009,-0.7327278471160834,0.7796897198008657,0.12992843985557556,-0.11645032465457916,-0.1209351047873497,1.356715801035947,0.5727225745292137,0,5,0,0
0.5200000246986747,0.8025845369198576,-0.3863939935187085,0.7398702615257139,0.13199125230312347,-0.117479607462883,-0.12018006294965744,1.317179374459395,0.4178551130542587,0,5,0,0
0.5240000248886645,0.8025845369198576,-0.3863939935187085,0.7398702615257139,0.1340852826833725,-0.11852703988552094,-0.1186104267835617,1.3299799951106162,0.3202193758350412,0,5,0,0
0.5280000250786543,0.8025845369198576,-0.3863939935187085,0.7398702615257139,0.13621866703033447,-0.1195567175745964,-0.1161685585975647,1.3385663007062727,0.21260461006677578,0,5,0,0
0.5320000252686441,0.8025845369198576,-0.3863939935187085,0.7398702615257139,0.13839901983737946,-0.11875738203525543,-0.11588515341281891,1.1250939846196997,0.4545761898162887,0,5,0,0
0.5360000254586339,0.864609231825087,-0.16743975877932268,0.7324597040581523,0.14060992002487183,-0.11929423362016678,-0.11382194608449936,1.2810698509816199,0.2463688015448472,0,5,0,0
0.5400000256486237,0.864609231825087,-0.16743975877932268,0.7324597040581523,0.14285314083099365,-0.119600310921669,-0.1122196763753891,1.2584555591060957,0.29208452964254134,0,5,0,0
0.5440000258386135,0.864609231825087,-0.16743975877932268,0.7324597040581523,0.1451413333415985,-0.12027692794799805,-0.11176004260778427,1.3071961110732233,0.4190607560008489,0,5,0,0
0.5480000260286033,0.864609231825087,-0.16743975877932268,0.7324597040581523,0.14747966825962067,-0.11847519874572754,-0.11197913438081741,1.0106492220665158,0.4965624927232872,0,5,0,0
0.5520000262185931,0.9631987682596148,-0.490963627884583,0.7351371107728035,0.1498456448316574,-0.11839111149311066,-0.11288241297006607,1.2033271983793028,0.5774175380525964,0,5,0,0
0.5560000264085829,0.9631987682596148,-0.490963627884583,0.7351371107728035,0.15225204825401306,-0.1185227781534195,-0.11474839597940445,1.229200633714741,0.6934611083692993,0,5,0,0
0.5600000265985727,0.9631987682596148,-0.490963627884583,0.7351371107728035,0.15470966696739197,-0.11860341578722,-0.11824548989534378,1.2245508930546398,0.8912332414991111,0,5,0,0
0.5640000267885625,0.9631987682596148,-0.490963627884583,0.7351371107728035,0.15721870958805084,-0.11890024691820145,-0.12078869342803955,1.2521263322482454,0.7943832854900681,0,5,0,0
0.5680000269785523,0.863692185878247,-0.7347263798858996,0.7006284458621619,0.1597667783498764,-0.11903955042362213,-0.1243349090218544,1.2360832052031963,0.9217054031774918,0,5,0,0
0.5720000271685421,0.863692185878247,-0.7347263798858996,0.7006284458621619,0.1623750925064087,-0.1196679025888443,-0.12775932252407074,1.2976719014497262,0.9220069449209913,0,5,0,0
0.576000027358532,0.863692185878247,-0.7347263798858996,0.7006284458621619,0.1650158017873764,-0.11984196305274963,-0.1303286850452423,1.2485923128431144,0.8364039530660395,0,5,0,0
0.5800000275485218,0.863692185878247,-0.7347263798858996,0.7006284458621619,0.16771183907985687,-0.12016209214925766,-0.13203658163547516,1.2685147132303412,0.7466375146105527,0,5,0,0
0.5840000277385116,0.6767904549373946,-0.3678279315180159,0.6522476683358733,0.17043668031692505,-0.12105121463537216,-0.13265906274318695,1.3417082143107435,0.6273365848233644,0,5,0,0
0.5880000279285014,0.6767904549373946,-0.3678279315180159,0.6522476683358733,0.17319338023662567,-0.12192974984645844,-0.13230054080486298,1.349595129451034,0.5158571809460113,0,5,0,0
0.5920000281184912,0.6767904549373946,-0.3678279315180159,0.6522476683358733,0.175982266664505,-0.12283158302307129,-0.13070470094680786,1.3615292780276684,0.3705892534527721,0,5,0,0
0.596000028308481,0.6767904549373946,-0.3678279315180159,0.6522476683358733,0.17882247269153595,-0.12346906960010529,-0.12955257296562195,1.338461478539028,0.41620925149474136,0,5,0,0
0.6000000284984708,0.5609359942543174,0.012773939308758578,0.6316019942963089,0.18169879913330078,-0.1234845221042633,-0.12688176333904266,1.2689335365730037,0.23497885224316656,0,5,0,0
0.6040000286884606,0.5609359942543174,0.012773939308758578,0.6316019942963089,0.184617817401886,-0.12310963124036789,-0.12417126446962357,1.2215664642428339,0.21996982820697103,0,5,0,0
0.6080000288784504,0.5609359942543174,0.012773939308758578,0.6316019942963089,0.18756787478923798,-0.12284804880619049,-0.12194335460662842,1.2319926729700164,0.26564211346394506,0,5,0,0
0.6120000290684402,0.5609359942543174,0.012773939308758578,0.6316019942963089,0.19056475162506104,-0.12133760750293732,-0.1221727579832077,1.0766828541115299,0.54330066792491,0,5,0,0
0.61600002925843,0.45776975594668434,-0.2554838601691675,0.6170593894538435,0.19359122216701508,-0.12069235742092133,-0.12118576467037201,1.1678540227290042,0.40279891946317625,0,5,0,0
0.6200000294484198,0.45776975594668434,-0.2554838601691675,0.6170593894538435,0.19664907455444336,-0.12023314833641052,-0.12114354968070984,1.1844801026788399,0.5092083603462042,0,5,0,0
0.6240000296384096,0.45776975594668434,-0.2554838601691675,0.6170593894538435,0.19976279139518738,-0.12036343663930893,-0.12242264300584793,1.2523903109030576,0.6632657263585935,0,5,0,0
0.6280000298283994,0.45776975594668434,-0.2554838601691675,0.6170593894538435,0.2029281109571457,-0.1204826608300209,-0.1241227462887764,1.252626998648051,0.7177276520973157,0,5,0,0
0.6320000300183892,0.32295548572577226,-0.6272574281111128,0.5669052922148774,0.20613376796245575,-0.12081341445446014,-0.1268514096736908,1.2800215472649232,0.8446597550119948,0,5,0,0
0.636000030208379,0.32295548572577226,-0.6272574281111128,0.5669052922148774,0.20939204096794128,-0.12156154215335846,-0.1297813057899475,1.334749153115355,0.8793294958264426,0,5,0,0
0.6400000303983688,0.32295548572577226,-0.6272574281111128,0.5669052922148774,0.21268364787101746,-0.12229738384485245,-0.13269321620464325,1.3410189079981267,0.8892722098897394,0,5,0,0
0.6440000305883586,0.32295548572577226,-0.6272574281111128,0.5669052922148774,0.21602734923362732,-0.12280572950839996,-0.1348743885755539,1.3208037964700596,0.8161125719001865,0,5,0,0
0.6480000307783484,0.41510348045855927,-0.4056196044168921,0.4693077714250185,0.21940475702285767,-0.12373858690261841,-0.13656726479530334,1.3781869104670326,0.7682785238338191,0,5,0,0
0.6520000309683383,0.41510348045855927,-0.4056196044168921,0.4693077714250185,0.22281335294246674,-0.12469024956226349,-0.13725945353507996,1.390118385936658,0.6587993653472486,0,5,0,0
0.6560000311583281,0.41510348045855927,-0.4056196044168921,0.4693077714250185,0.22625544667243958,-0.12539851665496826,-0.13684818148612976,1.370120013337763,0.5333433799671505,0,5,0,0
0.6600000313483179,0.41510348045855927,-0.4056196044168921,0.4693077714250185,0.22975605726242065,-0.12558521330356598,-0.1354672610759735,1.313611712174933,0.41905938431414935,0,5,0,0
0.6640000315383077,0.614382417940189,0.0503919152740637,0.39782980768421955,0.23329555988311768,-0.12576603889465332,-0.13319583237171173,1.3150613126549449,0.31011116118150384,0,5,0,0
0.6680000317282975,0.614382417940189,0.0503919152740637,0.39782980768421955,0.23687680065631866,-0.1255793422460556,-0.130667045712471,1.2721494866039458,0.27135684690919776,0,5,0,0
0.6720000319182873,0.614382417940189,0.0503919152740637,0.39782980768421955,0.24049876630306244,-0.12506002187728882,-0.12835942208766937,1.229836260241382,0.28731525523025464,0,5,0,0
0.6760000321082771,0.614382417940189,0.0503919152740637,0.39782980768421955,0.24417100846767426,-0.12427960336208344,-0.12768766283988953,1.1929568060723903,0.4689694023182771,0,5,0,0
0.6800000322982669,0.7723803332159755,-0.1359899401707262,0.3593715271479922,0.24787652492523193,-0.12383193522691727,-0.126654252409935,1.2262117373557615,0.4244539747564986,0,5,0,0
0.6840000324882567,0.7723803332159755,-0.1359899401707262,0.3593715271479922,0.25161489844322205,-0.12332966923713684,-0.12666113674640656,1.215342810325823,0.5418186545091728,0,5,0,0
0.6880000326782465,0.7723803332159755,-0.1359899401707262,0.3593715271479922,0.25541284680366516,-0.1231614276766777,-0.12788762152194977,1.251533728675493,0.6842365667962481,0,5,0,0
0.6920000328682363,0.7723803332159755,-0.1359899401707262,0.3593715271479922,0.2592577040195465,-0.12288562953472137,-0.13032925128936768,1.2369705579371117,0.8310196811766919,0,5,0,0
0.6960000330582261,0.7543004428499094,-0.5834675359348208,0.30008624542845946,0.26314717531204224,-0.12267418205738068,-0.13327181339263916,1.2423899506400298,0.8994646670639262,0,5,0,0
0.7000000332482159,0.7543004428499094,-0.5834675359348208,0.30008624542845946,0.2670874297618866,-0.12274391949176788,-0.13652704656124115,1.2750152114715623,0.94798875784458,0,5,0,0
0.7040000334382057,0.7543004428499094,-0.5834675359348208,0.30008624542845946,0.2710791826248169,-0.1231120228767395,-0.13986711204051971,1.3125578820366555,0.9712283353443518,0,5,0,0
0.7080000336281955,0.7543004428499094,-0.5834675359348208,0.30008624542845946,0.27511945366859436,-0.12321776896715164,-0.14240387082099915,1.2843958713642993,0.8913451404500103,0,5,0,0
0.7120000338181853,0.6265676713886814,-0.39318605452504135,0.22752932969137352,0.2791961133480072,-0.12369988113641739,-0.14463333785533905,1.3318550546457177,0.8660398088160154,0,5,0,0
0.7160000340081751,0.6265676713886814,-0.39318605452504135,0.22752932969137352,0.2833074629306793,-0.12443673610687256,-0.14577525854110718,1.3681808163037124,0.7486083937931428,0,5,0,0
0.7200000341981649,0.6265676713886814,-0.39318605452504135,0.22752932969137352,0.2874552309513092,-0.12515060603618622,-0.14587005972862244,1.373034060060002,0.6315367487449773,0,5,0,0
0.7240000343881547,0.6265676713886814,-0.39318605452504135,0.22752932969137352,0.29163217544555664,-0.12575678527355194,-0.1445082277059555,1.3672824664639496,0.46256501205524636,0,5,0,0
0.7280000345781446,0.6091842692541237,0.1322853042566893,0.1795192731217573,0.29585176706314087,-0.12639577686786652,-0.14246106147766113,1.3776671222674008,0.3776181592348258,0,5,0,0
0.7320000347681344,0.6091842692541237,0.1322853042566893,0.1795192731217573,0.30011361837387085,-0.12681753933429718,-0.13999053835868835,1.357750833314382,0.32044439612782477,0,5,0,0
0.7360000349581242,0.6091842692541237,0.1322853042566893,0.1795192731217573,0.3044285476207733,-0.12675875425338745,-0.1375502198934555,1.3034056070219364,0.31441126619466214,0,5,0,0
0.740000035148114,0.6091842692541237,0.1322853042566893,0.1795192731217573,0.3087904155254364,-0.12529756128787994,-0.13752931356430054,1.1313235120047,0.5868415636269965,0,5,0,0
0.7440000353381038,0.743172964882154,0.0343032987971231,0.1741354211191074,0.3131883144378662,-0.12490684539079666,-0.13584363460540771,1.2481447939547143,0.39313796058010586,0,5,0,0
0.7480000355280936,0.743172964882154,0.0343032987971231,0.1741354211191074,0.31762102246284485,-0.12440993636846542,-0.13510353863239288,1.2315275615699124,0.4968799060547515,0,5,0,0
0.7520000357180834,0.743172964882154,0.0343032987971231,0.1741354211191074,0.3221088647842407,-0.12425944209098816,-0.13557124137878418,1.2692924984153404,0.6349534375144417,0,5,0,0
0.7560000359080732,0.743172964882154,0.0343032987971231,0.1741354211191074,0.32663694024086,-0.12333003431558609,-0.1369803547859192,1.172666648403291,0.7468273383133577,0,5,0,0
0.760000036098063,0.7641073005399337,-0.4507410482325278,0.15227855348805489,0.3312087655067444,-0.1229085698723793,-0.13938941061496735,1.2258906067107205,0.8692916133529893,0,5,0,0
0.7640000362880528,0.7641073005399337,-0.4507410482325278,0.15227855348805489,0.3358319103717804,-0.12276023626327515,-0.14240197837352753,1.255429112577786,0.9495787379968185,0,5,0,0
0.7680000364780426,0.7641073005399337,-0.4507410482325278,0.15227855348805489,0.3405033051967621,-0.12282784283161163,-0.14601345360279083,1.2806932339061525,1.0317521584730247,0,5,0,0
0.7720000366680324,0.7641073005399337,-0.4507410482325278,0.15227855348805489,0.3452227711677551,-0.12294615805149078,-0.14874286949634552,1.2878761799258727,0.9437951343970223,0,5,0,0
0.7760000368580222,0.6879054049504549,-0.533924063224096,0.09678535759823971,0.3499838709831238,-0.12329305708408356,-0.15162676572799683,1.3173567513117104,0.9730736607890689,0,5,0,0
0.780000037048012,0.6879054049504549,-0.533924063224096,0.09678535759823971,0.3547869622707367,-0.12403776496648788,-0.15364158153533936,1.3698550142639356,0.8837301207407997,0,5,0,0
0.7840000372380018,0.6879054049504549,-0.533924063224096,0.09678535759823971,0.359628826379776,-0.12472514808177948,-0.15456749498844147,1.370579149792596,0.7653032275252627,0,5,0,0
0.7880000374279916,0.6879054049504549,-0.533924063224096,0.09678535759823971,0.3645241856575012,-0.12608055770397186,-0.15418249368667603,1.4595888178241456,0.6166553574028495,0,5,0,0
0.7920000376179814,0.6731824956760847,-0.1387107883626944,0.05961692551256291,0.36945998668670654,-0.1270342469215393,-0.1527537852525711,1.4242370488331852,0.49389008595726824,0,5,0,0
0.7960000378079712,0.6731824956760847,-0.1387107883626944,0.05961692551256291,0.37443920969963074,-0.12780150771141052,-0.15067462623119354,1.4112431832453214,0.41275938139937507,0,5,0,0
0.800000037997961,0.6731824956760847,-0.1387107883626944,0.05961692551256291,0.3794707953929901,-0.12822148203849792,-0.14808396995067596,1.3766809328802374,0.3452087189019821,0,5,0,0
0.8040000381879508,0.6731824956760847,-0.1387107883626944,0.05961692551256291,0.3845495283603668,-0.12715524435043335,-0.14797791838645935,1.1991248848374492,0.6246576769735768,0,5,0,0
0.8080000383779407,0.8678734984462843,-0.06644625748367558,0.0691829024720277,0.3896673917770386,-0.12707853317260742,-0.14600442349910736,1.30998448866764,0.4070267441830949,0,5,0,0
0.8120000385679305,0.8678734984462843,-0.06644625748367558,0.0691829024720277,0.3948233127593994,-0.12676075100898743,-0.14474034309387207,1.2799904082346327,0.48212692484947717,0,5,0,0
0.8160000387579203,0.8678734984462843,-0.06644625748367558,0.0691829024720277,0.4000348150730133,-0.12684789299964905,-0.14461679756641388,1.3267202282918926,0.6102899907258069,0,5,0,0
0.8200000389479101,0.8678734984462843,-0.06644625748367558,0.0691829024720277,0.4053092300891876,-0.12574155628681183,-0.14556322991847992,1.1816922931466323,0.7347975776315575,0,5,0,0
0.8240000391378999,1.0257180084348327,-0.48896892987771523,0.07487342193640632,0.410624235868454,-0.12528690695762634,-0.14754274487495422,1.25076131562431,0.8592915275376647,0,5,0,0
0.8280000393278897,1.0257180084348327,-0.48896892987771523,0.07487342193640632,0.41598960757255554,-0.12507271766662598,-0.15033447742462158,1.2759713502619006,0.9621937353934542,0,5,0,0
0.8320000395178795,1.0257180084348327,-0.48896892987771523,0.07487342193640632,0.4214100241661072,-0.12508657574653625,-0.15420594811439514,1.302065466865939,1.0995202474380084,0,5,0,0
0.8360000397078693,1.0257180084348327,-0.48896892987771523,0.07487342193640632,0.4268784523010254,-0.1253204196691513,-0.15720303356647491,1.3294530812423822,1.0135175419765015,0,5,0,0
0.8400000398978591,1.0454335653235631,-0.6939940612018355,0.04913113237050881,0.432392418384552,-0.12554268538951874,-0.16079214215278625,1.3306744932143126,1.0948624769188404,0,5,0,0
0.8440000400878489,1.0454335653235631,-0.6939940612018355,0.04913113237050881,0.4379591941833496,-0.12626352906227112,-0.16379675269126892,1.3942759794051531,1.0415180040404197,0,5,0,0
0.8480000402778387,1.0454335653235631,-0.6939940612018355,0.04913113237050881,0.443564772605896,-0.1268332153558731,-0.16578860580921173,1.3832720377257703,0.93594810478593,0,5,0,0
0.8520000404678285,1.0454335653235631,-0.6939940612018355,0.04913113237050881,0.4492337107658386,-0.12847203016281128,-0.16680528223514557,1.5202454707196595,0.8307077705458557,0,5,0,0
0.8560000406578183,1.0748455961076315,-0.2973245531906042,0.03089051309426241,0.4549400806427002,-0.1295681893825531,-0.16640633344650269,1.4704692759264366,0.670253521534985,0,5,0,0
0.8600000408478081,1.0748455961076315,-0.2973245531906042,0.03089051309426241,0.46068745851516724,-0.130525141954422,-0.16520589590072632,1.4646913148588365,0.5756807846260823,0,5,0,0
0.8640000410377979,1.0748455961076315,-0.2973245531906042,0.03089051309426241,0.46648284792900085,-0.13128553330898285,-0.16307620704174042,1.450497177802515,0.46301264433497613,0,5,0,0
0.8680000412277877,1.0748455961076315,-0.2973245531906042,0.03089051309426241,0.47232532501220703,-0.13048221170902252,-0.16321760416030884,1.2668594200978973,0.7194671154172375,0,5,0,0
0.8720000414177775,1.2744402086327808,-0.004194564734804337,0.04710715228804488,0.4782079756259918,-0.13057447969913483,-0.16141334176063538,1.3688493028628044,0.4937507724515172,0,5,0,0
0.8760000416077673,1.2744402086327808,-0.004194564734804337,0.04710715228804488,0.4841335415840149,-0.13032467663288116,-0.16004258394241333,1.3281810594257155,0.5374211064952034,0,5,0,0
0.8800000417977571,1.2744402086327808,-0.004194564734804337,0.04710715228804488,0.4901117980480194,-0.13045582175254822,-0.1596854329109192,1.3726622734899614,0.6504065055171351,0,5,0,0
0.884000041987747,1.2744402086327808,-0.004194564734804337,0.04710715228804488,0.49613720178604126,-0.12881533801555634,-0.16118192672729492,1.157258356038467,0.8653143529056353,0,5,0,0
0.8880000421777368,1.4727581802918028,-0.24216917772597257,0.0708722186207779,0.5021997690200806,-0.128494992852211,-0.16201584041118622,1.3028788748836313,0.7944985843126295,0,5,0,0
0.8920000423677266,1.4727581802918028,-0.24216917772597257,0.0708722186207779,0.5083090662956238,-0.1283206194639206,-0.1637669801712036,1.3178649344157534,0.905084112786801,0,5,0,0
0.8960000425577164,1.4727581802918028,-0.24216917772597257,0.0708722186207779,0.5144656300544739,-0.12830203771591187,-0.16688106954097748,1.3355136005400317,1.0712728086665502,0,5,0,0
0.9000000427477062,1.4727581802918028,-0.24216917772597257,0.0708722186207779,0.5206822156906128,-0.12840233743190765,-0.170549213886261,1.3501989273897328,1.1486858859647153,0,5,0,0
0.904000042937696,1.510018065324423,-0.36534001139396677,0.06280068820147479,0.5269444584846497,-0.12848354876041412,-0.1743239313364029,1.3491719577159185,1.1761926069474626,0,5,0,0
0.9080000431276858,1.510018065324423,-0.36534001139396677,0.06280068820147479,0.5332654714584351,-0.12884953618049622,-0.17809176445007324,1.3851783795988275,1.1909168718408616,0,5,0,0
0.9120000433176756,1.510018065324423,-0.36534001139396677,0.06280068820147479,0.539626955986023,-0.12912915647029877,-0.18127545714378357,1.3785681907921532,1.1383709096093426,0,5,0,0
0.9160000435076654,1.510018065324423,-0.36534001139396677,0.06280068820147479,0.5460436940193176,-0.12966018915176392,-0.1838981807231903,1.4124735947941787,1.0861941372200323,0,5,0,0
0.9200000436976552,1.4746495766777392,0.14971804597529478,0.0263558630124325,0.5524954199790955,-0.12989209592342377,-0.18522143363952637,1.3814527403010726,0.9457412376954477,0,5,0,0
0.924000043887645,1.4746495766777392,0.14971804597529478,0.0263558630124325,0.5589820146560669,-0.12989996373653412,-0.18560883402824402,1.3566387967202769,0.8424528961167668,0,5,0,0
0.9280000440776348,1.4746495766777392,0.14971804597529478,0.0263558630124325,0.5655039548873901,-0.12974153459072113,-0.18500080704689026,1.3366574779696803,0.7284792163353487,0,5,0,0
0.9320000442676246,1.4746495766777392,0.14971804597529478,0.0263558630124325,0.5720728039741516,-0.12821462750434875,-0.18540214002132416,1.1677423612260627,0.8440825030229043,0,5,0,0
0.9360000444576144,1.4601016044846233,0.7541482923595826,0.02715360074659076,0.5786823034286499,-0.1272599846124649,-0.18452201783657074,1.2228810751068875,0.6968411685865679,0,5,0,0
0.9400000446476042,1.4601016044846233,0.7541482923595826,0.02715360074659076,0.5853341817855835,-0.12615759670734406,-0.18345236778259277,1.1955386611024654,0.6716809697992201,0,5,0,0
0.944000044837594,1.4601016044846233,0.7541482923595826,0.02715360074659076,0.5920403599739075,-0.12539833784103394,-0.18294458091259003,1.2268490434971873,0.733298494529171,0,5,0,0
0.9480000450275838,1.4601016044846233,0.7541482923595826,0.02715360074659076,0.5987933874130249,-0.12286663055419922,-0.18445563316345215,1.0024264127181715,0.966904787382944,0,5,0,0
0.9520000452175736,1.2993274557043848,0.8131196132728669,0.061779752339175126,0.6055802702903748,-0.12193813920021057,-0.18418152630329132,1.1737959346047235,0.7654200051752741,0,5,0,0
0.9560000454075634,1.2993274557043848,0.8131196132728669,0.061779752339175126,0.6124042272567749,-0.1213153600692749,-0.184383362531662,1.2022519236332603,0.8202134650964602,0,5,0,0
0.9600000455975533,1.2993274557043848,0.8131196132728669,0.061779752339175126,0.6192743182182312,-0.12099716067314148,-0.18567699193954468,1.2336255414090769,0.9486603343909581,0,5,0,0
0.9640000457875431,1.2993274557043848,0.8131196132728669,0.061779752339175126,0.626198947429657,-0.11888802796602249,-0.18652157485485077,1.0113395577024678,0.9019685898376923,0,5,0,0
0.9680000459775329,0.985142836151838,0.7069640651421993,0.08030752240902012,0.6331596374511719,-0.11869744956493378,-0.1882486790418625,1.2255559967607492,1.0086124417880622,0,5,0,0
0.9720000461675227,0.985142836151838,0.7069640651421993,0.08030752240902012,0.640167236328125,-0.11876202374696732,-0.19048792123794556,1.2551914316894703,1.0756421048890163,0,5,0,0
0.9760000463575125,0.985142836151838,0.7069640651421993,0.08030752240902012,0.6472256183624268,-0.11843394488096237,-0.19350957870483398,1.2080214187044338,1.1762148715523164,0,5,0,0
0.9800000465475023,0.985142836151838,0.7069640651421993,0.08030752240902012,0.6543239951133728,-0.11744434386491776,-0.19559848308563232,1.1239860366380072,1.080105208256209,0,5,0,0
0.9840000467374921,0.7630373738731872,0.7110572217860451,0.03652579592334872,0.6614595651626587,-0.11735563725233078,-0.19788236916065216,1.2247312396300096,1.1116511098228723,0,5,0,0
0.9880000469274819,0.7630373738731872,0.7110572217860451,0.03652579592334872,0.6686370372772217,-0.11718538403511047,-0.19968603551387787,1.214135959807341,1.065320305607968,0,5,0,0
0.9920000471174717,0.7630373738731872,0.7110572217860451,0.03652579592334872,0.6758548617362976,-0.11635255068540573,-0.20069538056850433,1.1315466110811752,0.9804782129147281,0,5,0,0
0.9960000473074615,0.7630373738731872,0.7110572217860451,0.03652579592334872,0.6831441521644592,-0.11538698524236679,-0.20001420378684998,1.1072355256376727,0.788049842351648,0,5,0,0
1.0000000474974513,0.7203783599434745,0.862723447823627,0.0024127559563439705,0.6904665231704712,-0.11418592929840088,-0.19914035499095917,1.0690063323453967,0.7633567834706989,0,5,0,0
1.004000047687441,0.7203783599434745,0.862723447823627,0.0024127559563439705,0.6978274583816528,-0.11266694962978363,-0.1978786587715149,1.0183205190267173,0.7151520743192138,0,5,0,0
1.008000047877431,0.7203783599434745,0.862723447823627,0.0024127559563439705,0.7052466869354248,-0.11070714890956879,-0.19629549980163574,0.9493958430453533,0.6731259899553984,0,5,0,0
1.0120000480674207,0.7203783599434745,0.862723447823627,0.0024127559563439705,0.7127209901809692,-0.10881324857473373,-0.19469644129276276,0.9381317845090764,0.6654083293493553,0,5,0,0
1.0160000482574105,0.803618300082415,0.6667031503280778,0.023608717807901088,0.7202289700508118,-0.10742012411355972,-0.19359007477760315,0.9807956313184439,0.716875326150325,0,5,0,0
1.0200000484474003,0.803618300082415,0.6667031503280778,0.023608717807901088,0.7277708053588867,-0.10628589987754822,-0.19321323931217194,0.9988347490775091,0.7979039352811965,0,5,0,0
1.0240000486373901,0.803618300082415,0.6667031503280778,0.023608717807901088,0.7353437542915344,-0.10556396842002869,-0.19354721903800964,1.0382517234158313,0.8796710727518406,0,5,0,0
1.02800004882738,0.803618300082415,0.6667031503280778,0.023608717807901088,0.7429885268211365,-0.10569486021995544,-0.1949012577533722,1.1357569209973535,1.0003116215250138,0,5,0,0
1.0320000490173697,0.7351120805197265,0.10465787366347247,0.03444305270177474,0.7506700158119202,-0.10583914071321487,-0.19681498408317566,1.138959967808108,1.071403736462396,0,5,0,0
1.0360000492073596,0.7351120805197265,0.10465787366347247,0.03444305270177474,0.7583888173103333,-0.10624118894338608,-0.199213907122612,1.172234298000597,1.1360621692610127,0,5,0,0
1.0400000493973494,0.7351120805197265,0.10465787366347247,0.03444305270177474,0.7661540508270264,-0.10692361742258072,-0.2017347365617752,1.2108579760034817,1.1603441197262805,0,5,0,0
1.0440000495873392,0.7351120805197265,0.10465787366347247,0.03444305270177474,0.7739672660827637,-0.10693562775850296,-0.20455092191696167,1.135812687345724,1.2053273223573373,0,5,0,0
1.048000049777329,0.7399025524051736,0.011223182935557184,-0.01732317753624565,0.7818154692649841,-0.10753405839204788,-0.2069285362958908,1.208027355782609,1.1659951758982914,0,5,0,0
1.0520000499673188,0.7399025524051736,0.011223182935557184,-0.01732317753624565,0.7896955013275146,-0.1079988181591034,-0.2085137963294983,1.1978961788632636,1.0836967895529113,0,5,0,0
1.0560000501573086,0.7399025524051736,0.011223182935557184,-0.01732317753624565,0.7976092100143433,-0.10835975408554077,-0.20940625667572021,1.190085420035034,1.0098292448487658,0,5,0,0
1.0600000503472984,0.7399025524051736,0.011223182935557184,-0.01732317753624565,0.8055598139762878,-0.1084817424416542,-0.20905326306819916,1.1646840594057581,0.8688054351328278,0,5,0,0
1.0640000505372882,0.871106136764888,0.36616560422865274,-0.05278920702490671,0.8135436773300171,-0.10800327360630035,-0.2079632431268692,1.0926071480896375,0.7820290085594909,0,5,0,0
1.068000050727278,0.871106136764888,0.36616560422865274,-0.05278920702490671,0.8215599060058594,-0.10722696781158447,-0.2062799036502838,1.0515947785407025,0.7090422778995695,0,5,0,0
1.0720000509172678,0.871106136764888,0.36616560422865274,-0.05278920702490671,0.829618513584137,-0.10598459839820862,-0.2044554203748703,0.9869932928463279,0.6863563612161544,0,5,0,0
1.0760000511072576,0.871106136764888,0.36616560422865274,-0.05278920702490671,0.8377339243888855,-0.10404986888170242,-0.20401686429977417,0.8900052094758804,0.8410085800434008,0,5,0,0
1.0800000512972474,0.9854737768161334,0.46690572199188946,-0.027417526711649633,0.8458820581436157,-0.1031922921538353,-0.20290341973304749,1.0028567866763107,0.7611168183047876,0,5,0,0
1.0840000514872372,0.9854737768161334,0.46690572199188946,-0.027417526711649633,0.8540604114532471,-0.10247697681188583,-0.20248664915561676,1.0119539831684152,0.8383115240492641,0,5,0,0
1.088000051677227,0.9854737768161334,0.46690572199188946,-0.027417526711649633,0.8622905611991882,-0.1021791324019432,-0.20307761430740356,1.05618624661843,0.9545330351060721,0,5,0,0
1.0920000518672168,0.9854737768161334,0.46690572199188946,-0.027417526711649633,0.8705723285675049,-0.10121744126081467,-0.2043510526418686,0.9721295033665337,1.0368954603980973,0,5,0,0
1.0960000520572066,0.8945802452979782,0.14099689627940426,-0.011235337881109494,0.8788878321647644,-0.10097414255142212,-0.2062939554452896,1.0507579989578377,1.1204769263086571,0,5,0,0
1.1000000522471964,0.8945802452979782,0.14099689627940426,-0.011235337881109494,0.8872438073158264,-0.10095579922199249,-0.2087617665529251,1.0761243386369705,1.1899013804220242,0,5,0,0
1.1040000524371862,0.8945802452979782,0.14099689627940426,-0.011235337881109494,0.8956359624862671,-0.10100647062063217,-0.21176862716674805,1.0846376247033902,1.2630801341723523,0,5,0,0
1.108000052627176,0.8945802452979782,0.14099689627940426,-0.011235337881109494,0.9040817022323608,-0.10063070803880692,-0.2143591046333313,1.0331476920722311,1.2271134040747043,0,5,0,0
1.1120000528171659,0.7199085796080501,0.030208263676640548,-0.04587486393378079,0.9125601053237915,-0.1007857546210289,-0.2169417440891266,1.0946560718359857,1.2370828459366656,0,5,0,0
1.1160000530071557,0.7199085796080501,0.030208263676640548,-0.04587486393378079,0.9210711121559143,-0.10107497870922089,-0.21880929172039032,1.1128858613829824,1.164630352348059,0,5,0,0
1.1200000531971455,0.7199085796080501,0.030208263676640548,-0.04587486393378079,0.9296102523803711,-0.10119107365608215,-0.2198074758052826,1.094812641965308,1.0713472323332405,0,5,0,0
1.1240000533871353,0.7199085796080501,0.030208263676640548,-0.04587486393378079,0.9382054209709167,-0.10155939310789108,-0.219247505068779,1.127114834497293,0.8943411343432908,0,5,0,0
1.128000053577125,0.5905367451666056,0.3702406048314377,-0.06635663670833505,0.9468299150466919,-0.10146690905094147,-0.21808747947216034,1.074593122248036,0.8227182733758376,0,5,0,0
1.1320000537671149,0.5905367451666056,0.3702406048314377,-0.06635663670833505,0.955485999584198,-0.10114699602127075,-0.21630209684371948,1.0460509865374448,0.7457432051807303,0,5,0,0
1.1360000539571047,0.5905367451666056,0.3702406048314377,-0.06635663670833505,0.9641895890235901,-0.10037659853696823,-0.214087575674057,0.9879084168034195,0.6891208471137567,0,5,0,0
1.1400000541470945,0.5905367451666056,0.3702406048314377,-0.06635663670833505,0.9729433059692383,-0.09878171235322952,-0.2131025493144989,0.8794416568059944,0.824010347385153,0,5,0,0
1.1440000543370843,0.643533505829296,0.44427308588647574,-0.048532864814871964,0.9817265868186951,-0.09753294289112091,-0.211213156580925,0.9061261705928891,0.7152184758063985,0,5,0,0
1.148000054527074,0.643533505829296,0.44427308588647574,-0.048532864814871964,0.9905380010604858,-0.09635715931653976,-0.2100154608488083,0.902810503997264,0.7887476389757886,0,5,0,0
1.152000054717064,0.643533505829296,0.44427308588647574,-0.048532864814871964,0.9993939399719238,-0.09571302682161331,-0.20986764132976532,0.9564096339435771,0.9067711116235517,0,5,0,0
1.1560000549070537,0.643533505829296,0.44427308588647574,-0.048532864814871964,1.008298397064209,-0.09458652138710022,-0.21055394411087036,0.8911046341346025,1.0038604065473893,0,5,0,0
1.1600000550970435,0.5567601482353014,0.011911437948943455,-0.037264490047314455,1.017232894897461,-0.0943436324596405,-0.2120743840932846,0.9883090219105957,1.1042915757131495,0,5,0,0
1.1640000552870333,0.5567601482353014,0.011911437948943455,-0.037264490047314455,1.0262051820755005,-0.09453999251127243,-0.21424603462219238,1.0399150262204182,1.1867535513370993,0,5,0,0
1.1680000554770231,0.5567601482353014,0.011911437948943455,-0.037264490047314455,1.0352113246917725,-0.09502645581960678,-0.21711617708206177,1.0776443376374278,1.277335538527139,0,5,0,0
1.172000055667013,0.5567601482353014,0.011911437948943455,-0.037264490047314455,1.0442659854888916,-0.09522280097007751,-0.2196063995361328,1.047198032665897,1.245082485105119,0,5,0,0
1.1760000558570027,0.3768229236084039,-0.22177049708544386,-0.07711150396649362,1.0533527135849,-0.09591279923915863,-0.22221620380878448,1.1098641792916664,1.2695079750615375,0,5,0,0
1.1800000560469925,0.3768229236084039,-0.22177049708544386,-0.07711150396649362,1.062471866607666,-0.0967911034822464,-0.22415854036808014,1.1400639414514775,1.2027251876351932,0,5,0,0
1.1840000562369823,0.3768229236084039,-0.22177049708544386,-0.07711150396649362,1.0716146230697632,-0.09746027737855911,-0.22524338960647583,1.1234624221967096,1.1111378497302138,0,5,0,0
1.1880000564269722,0.3768229236084039,-0.22177049708544386,-0.07711150396649362,1.0808124542236328,-0.09782237559556961,-0.22553987801074982,1.0927721657987433,1.024174509454131,0,5,0,0
1.192000056616962,0.30271251674443167,0.06321552489076736,-0.1114288047787443,1.0900357961654663,-0.09840967506170273,-0.22449196875095367,1.1242164830143808,0.869276923141389,0,5,0,0
1.1960000568069518,0.30271251674443167,0.06321552489076736,-0.1114288047787443,1.0992863178253174,-0.09869846701622009,-0.22254538536071777,1.093759185429936,0.7609238636582392,0,5,0,0
1.2000000569969416,0.30271251674443167,0.06321552489076736,-0.1114288047787443,1.1085635423660278,-0.0986468717455864,-0.21995142102241516,1.0551864242163858,0.6782455365423068,0,5,0,0
1.2040000571869314,0.30271251674443167,0.06321552489076736,-0.1114288047787443,1.1178892850875854,-0.09767138212919235,-0.21827037632465363,0.9417278304194456,0.77474866136204,0,5,0,0
1.2080000573769212,0.33942527438062087,0.22452176727622294,-0.10681320927669356,1.1272443532943726,-0.09641878306865692,-0.21554256975650787,0.8982584339192653,0.6465940324565522,0,5,0,0
1.212000057566911,0.33942527438062087,0.22452176727622294,-0.10681320927669356,1.1366254091262817,-0.0950452983379364,-0.21333156526088715,0.8711520580890313,0.6964022406525664,0,5,0,0
1.2160000577569008,0.33942527438062087,0.22452176727622294,-0.10681320927669356,1.146040439605713,-0.09403275698423386,-0.21216937899589539,0.9018584511653217,0.8102547474678129,0,5,0,0
1.2200000579468906,0.33942527438062087,0.22452176727622294,-0.10681320927669356,1.1555126905441284,-0.09240462630987167,-0.21195536851882935,0.8165451202505467,0.9165771695432567,0,5,0,0
1.2240000581368804,0.22837339340236595,-0.15791620222424055,-0.10983982649234209,1.1650084257125854,-0.09176387637853622,-0.2128276228904724,0.9214381825654363,1.0427817630243856,0,5,0,0
1.2280000583268702,0.22837339340236595,-0.15791620222424055,-0.10983982649234209,1.174536943435669,-0.09171724319458008,-0.21459516882896423,0.9880301030255277,1.1510872716945326,0,5,0,0
1.23200005851686,0.22837339340236595,-0.15791620222424055,-0.10983982649234209,1.1840981245040894,-0.09216522425413132,-0.21733281016349792,1.048375209921384,1.2716951626728759,0,5,0,0
1.2360000587068498,0.22837339340236595,-0.15791620222424055,-0.10983982649234209,1.1937097311019897,-0.0930664986371994,-0.21935130655765533,1.1086068098328923,1.1993917894606412,0,5,0,0
1.2400000588968396,-0.01797164994130224,-0.4523906146822748,-0.1430136318489643,1.2033547163009644,-0.0940181314945221,-0.22209420800209045,1.1240141100169783,1.292391985648315,0,5,0,0
1.2440000590868294,-0.01797164994130224,-0.4523906146822748,-0.1430136318489643,1.213034987449646,-0.0952937975525856,-0.2243390828371048,1.1734532090744847,1.2458819079141041,0,5,0,0
1.2480000592768192,-0.01797164994130224,-0.4523906146822748,-0.1430136318489643,1.22273850440979,-0.09630519896745682,-0.22568626701831818,1.1540685847646526,1.1508220979496968,0,5,0,0
1.252000059466809,-0.01797164994130224,-0.4523906146822748,-0.1430136318489643,1.2325066328048706,-0.09710808843374252,-0.2259862869977951,1.1388729457491265,1.0347585778822928,0,5,0,0
1.2560000596567988,-0.10326411390077679,-0.17544800186543832,-0.16578005993876938,1.242295265197754,-0.09806261956691742,-0.2253093272447586,1.1657132940937567,0.9226812665939126,0,5,0,0
1.2600000598467886,-0.10326411390077679,-0.17544800186543832,-0.16578005993876938,1.252106785774231,-0.09870467334985733,-0.2235853374004364,1.1372170229187226,0.7985310323769969,0,5,0,0
1.2640000600367785,-0.10326411390077679,-0.17544800186543832,-0.16578005993876938,1.2619439363479614,-0.0989573746919632,-0.22089847922325134,1.0961793865369827,0.6799910737415537,0,5,0,0
1.2680000602267683,-0.10326411390077679,-0.17544800186543832,-0.16578005993876938,1.2718331813812256,-0.09866615384817123,-0.2187730371952057,1.0323127338724687,0.7351736747218549,0,5,0,0
1.272000060416758,-0.050953213254435005,0.024822035481486326,-0.15295573061862086,1.2817496061325073,-0.09767566621303558,-0.21546314656734467,0.9439747688414989,0.5892007626365622,0,5,0,0
1.2760000606067479,-0.050953213254435005,0.024822035481486326,-0.15295573061862086,1.2916922569274902,-0.09641306102275848,-0.21241632103919983,0.9009668847968102,0.6071180820310835,0,5,0,0
1.2800000607967377,-0.050953213254435005,0.024822035481486326,-0.15295573061862086,1.301655650138855,-0.0953926295042038,-0.21011048555374146,0.9182360487076731,0.6817603811213044,0,5,0,0
1.2840000609867275,-0.050953213254435005,0.024822035481486326,-0.15295573061862086,1.3116707801818848,-0.09490271657705307,-0.20900055766105652,0.9732480246649081,0.8123618687094998,0,5,0,0
1.2880000611767173,-0.0902046660506802,-0.3962319755473227,-0.15100190424106424,1.3217031955718994,-0.09413466602563858,-0.2084495723247528,0.9345029611165003,0.8735392409678253,0,5,0,0
1.292000061366707,-0.0902046660506802,-0.3962319755473227,-0.15100190424106424,1.3317574262619019,-0.09376811236143112,-0.2089976668357849,0.9762308656201892,0.9998796903885708,0,5,0,0
1.296000061556697,-0.0902046660506802,-0.3962319755473227,-0.15100190424106424,1.341844081878662,-0.09396472573280334,-0.21055418252944946,1.0417788031798336,1.1200584608829904,0,5,0,0
