time,roll,pitch,yaw,altitude,desired_roll,desired_pitch,desired_yaw,desired_altitude
0.0,0.0,0.0,0.0,0.0,0,0,0,10
0.004000000189989805,0.0,0.0,0.0,0.06905829161405563,0,0,0,10
0.00800000037997961,0.0,0.0,0.0,0.06795962899923325,0,0,0,10
0.012000000569969416,0.0,0.0,0.0,0.06711293011903763,0,0,0,10
0.01600000075995922,0.0,0.0,0.0,0.06610926985740662,0,0,0,10
0.020000000949949026,0.0,0.0,0.0,0.06495216488838196,0,0,0,10
0.02400000113993883,0.0,0.0,0.0,0.06364156305789948,0,0,0,10
0.028000001329928637,0.0,0.0,0.0,0.06217750161886215,0,0,0,10
0.03200000151991844,0.0,0.0,0.0,0.06056000664830208,0,0,0,10
0.03600000170990825,-0.008261610428510383,-0.038273634958138666,0.005675156804116215,0.05953017622232437,0,0,0,10
0.04000000189989805,-0.008261610428510383,-0.038273634958138666,0.005675156804116215,0.05886846408247948,0,0,0,10
0.04400000208988786,-0.008261610428510383,-0.038273634958138666,0.005675156804116215,0.058147549629211426,0,0,0,10
0.04800000227987766,-0.008261610428510383,-0.038273634958138666,0.005675156804116215,0.05737202987074852,0,0,0,10
0.05200000246986747,0.7618058127801037,-1.1149828569182856,0.021856738133979866,0.05654127523303032,0,0,0,10
0.05600000265985727,0.7618058127801037,-1.1149828569182856,0.021856738133979866,0.055799342691898346,0,0,0,10
0.06000000284984708,0.7618058127801037,-1.1149828569182856,0.021856738133979866,0.05570109933614731,0,0,0,10
0.06400000303983688,0.7618058127801037,-1.1149828569182856,0.021856738133979866,0.05559776723384857,0,0,0,10
0.06800000322982669,0.9808198783504761,-2.0813596071522937,0.04224954678570413,0.055488117039203644,0,0,0,10
0.0720000034198165,0.9808198783504761,-2.0813596071522937,0.04224954678570413,0.055372435599565506,0,0,0,10
0.0760000036098063,0.9808198783504761,-2.0813596071522937,0.04224954678570413,0.055250898003578186,0,0,0,10
0.0800000037997961,0.9808198783504761,-2.0813596071522937,0.04224954678570413,0.05512291193008423,0,0,0,10
0.08400000398978591,0.45687783308835084,-2.77051426131753,0.05978611663996272,0.05498770624399185,0,0,0,10
0.08800000417977571,0.45687783308835084,-2.77051426131753,0.05978611663996272,0.05484522879123688,0,0,0,10
0.09200000436976552,0.45687783308835084,-2.77051426131753,0.05978611663996272,0.05470611900091171,0,0,0,10
0.09600000455975533,0.45687783308835084,-2.77051426131753,0.05978611663996272,0.054767582565546036,0,0,0,10
0.10000000474974513,0.0037056066952518524,-3.3970352698607758,0.06318925902657206,0.05476418882608414,0,0,0,10
0.10400000493973494,0.0037056066952518524,-3.3970352698607758,0.06318925902657206,0.05470028147101402,0,0,0,10
0.10800000512972474,0.0037056066952518524,-3.3970352698607758,0.06318925902657206,0.054700400680303574,0,0,0,10
0.11200000531971455,0.0037056066952518524,-3.3970352698607758,0.06318925902657206,0.05470039322972298,0,0,0,10
0.11600000550970435,0.004252727172627694,-3.366513744466274,0.07303850301958056,0.05470040813088417,0,0,0,10
0.12000000569969416,0.004252727172627694,-3.366513744466274,0.07303850301958056,0.054700400680303574,0,0,0,10
0.12400000588968396,0.004252727172627694,-3.366513744466274,0.07303850301958056,0.05470040440559387,0,0,0,10
0.12800000607967377,0.004252727172627694,-3.366513744466274,0.07303850301958056,0.05470040440559387,0,0,0,10
0.13200000626966357,0.004254766124405341,-3.366514069194088,0.07302344510877039,0.05470041185617447,0,0,0,10
0.13600000645965338,0.004254766124405341,-3.366514069194088,0.07302344510877039,0.054700396955013275,0,0,0,10
0.14000000664964318,0.004254766124405341,-3.366514069194088,0.07302344510877039,0.05470041185617447,0,0,0,10
0.144000006839633,0.004254766124405341,-3.366514069194088,0.07302344510877039,0.05470039322972298,0,0,0,10
0.1480000070296228,0.00425413780257113,-3.3665143493009078,0.07301052284470684,0.05470041185617447,0,0,0,10
0.1520000072196126,0.00425413780257113,-3.3665143493009078,0.07301052284470684,0.05470038950443268,0,0,0,10
0.1560000074096024,0.00425413780257113,-3.3665143493009078,0.07301052284470684,0.05470040813088417,0,0,0,10
0.1600000075995922,0.00425413780257113,-3.3665143493009078,0.07301052284470684,0.05470038577914238,0,0,0,10
0.16400000778958201,0.0042538281032343545,-3.3665145814237167,0.07299980640319931,0.05470041185617447,0,0,0,10
0.16800000797957182,0.0042538281032343545,-3.3665145814237167,0.07299980640319931,0.05470038950443268,0,0,0,10
0.17200000816956162,0.0042538281032343545,-3.3665145814237167,0.07299980640319931,0.054700396955013275,0,0,0,10
0.17600000835955143,0.0042538281032343545,-3.3665145814237167,0.07299980640319931,0.05470038205385208,0,0,0,10
0.18000000854954123,0.004260858776633158,-3.366514802266829,0.07298939689646498,0.05470041185617447,0,0,0,10
0.18400000873953104,0.004260858776633158,-3.366514802266829,0.07298939689646498,0.05470038577914238,0,0,0,10
0.18800000892952085,0.004260858776633158,-3.366514802266829,0.07298939689646498,0.054700423032045364,0,0,0,10
0.19200000911951065,0.004260858776633158,-3.366514802266829,0.07298939689646498,0.054700396955013275,0,0,0,10
0.19600000930950046,0.00425428247424826,-3.3665150316359904,0.07297898636289493,0.05470040440559387,0,0,0,10
0.20000000949949026,0.00425428247424826,-3.3665150316359904,0.07297898636289493,0.05470039322972298,0,0,0,10
0.20400000968948007,0.00425428247424826,-3.3665150316359904,0.07297898636289493,0.054700419306755066,0,0,0,10
0.20800000987946987,0.00425428247424826,-3.3665150316359904,0.07297898636289493,0.054700396955013275,0,0,0,10
0.21200001006945968,0.004249021183849965,-3.366515192811464,0.07297168826868751,0.054700396955013275,0,0,0,10
0.21600001025944948,0.004249021183849965,-3.366515192811464,0.07297168826868751,0.054700396955013275,0,0,0,10
0.2200000104494393,0.004249021183849965,-3.366515192811464,0.07297168826868751,0.05470040440559387,0,0,0,10
0.2240000106394291,0.004249021183849965,-3.366515192811464,0.07297168826868751,0.054700396955013275,0,0,0,10
0.2280000108294189,0.004256110060661551,-3.3665153578701403,0.07296385252919117,0.05470040813088417,0,0,0,10
0.2320000110194087,0.004256110060661551,-3.3665153578701403,0.07296385252919117,0.054700396955013275,0,0,0,10
0.2360000112093985,0.004256110060661551,-3.3665153578701403,0.07296385252919117,0.05470040813088417,0,0,0,10
0.2400000113993883,0.004256110060661551,-3.3665153578701403,0.07296385252919117,0.05470038205385208,0,0,0,10
0.24400001158937812,0.0042565591125158075,-3.3665155415722614,0.07295534609518806,0.054700423032045364,0,0,0,10
0.24800001177936792,0.0042565591125158075,-3.3665155415722614,0.07295534609518806,0.05470038950443268,0,0,0,10
0.25200001196935773,0.0042565591125158075,-3.3665155415722614,0.07295534609518806,0.05470041185617447,0,0,0,10
0.25600001215934753,0.0042565591125158075,-3.3665155415722614,0.07295534609518806,0.05470040440559387,0,0,0,10
0.26000001234933734,0.00425338728756639,-3.366515680581559,0.07294901033815372,0.05470040813088417,0,0,0,10
0.26400001253932714,0.00425338728756639,-3.366515680581559,0.07294901033815372,0.05470038577914238,0,0,0,10
0.26800001272931695,0.00425338728756639,-3.366515680581559,0.07294901033815372,0.054700400680303574,0,0,0,10
0.27200001291930676,0.00425338728756639,-3.366515680581559,0.07294901033815372,0.05470038577914238,0,0,0,10
0.27600001310929656,0.00425931444039469,-3.3665158768000785,0.07293976437384028,0.054700400680303574,0,0,0,10
0.28000001329928637,0.00425931444039469,-3.3665158768000785,0.07293976437384028,0.05470038950443268,0,0,0,10
0.28400001348927617,0.00425931444039469,-3.3665158768000785,0.07293976437384028,0.054700400680303574,0,0,0,10
0.288000013679266,0.00425931444039469,-3.3665158768000785,0.07293976437384028,0.05470039322972298,0,0,0,10
0.2920000138692558,0.004247358002903491,-3.3665159570279672,0.07293640043361745,0.05470041185617447,0,0,0,10
0.2960000140592456,0.004247358002903491,-3.3665159570279672,0.07293640043361745,0.05470038205385208,0,0,0,10
0.3000000142492354,0.004247358002903491,-3.3665159570279672,0.07293640043361745,0.05470041185617447,0,0,0,10
0.3040000144392252,0.004247358002903491,-3.3665159570279672,0.07293640043361745,0.054700400680303574,0,0,0,10
0.308000014629215,0.004248083819298131,-3.366516020589241,0.0729334397329209,0.05470040440559387,0,0,0,10
0.3120000148192048,0.004248083819298131,-3.366516020589241,0.0729334397329209,0.054700396955013275,0,0,0,10
0.3160000150091946,0.004248083819298131,-3.366516020589241,0.0729334397329209,0.054700400680303574,0,0,0,10
0.3200000151991844,0.004248083819298131,-3.366516020589241,0.0729334397329209,0.05470038950443268,0,0,0,10
0.3240000153891742,0.004256068706148139,-3.36651610794605,0.07292916797002866,0.05470040813088417,0,0,0,10
0.32800001557916403,0.004256068706148139,-3.36651610794605,0.07292916797002866,0.05470039322972298,0,0,0,10
0.33200001576915383,0.004256068706148139,-3.36651610794605,0.07292916797002866,0.05470040813088417,0,0,0,10
0.33600001595914364,0.004256068706148139,-3.36651610794605,0.07292916797002866,0.05470038950443268,0,0,0,10
0.34000001614913344,0.004252348289916375,-3.366516217373416,0.07292421423188916,0.05470040440559387,0,0,0,10
0.34400001633912325,0.004252348289916375,-3.366516217373416,0.07292421423188916,0.05470038205385208,0,0,0,10
0.34800001652911305,0.004252348289916375,-3.366516217373416,0.07292421423188916,0.05470041558146477,0,0,0,10
0.35200001671910286,0.004252348289916375,-3.366516217373416,0.07292421423188916,0.054700396955013275,0,0,0,10
0.35600001690909266,0.004250177601777487,-3.3665162557499375,0.0729225018897451,0.05470040813088417,0,0,0,10
0.36000001709908247,0.004250177601777487,-3.3665162557499375,0.0729225018897451,0.05470038577914238,0,0,0,10
0.3640000172890723,0.004250177601777487,-3.3665162557499375,0.0729225018897451,0.05470040813088417,0,0,0,10
0.3680000174790621,0.004250177601777487,-3.3665162557499375,0.0729225018897451,0.054700396955013275,0,0,0,10
0.3720000176690519,0.004251660373901876,-3.3665162443398886,0.07292298676001384,0.054700396955013275,0,0,0,10
0.3760000178590417,0.004251660373901876,-3.3665162443398886,0.07292298676001384,0.05470038577914238,0,0,0,10
0.3800000180490315,0.004251660373901876,-3.3665162443398886,0.07292298676001384,0.05470040440559387,0,0,0,10
0.3840000182390213,0.004251660373901876,-3.3665162443398886,0.07292298676001384,0.05470039322972298,0,0,0,10
0.3880000184290111,0.004243390934707069,-3.3665163388332013,0.07291885466260566,0.05470040440559387,0,0,0,10
0.3920000186190009,0.004243390934707069,-3.3665163388332013,0.07291885466260566,0.054700400680303574,0,0,0,10
0.3960000188089907,0.004243390934707069,-3.3665163388332013,0.07291885466260566,0.05470040440559387,0,0,0,10
0.4000000189989805,0.004243390934707069,-3.3665163388332013,0.07291885466260566,0.05470038205385208,0,0,0,10
0.4040000191889703,0.0042497245473351085,-3.366516363505171,0.0729175302768883,0.05470040440559387,0,0,0,10
0.40800001937896013,0.0042497245473351085,-3.366516363505171,0.0729175302768883,0.054700396955013275,0,0,0,10
0.41200001956894994,0.0042497245473351085,-3.366516363505171,0.0729175302768883,0.05470040813088417,0,0,0,10
0.41600001975893974,0.0042497245473351085,-3.366516363505171,0.0729175302768883,0.05470038577914238,0,0,0,10
0.42000001994892955,0.004250834789689877,-3.366516549274271,0.07290890369883153,0.054700419306755066,0,0,0,10
0.42400002013891935,0.004250834789689877,-3.366516549274271,0.07290890369883153,0.05470039322972298,0,0,0,10
0.42800002032890916,0.004250834789689877,-3.366516549274271,0.07290890369883153,0.05470041558146477,0,0,0,10
0.43200002051889896,0.004250834789689877,-3.366516549274271,0.07290890369883153,0.054700396955013275,0,0,0,10
0.43600002070888877,0.0042431350267430655,-3.3665166960341733,0.07290233593748273,0.05470041185617447,0,0,0,10
0.4400000208988786,0.0042431350267430655,-3.3665166960341733,0.07290233593748273,0.054700396955013275,0,0,0,10
0.4440000210888684,0.0042431350267430655,-3.3665166960341733,0.07290233593748273,0.054700400680303574,0,0,0,10
0.4480000212788582,0.0042431350267430655,-3.3665166960341733,0.07290233593748273,0.054700400680303574,0,0,0,10
0.452000021468848,0.004239787818298847,-3.366516840708089,0.072895738005494,0.054700396955013275,0,0,0,10
0.4560000216588378,0.004239787818298847,-3.366516840708089,0.072895738005494,0.05470038950443268,0,0,0,10
0.4600000218488276,0.004239787818298847,-3.366516840708089,0.072895738005494,0.054700400680303574,0,0,0,10
0.4640000220388174,0.004239787818298847,-3.366516840708089,0.072895738005494,0.054700396955013275,0,0,0,10
0.4680000222288072,0.004245168913678216,-3.366516901213435,0.07289278274710817,0.05470041185617447,0,0,0,10
0.472000022418797,0.004245168913678216,-3.366516901213435,0.07289278274710817,0.05470040440559387,0,0,0,10
0.4760000226087868,0.004245168913678216,-3.366516901213435,0.07289278274710817,0.05470040813088417,0,0,0,10
0.4800000227987766,0.004245168913678216,-3.366516901213435,0.07289278274710817,0.054700396955013275,0,0,0,10
0.48400002298876643,0.004241204364175769,-3.366516944620271,0.07289088846156255,0.05470040440559387,0,0,0,10
0.48800002317875624,0.004241204364175769,-3.366516944620271,0.07289088846156255,0.054700400680303574,0,0,0,10
0.49200002336874604,0.004241204364175769,-3.366516944620271,0.07289088846156255,0.05470039322972298,0,0,0,10
0.49600002355873585,0.004241204364175769,-3.366516944620271,0.07289088846156255,0.054700400680303574,0,0,0,10
0.5000000237487257,0.004245601416343132,-3.366516974574481,0.07288937524056331,0.054700396955013275,0,0,0,10
0.5040000239387155,0.004245601416343132,-3.366516974574481,0.07288937524056331,0.054700396955013275,0,0,0,10
0.5080000241287053,0.004245601416343132,-3.366516974574481,0.07288937524056331,0.05470040813088417,0,0,0,10
0.5120000243186951,0.004245601416343132,-3.366516974574481,0.07288937524056331,0.054700400680303574,0,0,0,10
0.5160000245086849,0.004242102252522563,-3.366517050684569,0.07288595393300645,0.05470041558146477,0,0,0,10
0.5200000246986747,0.004242102252522563,-3.366517050684569,0.07288595393300645,0.05470039322972298,0,0,0,10
0.5240000248886645,0.004242102252522563,-3.366517050684569,0.07288595393300645,0.054700423032045364,0,0,0,10
0.5280000250786543,0.004242102252522563,-3.366517050684569,0.07288595393300645,0.05470038205385208,0,0,0,10
0.5320000252686441,0.004251746122343088,-3.366517015123856,0.0728873207156195,0.05470043048262596,0,0,0,10
0.5360000254586339,0.004251746122343088,-3.366517015123856,0.0728873207156195,0.054700400680303574,0,0,0,10
0.5400000256486237,0.004251746122343088,-3.366517015123856,0.0728873207156195,0.054700423032045364,0,0,0,10
0.5440000258386135,0.004251746122343088,-3.366517015123856,0.0728873207156195,0.05470038950443268,0,0,0,10
0.5480000260286033,0.0042497954828645025,-3.3665170121405974,0.07288751531589846,0.05470040813088417,0,0,0,10
0.5520000262185931,0.0042497954828645025,-3.3665170121405974,0.07288751531589846,0.054700396955013275,0,0,0,10
0.5560000264085829,0.0042497954828645025,-3.3665170121405974,0.07288751531589846,0.05470040813088417,0,0,0,10
0.5600000265985727,0.0042497954828645025,-3.3665170121405974,0.07288751531589846,0.05470040440559387,0,0,0,10
0.5640000267885625,0.004252909713184749,-3.3665170271465814,0.07288673054532746,0.05470040813088417,0,0,0,10
0.5680000269785523,0.004252909713184749,-3.3665170271465814,0.07288673054532746,0.05470038577914238,0,0,0,10
0.5720000271685421,0.004252909713184749,-3.3665170271465814,0.07288673054532746,0.05470041185617447,0,0,0,10
0.576000027358532,0.004252909713184749,-3.3665170271465814,0.07288673054532746,0.05470038577914238,0,0,0,10
0.5800000275485218,0.004254002632890167,-3.3665170473071506,0.07288576577184949,0.05470040813088417,0,0,0,10
0.5840000277385116,0.004254002632890167,-3.3665170473071506,0.07288576577184949,0.05470038950443268,0,0,0,10
0.5880000279285014,0.004254002632890167,-3.3665170473071506,0.07288576577184949,0.05470041185617447,0,0,0,10
0.5920000281184912,0.004254002632890167,-3.3665170473071506,0.07288576577184949,0.05470068007707596,0,0,0,10
0.596000028308481,0.004253723578375858,-3.366517018447663,0.07288710952281931,0.05470071732997894,0,0,0,10
0.6000000284984708,0.004253723578375858,-3.366517018447663,0.07288710952281931,0.05470067262649536,0,0,0,10
0.6040000286884606,0.004253723578375858,-3.366517018447663,0.07288710952281931,0.054700613021850586,0,0,0,10
0.6080000288784504,0.004253723578375858,-3.366517018447663,0.07288710952281931,0.054700516164302826,0,0,0,10
0.6120000290684402,0.004311442340143926,-3.366489742837608,0.07413703456692242,0.05470036342740059,0,0,0,10
0.61600002925843,0.004311442340143926,-3.366489742837608,0.07413703456692242,0.054700251668691635,0,0,0,10
0.6200000294484198,0.004311442340143926,-3.366489742837608,0.07413703456692242,0.05470016971230507,0,0,0,10
0.6240000296384096,0.004311442340143926,-3.366489742837608,0.07413703456692242,0.05470011755824089,0,0,0,10
0.6280000298283994,0.004308802864987094,-3.366489579569355,0.0741445388680925,0.0547000914812088,0,0,0,10
0.6320000300183892,0.004308802864987094,-3.366489579569355,0.0741445388680925,0.05470013990998268,0,0,0,10
0.636000030208379,0.004308802864987094,-3.366489579569355,0.0741445388680925,0.05470019951462746,0,0,0,10
0.6400000303983688,0.004308802864987094,-3.366489579569355,0.0741445388680925,0.05470031499862671,0,0,0,10
0.6440000305883586,0.004217249232750986,-3.366524672021933,0.07253308962748262,0.05470043048262596,0,0,0,10
0.6480000307783484,0.004217249232750986,-3.366524672021933,0.07253308962748262,0.05470056086778641,0,0,0,10
0.6520000309683383,0.004217249232750986,-3.366524672021933,0.07253308962748262,0.05470063164830208,0,0,0,10
0.6560000311583281,0.004217249232750986,-3.366524672021933,0.07253308962748262,0.05470069870352745,0,0,0,10
0.6600000313483179,0.004198506049464281,-3.3665303119562466,0.07227086090497353,0.054700691252946854,0,0,0,10
0.6640000315383077,0.004198506049464281,-3.3665303119562466,0.07227086090497353,0.05470066890120506,0,0,0,10
0.6680000317282975,0.004198506049464281,-3.3665303119562466,0.07227086090497353,0.0547005794942379,0,0,0,10
0.6720000319182873,0.004198506049464281,-3.3665303119562466,0.07227086090497353,0.05470047891139984,0,0,0,10
0.6760000321082771,0.00430145379572446,-3.3664917847468434,0.07404435759582514,0.054700348526239395,0,0,0,10
0.6800000322982669,0.00430145379572446,-3.3664917847468434,0.07404435759582514,0.05470023676753044,0,0,0,10
0.6840000324882567,0.00430145379572446,-3.3664917847468434,0.07404435759582514,0.05470013618469238,0,0,0,10
0.6880000326782465,0.00430145379572446,-3.3664917847468434,0.07404435759582514,0.054700110107660294,0,0,0,10
0.6920000328682363,0.004306907440243112,-3.366491598064339,0.07405270475609736,0.0547000952064991,0,0,0,10
0.6960000330582261,0.004306907440243112,-3.366491598064339,0.07405270475609736,0.05470016226172447,0,0,0,10
0.7000000332482159,0.004306907440243112,-3.366491598064339,0.07405270475609736,0.054700225591659546,0,0,0,10
0.7040000334382057,0.004306907440243112,-3.366491598064339,0.07405270475609736,0.05470035597681999,0,0,0,10
0.7080000336281955,0.004205518362767686,-3.3665282391118168,0.07236734502063451,0.05470046028494835,0,0,0,10
0.7120000338181853,0.004205518362767686,-3.3665282391118168,0.07236734502063451,0.054700590670108795,0,0,0,10
0.7160000340081751,0.004205518362767686,-3.3665282391118168,0.07236734502063451,0.05470065400004387,0,0,0,10
0.7200000341981649,0.004205518362767686,-3.3665282391118168,0.07236734502063451,0.054700709879398346,0,0,0,10
0.7240000343881547,0.004200475282948977,-3.3665279540954924,0.07238077413509321,0.05470068380236626,0,0,0,10
0.7280000345781446,0.004200475282948977,-3.3665279540954924,0.07238077413509321,0.054700661450624466,0,0,0,10
0.7320000347681344,0.004200475282948977,-3.3665279540954924,0.07238077413509321,0.05470054969191551,0,0,0,10
0.7360000349581242,0.004200475282948977,-3.3665279540954924,0.07238077413509321,0.05470044165849686,0,0,0,10
0.740000035148114,0.0043004196643739966,-3.3664921854566328,0.07402613007139072,0.05470031499862671,0,0,0,10
0.7440000353381038,0.0043004196643739966,-3.3664921854566328,0.07402613007139072,0.054700203239917755,0,0,0,10
0.7480000355280936,0.0043004196643739966,-3.3664921854566328,0.07402613007139072,0.05470012500882149,0,0,0,10
0.7520000357180834,0.0043004196643739966,-3.3664921854566328,0.07402613007139072,0.0547000989317894,0,0,0,10
0.7560000359080732,0.0042679862790422395,-3.3665082038601994,0.07329350651815576,0.05470012500882149,0,0,0,10
0.760000036098063,0.0042679862790422395,-3.3665082038601994,0.07329350651815576,0.05470016971230507,0,0,0,10
0.7640000362880528,0.0042679862790422395,-3.3665082038601994,0.07329350651815576,0.05470027029514313,0,0,0,10
0.7680000364780426,0.0042679862790422395,-3.3665082038601994,0.07329350651815576,0.054700374603271484,0,0,0,10
0.7720000366680324,0.004180970700468634,-3.366542864997198,0.07168305626310555,0.05470050871372223,0,0,0,10
0.7760000368580222,0.004180970700468634,-3.366542864997198,0.07168305626310555,0.05470060929656029,0,0,0,10
0.780000037048012,0.004180970700468634,-3.366542864997198,0.07168305626310555,0.054700691252946854,0,0,0,10
0.7840000372380018,0.004180970700468634,-3.366542864997198,0.07168305626310555,0.05470072105526924,0,0,0,10
0.7880000374279916,0.004201484234255138,-3.3665308842663246,0.07224405751660484,0.05470069497823715,0,0,0,10
0.7920000376179814,0.004201484234255138,-3.3665308842663246,0.07224405751660484,0.05470060929656029,0,0,0,10
0.7960000378079712,0.004201484234255138,-3.3665308842663246,0.07224405751660484,0.05470053851604462,0,0,0,10
0.800000037997961,0.004201484234255138,-3.3665308842663246,0.07224405751660484,0.05470038950443268,0,0,0,10
0.8040000381879508,0.0042927658583304445,-3.3665000891123196,0.07366531649456287,0.054700277745723724,0,0,0,10
0.8080000383779407,0.0042927658583304445,-3.3665000891123196,0.07366531649456287,0.05470019206404686,0,0,0,10
0.8120000385679305,0.0042927658583304445,-3.3665000891123196,0.07366531649456287,0.054700106382369995,0,0,0,10
0.8160000387579203,0.0042927658583304445,-3.3665000891123196,0.07366531649456287,0.0547000989317894,0,0,0,10
0.8200000389479101,0.004261306810531805,-3.366504936892036,0.07344390248279448,0.054700106382369995,0,0,0,10
0.8240000391378999,0.004261306810531805,-3.366504936892036,0.07344390248279448,0.05470019206404686,0,0,0,10
0.8280000393278897,0.004261306810531805,-3.366504936892036,0.07344390248279448,0.05470029264688492,0,0,0,10
0.8320000395178795,0.004261306810531805,-3.366504936892036,0.07344390248279448,0.05470043793320656,0,0,0,10
0.8360000397078693,0.004153791953977555,-3.3665433940099523,0.07165894067437642,0.05470053106546402,0,0,0,10
0.8400000398978591,0.004153791953977555,-3.3665433940099523,0.07165894067437642,0.054700639098882675,0,0,0,10
0.8440000400878489,0.004153791953977555,-3.3665433940099523,0.07165894067437642,0.05470068007707596,0,0,0,10
0.8480000402778387,0.004153791953977555,-3.3665433940099523,0.07165894067437642,0.054700709879398346,0,0,0,10
0.8520000404678285,0.0041528785995602335,-3.3665450206894794,0.07158235191198084,0.05470065772533417,0,0,0,10
0.8560000406578183,0.0041528785995602335,-3.3665450206894794,0.07158235191198084,0.05470060929656029,0,0,0,10
0.8600000408478081,0.0041528785995602335,-3.3665450206894794,0.07158235191198084,0.05470048263669014,0,0,0,10
0.8640000410377979,0.0041528785995602335,-3.3665450206894794,0.07158235191198084,0.054700370877981186,0,0,0,10
0.8680000412277877,0.0042488477426308536,-3.366510031482286,0.0732098957254042,0.05470023304224014,0,0,0,10
0.8720000414177775,0.0042488477426308536,-3.366510031482286,0.0732098957254042,0.05470016598701477,0,0,0,10
0.8760000416077673,0.0042488477426308536,-3.366510031482286,0.0732098957254042,0.0547000989317894,0,0,0,10
0.8800000417977571,0.0042488477426308536,-3.366510031482286,0.0732098957254042,0.054700106382369995,0,0,0,10
0.884000041987747,0.004250927444158524,-3.366510611566225,0.07318310305112836,0.05470012500882149,0,0,0,10
0.8880000421777368,0.004250927444158524,-3.366510611566225,0.07318310305112836,0.05470023304224014,0,0,0,10
0.8920000423677266,0.004250927444158524,-3.366510611566225,0.07318310305112836,0.05470031872391701,0,0,0,10
0.8960000425577164,0.004250927444158524,-3.366510611566225,0.07318310305112836,0.05470046401023865,0,0,0,10
0.9000000427477062,0.0041456874440742005,-3.3665479221310735,0.07144569930777867,0.054700564593076706,0,0,0,10
0.904000042937696,0.0041456874440742005,-3.3665479221310735,0.07144569930777867,0.054700665175914764,0,0,0,10
0.9080000431276858,0.0041456874440742005,-3.3665479221310735,0.07144569930777867,0.054700691252946854,0,0,0,10
0.9120000433176756,0.0041456874440742005,-3.3665479221310735,0.07144569930777867,0.05470070615410805,0,0,0,10
0.9160000435076654,0.004156818102703453,-3.366546388353895,0.07151775941148861,0.054700639098882675,0,0,0,10
0.9200000436976552,0.004156818102703453,-3.366546388353895,0.07151775941148861,0.0547005757689476,0,0,0,10
0.924000043887645,0.004156818102703453,-3.366546388353895,0.07151775941148861,0.05470043420791626,0,0,0,10
0.9280000440776348,0.004156818102703453,-3.366546388353895,0.07151775941148861,0.0547003410756588,0,0,0,10
0.9320000442676246,0.004234403811643278,-3.366513074697512,0.0730699560080663,0.05470021814107895,0,0,0,10
0.9360000444576144,0.004234403811643278,-3.366513074697512,0.0730699560080663,0.05470013990998268,0,0,0,10
0.9400000446476042,0.004234403811643278,-3.366513074697512,0.0730699560080663,0.0547000989317894,0,0,0,10
0.944000044837594,0.004234403811643278,-3.366513074697512,0.0730699560080663,0.054700110107660294,0,0,0,10
0.9480000450275838,0.004225440855222733,-3.366517310786794,0.07287439425205333,0.05470015108585358,0,0,0,10
0.9520000452175736,0.004225440855222733,-3.366517310786794,0.07287439425205333,0.054700255393981934,0,0,0,10
0.9560000454075634,0.004225440855222733,-3.366517310786794,0.07287439425205333,0.054700348526239395,0,0,0,10
0.9600000455975533,0.004225440855222733,-3.366517310786794,0.07287439425205333,0.054700493812561035,0,0,0,10
0.9640000457875431,0.00412731808074276,-3.3665532552756217,0.07119398020059861,0.054700590670108795,0,0,0,10
0.9680000459775329,0.00412731808074276,-3.3665532552756217,0.07119398020059861,0.05470068007707596,0,0,0,10
0.9720000461675227,0.00412731808074276,-3.3665532552756217,0.07119398020059861,0.05470069870352745,0,0,0,10
0.9760000463575125,0.00412731808074276,-3.3665532552756217,0.07119398020059861,0.05470070615410805,0,0,0,10
0.9800000465475023,0.004148935012279469,-3.3665478288259902,0.0714500112878943,0.05470062047243118,0,0,0,10
0.9840000467374921,0.004148935012279469,-3.3665478288259902,0.0714500112878943,0.05470054969191551,0,0,0,10
0.9880000469274819,0.004148935012279469,-3.3665478288259902,0.0714500112878943,0.054700400680303574,0,0,0,10
0.9920000471174717,0.004148935012279469,-3.3665478288259902,0.0714500112878943,0.054700300097465515,0,0,0,10
0.9960000473074615,0.004233079929573112,-3.366515909146167,0.07293902605270053,0.054700177162885666,0,0,0,10
1.0000000474974513,0.004233079929573112,-3.366515909146167,0.07293902605270053,0.054700128734111786,0,0,0,10
1.004000047687441,0.004233079929573112,-3.366515909146167,0.07293902605270053,0.054700080305337906,0,0,0,10
1.008000047877431,0.004233079929573112,-3.366515909146167,0.07293902605270053,0.05470013618469238,0,0,0,10
1.0120000480674207,0.004185100871809231,-3.366531303409235,0.07222495454083036,0.05470017343759537,0,0,0,10
1.0160000482574105,0.004185100871809231,-3.366531303409235,0.07222495454083036,0.05470028519630432,0,0,0,10
1.0200000484474003,0.004185100871809231,-3.366531303409235,0.07222495454083036,0.05470039322972298,0,0,0,10
1.0240000486373901,0.004185100871809231,-3.366531303409235,0.07222495454083036,0.05470052734017372,0,0,0,10
1.02800004882738,0.004099629151551225,-3.366565042722024,0.0706340625629444,0.05470062792301178,0,0,0,10
1.0320000490173697,0.004099629151551225,-3.366565042722024,0.0706340625629444,0.054700687527656555,0,0,0,10
1.0360000492073596,0.004099629151551225,-3.366565042722024,0.0706340625629444,0.05470070615410805,0,0,0,10
1.0400000493973494,0.004099629151551225,-3.366565042722024,0.0706340625629444,0.054700661450624466,0,0,0,10
1.0440000495873392,0.004158825049933341,-3.3665508564136246,0.07130664445311846,0.05470062047243118,0,0,0,10
1.048000049777329,0.004158825049933341,-3.3665508564136246,0.07130664445311846,0.05470050126314163,0,0,0,10
1.0520000499673188,0.004158825049933341,-3.3665508564136246,0.07130664445311846,0.054700396955013275,0,0,0,10
1.0560000501573086,0.004158825049933341,-3.3665508564136246,0.07130664445311846,0.05470026284456253,0,0,0,10
1.0600000503472984,0.004239224867524559,-3.3665187330528603,0.07280813329552474,0.05470017343759537,0,0,0,10
1.0640000505372882,0.004239224867524559,-3.3665187330528603,0.07280813329552474,0.054700110107660294,0,0,0,10
1.068000050727278,0.004239224867524559,-3.3665187330528603,0.07280813329552474,0.0547001026570797,0,0,0,10
1.0720000509172678,0.004239224867524559,-3.3665187330528603,0.07280813329552474,0.05470012128353119,0,0,0,10
1.0760000511072576,0.0041650653332299175,-3.3665475491454155,0.0714627491645163,0.05470021814107895,0,0,0,10
1.0800000512972474,0.0041650653332299175,-3.3665475491454155,0.0714627491645163,0.054700303822755814,0,0,0,10
1.0840000514872372,0.0041650653332299175,-3.3665475491454155,0.0714627491645163,0.054700449109077454,0,0,0,10
1.088000051677227,0.0041650653332299175,-3.3665475491454155,0.0714627491645163,0.05470055341720581,0,0,0,10
1.0920000518672168,0.0040804915174504795,-3.3663380889394205,0.0703678933901738,0.05470065400004387,0,0,0,10
1.0960000520572066,0.0040804915174504795,-3.3663380889394205,0.0703678933901738,0.05470070242881775,0,0,0,10
1.1000000522471964,0.0040804915174504795,-3.3663380889394205,0.0703678933901738,0.054700709879398346,0,0,0,10
1.1040000524371862,0.0040804915174504795,-3.3663380889394205,0.0703678933901738,0.05470067262649536,0,0,0,10
1.108000052627176,0.004159187996895261,-3.366543539949984,0.07165191568717327,0.0547005720436573,0,0,0,10
1.1120000528171659,0.004159187996895261,-3.366543539949984,0.07165191568717327,0.05470047518610954,0,0,0,10
1.1160000530071557,0.004159187996895261,-3.366543539949984,0.07165191568717327,0.0547003298997879,0,0,0,10
1.1200000531971455,0.004159187996895261,-3.366543539949984,0.07165191568717327,0.054700255393981934,0,0,0,10
1.1240000533871353,0.004209069692646696,-3.366522474018987,0.07263547325896183,0.05470015108585358,0,0,0,10
1.128000053577125,0.004209069692646696,-3.366522474018987,0.07263547325896183,0.05470011755824089,0,0,0,10
1.1320000537671149,0.004209069692646696,-3.366522474018987,0.07263547325896183,0.0547000952064991,0,0,0,10
1.1360000539571047,0.004209069692646696,-3.366522474018987,0.07263547325896183,0.054700158536434174,0,0,0,10
1.1400000541470945,0.004185451455624327,-3.36653284069141,0.07215311046538148,0.05470024049282074,0,0,0,10
1.1440000543370843,0.004185451455624327,-3.36653284069141,0.07215311046538148,0.054700348526239395,0,0,0,10
1.148000054527074,0.004185451455624327,-3.36653284069141,0.07215311046538148,0.05470047518610954,0,0,0,10
1.152000054717064,0.004185451455624327,-3.36653284069141,0.07215311046538148,0.0547005720436573,0,0,0,10
1.1560000549070537,0.004123142871144874,-3.366561518997426,0.0708014697793078,0.054700661450624466,0,0,0,10
1.1600000550970435,0.004123142871144874,-3.366561518997426,0.0708014697793078,0.05470070615410805,0,0,0,10
1.1640000552870333,0.004123142871144874,-3.366561518997426,0.0708014697793078,0.05470069870352745,0,0,0,10
1.1680000554770231,0.004123142871144874,-3.366561518997426,0.0708014697793078,0.054700642824172974,0,0,0,10
1.172000055667013,0.004206969319065707,-3.3665309524605975,0.07224071498182034,0.05470055341720581,0,0,0,10
1.1760000558570027,0.004206969319065707,-3.3665309524605975,0.07224071498182034,0.054700449109077454,0,0,0,10
1.1800000560469925,0.004206969319065707,-3.3665309524605975,0.07224071498182034,0.05470031127333641,0,0,0,10
1.1840000562369823,0.004206969319065707,-3.3665309524605975,0.07224071498182034,0.05470019951462746,0,0,0,10
1.1880000564269722,0.004249631830883812,-3.366512869218617,0.07307900399867726,0.054700128734111786,0,0,0,10
1.192000056616962,0.004249631830883812,-3.366512869218617,0.07307900399867726,0.054700084030628204,0,0,0,10
1.1960000568069518,0.004249631830883812,-3.366512869218617,0.07307900399867726,0.054700110107660294,0,0,0,10
1.2000000569969416,0.004249631830883812,-3.366512869218617,0.07307900399867726,0.05470016971230507,0,0,0,10
1.2040000571869314,0.004143288096775598,-3.3665503191589843,0.07133250410867606,0.054700274020433426,0,0,0,10
1.2080000573769212,0.004143288096775598,-3.3665503191589843,0.07133250410867606,0.05470038577914238,0,0,0,10
1.212000057566911,0.004143288096775598,-3.3665503191589843,0.07133250410867606,0.05470050126314163,0,0,0,10
1.2160000577569008,0.004143288096775598,-3.3665503191589843,0.07133250410867606,0.054700594395399094,0,0,0,10
1.2200000579468906,0.004110521833852991,-3.3665673264132607,0.07052460089846219,0.05470067262649536,0,0,0,10
1.2240000581368804,0.004110521833852991,-3.3665673264132607,0.07052460089846219,0.05470070615410805,0,0,0,10
1.2280000583268702,0.004110521833852991,-3.3665673264132607,0.07052460089846219,0.05470068380236626,0,0,0,10
1.23200005851686,0.004110521833852991,-3.3665673264132607,0.07052460089846219,0.054700616747140884,0,0,0,10
1.2360000587068498,0.00420022482589592,-3.3665326239909072,0.07216281582595978,0.054700519889593124,0,0,0,10
1.2400000588968396,0.00420022482589592,-3.3665326239909072,0.07216281582595978,0.05470038950443268,0,0,0,10
1.2440000590868294,0.00420022482589592,-3.3665326239909072,0.07216281582595978,0.05470027029514313,0,0,0,10
1.2480000592768192,0.00420022482589592,-3.3665326239909072,0.07216281582595978,0.054700177162885666,0,0,0,10
1.252000059466809,0.00424263530249518,-3.3665182495543013,0.07283043216236093,0.054700110107660294,0,0,0,10
1.2560000596567988,0.00424263530249518,-3.3665182495543013,0.07283043216236093,0.0547000914812088,0,0,0,10
1.2600000598467886,0.00424263530249518,-3.3665182495543013,0.07283043216236093,0.054700110107660294,0,0,0,10
1.2640000600367785,0.00424263530249518,-3.3665182495543013,0.07283043216236093,0.05470019951462746,0,0,0,10
1.2680000602267683,0.004165744120543593,-3.36654577335403,0.07154650389807894,0.05470029637217522,0,0,0,10
1.272000060416758,0.004165744120543593,-3.36654577335403,0.07154650389807894,0.054700419306755066,0,0,0,10
1.2760000606067479,0.004165744120543593,-3.36654577335403,0.07154650389807894,0.05470053851604462,0,0,0,10
1.2800000607967377,0.004165744120543593,-3.36654577335403,0.07154650389807894,0.05470062792301178,0,0,0,10
1.2840000609867275,0.004092642437769118,-3.366569735801825,0.07040977822922306,0.054700687527656555,0,0,0,10
1.2880000611767173,0.004092642437769118,-3.366569735801825,0.07040977822922306,0.05470070615410805,0,0,0,10
1.292000061366707,0.004092642437769118,-3.366569735801825,0.07040977822922306,0.054700665175914764,0,0,0,10
1.296000061556697,0.004092642437769118,-3.366569735801825,0.07040977822922306,0.054700590670108795,0,0,0,10
1.3000000617466867,0.004168208188771298,-3.366542588054012,0.07169645626917868,0.05470047518610954,0,0,0,10
1.3040000619366765,0.004168208188771298,-3.366542588054012,0.07169645626917868,0.05470035597681999,0,0,0,10
1.3080000621266663,0.004168208188771298,-3.366542588054012,0.07169645626917868,0.05470024421811104,0,0,0,10
1.3120000623166561,0.004168208188771298,-3.366542588054012,0.07169645626917868,0.054700154811143875,0,0,0,10
1.316000062506646,0.004233045815172599,-3.3665200749987765,0.07274611183325283,0.054700106382369995,0,0,0,10
1.3200000626966357,0.004233045815172599,-3.3665200749987765,0.07274611183325283,0.054700110107660294,0,0,0,10
1.3240000628866255,0.004233045815172599,-3.3665200749987765,0.07274611183325283,0.05470014736056328,0,0,0,10
1.3280000630766153,0.004233045815172599,-3.3665200749987765,0.07274611183325283,0.05470021814107895,0,0,0,10
1.3320000632666051,0.0041508788312239284,-3.3665498866524772,0.0713527356785295,0.0547003336250782,0,0,0,10
1.336000063456595,0.0041508788312239284,-3.3665498866524772,0.0713527356785295,0.054700445383787155,0,0,0,10
1.3400000636465847,0.0041508788312239284,-3.3665498866524772,0.0713527356785295,0.054700568318367004,0,0,0,10
1.3440000638365746,0.0041508788312239284,-3.3665498866524772,0.0713527356785295,0.054700665175914764,0,0,0,10
1.3480000640265644,0.004088853357331114,-3.366571941505886,0.07030413375013757,0.05470070242881775,0,0,0,10
1.3520000642165542,0.004088853357331114,-3.366571941505886,0.07030413375013757,0.05470069497823715,0,0,0,10
1.356000064406544,0.004088853357331114,-3.366571941505886,0.07030413375013757,0.054700639098882675,0,0,0,10
1.3600000645965338,0.004088853357331114,-3.366571941505886,0.07030413375013757,0.05470056086778641,0,0,0,10
1.3640000647865236,0.00416681636038425,-3.3665442447853278,0.07161850578756222,0.054700445383787155,0,0,0,10
1.3680000649765134,0.00416681636038425,-3.3665442447853278,0.07161850578756222,0.0547003336250782,0,0,0,10
1.3720000651665032,0.00416681636038425,-3.3665442447853278,0.07161850578756222,0.05470021441578865,0,0,0,10
1.376000065356493,0.00416681636038425,-3.3665442447853278,0.07161850578756222,0.05470013990998268,0,0,0,10
1.3800000655464828,0.004224846817325323,-3.3665243861384115,0.07254616466066106,0.0547000989317894,0,0,0,10
1.3840000657364726,0.004224846817325323,-3.3665243861384115,0.07254616466066106,0.05470012128353119,0,0,0,10
1.3880000659264624,0.004224846817325323,-3.3665243861384115,0.07254616466066106,0.05470016226172447,0,0,0,10
1.3920000661164522,0.004224846817325323,-3.3665243861384115,0.07254616466066106,0.054700251668691635,0,0,0,10
1.396000066306442,0.004137191515544972,-3.3665561829976047,0.07105484058405438,0.05470035970211029,0,0,0,10
1.4000000664964318,0.004137191515544972,-3.3665561829976047,0.07105484058405438,0.054700493812561035,0,0,0,10
1.4040000666864216,0.004137191515544972,-3.3665561829976047,0.07105484058405438,0.054700594395399094,0,0,0,10
1.4080000668764114,0.004137191515544972,-3.3665561829976047,0.07105484058405438,0.05470067635178566,0,0,0,10
1.4120000670664012,0.004076744763935955,-3.366342696470468,0.07014679307615741,0.05470070615410805,0,0,0,10
1.416000067256391,0.004076744763935955,-3.366342696470468,0.07014679307615741,0.05470068380236626,0,0,0,10
1.4200000674463809,0.004076744763935955,-3.366342696470468,0.07014679307615741,0.05470062792301178,0,0,0,10
1.4240000676363707,0.004076744763935955,-3.366342696470468,0.07014679307615741,0.05470053479075432,0,0,0,10
1.4280000678263605,0.004165949418656395,-3.3665457266461596,0.07154870012299315,0.05470041558146477,0,0,0,10
1.4320000680163503,0.004165949418656395,-3.3665457266461596,0.07154870012299315,0.05470028519630432,0,0,0,10
1.43600006820634,0.004165949418656395,-3.3665457266461596,0.07154870012299315,0.05470018461346626,0,0,0,10
1.4400000683963299,0.004165949418656395,-3.3665457266461596,0.07154870012299315,0.054700128734111786,0,0,0,10
1.4440000685863197,0.004189002474216089,-3.3665351881554653,0.07204317757551543,0.054700084030628204,0,0,0,10
1.4480000687763095,0.004189002474216089,-3.3665351881554653,0.07204317757551543,0.054700110107660294,0,0,0,10
1.4520000689662993,0.004189002474216089,-3.3665351881554653,0.07204317757551543,0.05470018833875656,0,0,0,10
1.456000069156289,0.004189002474216089,-3.3665351881554653,0.07204317757551543,0.054700277745723724,0,0,0,10
1.460000069346279,0.0040967483557518255,-3.3665685855055236,0.070464748629443,0.054700396955013275,0,0,0,10
1.4640000695362687,0.0040967483557518255,-3.3665685855055236,0.070464748629443,0.05470052734017372,0,0,0,10
1.4680000697262585,0.0040967483557518255,-3.3665685855055236,0.070464748629443,0.05470062047243118,0,0,0,10
1.4720000699162483,0.0040967483557518255,-3.3665685855055236,0.070464748629443,0.054700687527656555,0,0,0,10
1.4760000701062381,0.00407538405748002,-3.366346270805299,0.06997474591054852,0.054700713604688644,0,0,0,10
1.480000070296228,0.00407538405748002,-3.366346270805299,0.06997474591054852,0.05470067262649536,0,0,0,10
1.4840000704862177,0.00407538405748002,-3.366346270805299,0.06997474591054852,0.05470060557126999,0,0,0,10
1.4880000706762075,0.00407538405748002,-3.366346270805299,0.06997474591054852,0.054700497537851334,0,0,0,10
1.4920000708661973,0.00416014210470116,-3.36654742600958,0.07146870367950385,0.05470038950443268,0,0,0,10
1.4960000710561872,0.00416014210470116,-3.36654742600958,0.07146870367950385,0.054700251668691635,0,0,0,10
1.500000071246177,0.00416014210470116,-3.36654742600958,0.07146870367950385,0.05470016226172447,0,0,0,10
1.5040000714361668,0.00416014210470116,-3.36654742600958,0.07146870367950385,0.05470012128353119,0,0,0,10
1.5080000716261566,0.004168938683023985,-3.3665428211533532,0.07168546720889474,0.054700106382369995,0,0,0,10
1.5120000718161464,0.004168938683023985,-3.3665428211533532,0.07168546720889474,0.054700132459402084,0,0,0,10
1.5160000720061362,0.004168938683023985,-3.3665428211533532,0.07168546720889474,0.05470021814107895,0,0,0,10
1.520000072196126,0.004168938683023985,-3.3665428211533532,0.07168546720889474,0.05470031499862671,0,0,0,10
1.5240000723861158,0.00407067379314229,-3.3663467051824303,0.06995393999048204,0.05470043420791626,0,0,0,10
1.5280000725761056,0.00407067379314229,-3.3663467051824303,0.06995393999048204,0.05470054969191551,0,0,0,10
1.5320000727660954,0.00407067379314229,-3.3663467051824303,0.06995393999048204,0.054700639098882675,0,0,0,10
1.5360000729560852,0.00407067379314229,-3.3663467051824303,0.06995393999048204,0.054700691252946854,0,0,0,10
1.540000073146075,0.004074768305859466,-3.366346226028534,0.06997692210534712,0.05470070242881775,0,0,0,10
1.5440000733360648,0.004074768305859466,-3.366346226028534,0.06997692210534712,0.054700661450624466,0,0,0,10
1.5480000735260546,0.004074768305859466,-3.366346226028534,0.06997692210534712,0.0547005720436573,0,0,0,10
1.5520000737160444,0.004074768305859466,-3.366346226028534,0.06997692210534712,0.05470045283436775,0,0,0,10
1.5560000739060342,0.004169654827199171,-3.3665436832017597,0.07164486997588294,0.0547003448009491,0,0,0,10
1.560000074096024,0.004169654827199171,-3.3665436832017597,0.07164486997588294,0.054700229316949844,0,0,0,10
1.5640000742860138,0.004169654827199171,-3.3665436832017597,0.07164486997588294,0.05470014736056328,0,0,0,10
1.5680000744760036,0.004169654827199171,-3.3665436832017597,0.07164486997588294,0.054700106382369995,0,0,0,10
1.5720000746659935,0.004149493721720478,-3.366548406838294,0.07142270110643134,0.0547000989317894,0,0,0,10
1.5760000748559833,0.004149493721720478,-3.366548406838294,0.07142270110643134,0.05470015108585358,0,0,0,10
1.580000075045973,0.004149493721720478,-3.366548406838294,0.07142270110643134,0.05470023676753044,0,0,0,10
1.5840000752359629,0.004149493721720478,-3.366548406838294,0.07142270110643134,0.054700348526239395,0,0,0,10
1.5880000754259527,0.004055313467330673,-3.366350817803139,0.06975579680728493,0.054700471460819244,0,0,0,10
1.5920000756159425,0.004055313467330673,-3.366350817803139,0.06975579680728493,0.054700590670108795,0,0,0,10
1.5960000758059323,0.004055313467330673,-3.366350817803139,0.06975579680728493,0.05470067262649536,0,0,0,10
1.600000075995922,0.004055313467330673,-3.366350817803139,0.06975579680728493,0.05470070242881775,0,0,0,10
1.604000076185912,0.004069177116726946,-3.3663472254851468,0.0699288904185887,0.05470068380236626,0,0,0,10
1.6080000763759017,0.004069177116726946,-3.3663472254851468,0.0699288904185887,0.05470063537359238,0,0,0,10
1.6120000765658915,0.004069177116726946,-3.3663472254851468,0.0699288904185887,0.05470055341720581,0,0,0,10
1.6160000767558813,0.004069177116726946,-3.3663472254851468,0.0699288904185887,0.05470043420791626,0,0,0,10
1.6200000769458711,0.004157889565572767,-3.3665467654799475,0.07149993844616356,0.054700303822755814,0,0,0,10
1.624000077135861,0.004157889565572767,-3.3665467654799475,0.07149993844616356,0.054700206965208054,0,0,0,10
1.6280000773258507,0.004157889565572767,-3.3665467654799475,0.07149993844616356,0.05470012500882149,0,0,0,10
1.6320000775158405,0.004157889565572767,-3.3665467654799475,0.07149993844616356,0.0547001026570797,0,0,0,10
1.6360000777058303,0.004127791144843418,-3.3665600917099763,0.07086930526118745,0.05470011383295059,0,0,0,10
1.6400000778958201,0.004127791144843418,-3.3665600917099763,0.07086930526118745,0.05470016971230507,0,0,0,10
1.64400007808581,0.004127791144843418,-3.3665600917099763,0.07086930526118745,0.05470027029514313,0,0,0,10
1.6480000782757998,0.004127791144843418,-3.3665600917099763,0.07086930526118745,0.05470038950443268,0,0,0,10
1.6520000784657896,0.004024226499087778,-3.366360713021866,0.06927655302643407,0.054700497537851334,0,0,0,10
1.6560000786557794,0.004024226499087778,-3.366360713021866,0.06927655302643407,0.054700613021850586,0,0,0,10
1.6600000788457692,0.004024226499087778,-3.366360713021866,0.06927655302643407,0.05470067635178566,0,0,0,10
1.664000079035759,0.004024226499087778,-3.366360713021866,0.06927655302643407,0.054700713604688644,0,0,0,10
1.6680000792257488,0.0040600716729578944,-3.3663484630581837,0.06986943203963905,0.05470067635178566,0,0,0,10
1.6720000794157386,0.0040600716729578944,-3.3663484630581837,0.06986943203963905,0.054700613021850586,0,0,0,10
1.6760000796057284,0.0040600716729578944,-3.3663484630581837,0.06986943203963905,0.054700519889593124,0,0,0,10
1.6800000797957182,0.0040600716729578944,-3.3663484630581837,0.06986943203963905,0.05470040440559387,0,0,0,10
1.684000079985708,0.004154886764560897,-3.3665496401175825,0.07136427429647553,0.054700274020433426,0,0,0,10
1.6880000801756978,0.004154886764560897,-3.3665496401175825,0.07136427429647553,0.05470017343759537,0,0,0,10
1.6920000803656876,0.004154886764560897,-3.3665496401175825,0.07136427429647553,0.05470012128353119,0,0,0,10
1.6960000805556774,0.004154886764560897,-3.3665496401175825,0.07136427429647553,0.0547000914812088,0,0,0,10
1.7000000807456672,0.004133599065343152,-3.366554790648955,0.07112101436656625,0.05470012128353119,0,0,0,10
1.704000080935657,0.004133599065343152,-3.366554790648955,0.07112101436656625,0.054700180888175964,0,0,0,10
1.7080000811256468,0.004133599065343152,-3.366554790648955,0.07112101436656625,0.05470029637217522,0,0,0,10
1.7120000813156366,0.004133599065343152,-3.366554790648955,0.07112101436656625,0.054700423032045364,0,0,0,10
1.7160000815056264,0.004034114993460184,-3.3663592718700475,0.06934640287089235,0.054700545966625214,0,0,0,10
1.7200000816956162,0.004034114993460184,-3.3663592718700475,0.06934640287089235,0.05470063164830208,0,0,0,10
1.724000081885606,0.004034114993460184,-3.3663592718700475,0.06934640287089235,0.054700687527656555,0,0,0,10
1.7280000820755959,0.004034114993460184,-3.3663592718700475,0.06934640287089235,0.05470069870352745,0,0,0,10
1.7320000822655857,0.00403136038013744,-3.366360397368683,0.0692917151171525,0.05470067635178566,0,0,0,10
1.7360000824555755,0.00403136038013744,-3.366360397368683,0.0692917151171525,0.054700594395399094,0,0,0,10
1.7400000826455653,0.00403136038013744,-3.366360397368683,0.0692917151171525,0.05470048263669014,0,0,0,10
1.744000082835555,0.00403136038013744,-3.366360397368683,0.0692917151171525,0.05470035970211029,0,0,0,10
1.7480000830255449,0.00413295377843027,-3.3665569604254197,0.07101804538412412,0.05470024049282074,0,0,0,10
1.7520000832155347,0.00413295377843027,-3.3665569604254197,0.07101804538412412,0.054700158536434174,0,0,0,10
1.7560000834055245,0.00413295377843027,-3.3665569604254197,0.07101804538412412,0.054700106382369995,0,0,0,10
1.7600000835955143,0.00413295377843027,-3.3665569604254197,0.07101804538412412,0.0547001026570797,0,0,0,10
1.764000083785504,0.0041257286854334526,-3.3665593802259495,0.07090322253494195,0.05470014363527298,0,0,0,10
1.768000083975494,0.0041257286854334526,-3.3665593802259495,0.07090322253494195,0.054700229316949844,0,0,0,10
1.7720000841654837,0.0041257286854334526,-3.3665593802259495,0.07090322253494195,0.0547003448009491,0,0,0,10
1.7760000843554735,0.0041257286854334526,-3.3665593802259495,0.07090322253494195,0.05470046401023865,0,0,0,10
1.7800000845454633,0.00402492261149347,-3.366362482076175,0.06919034374320421,0.054700564593076706,0,0,0,10
1.7840000847354531,0.00402492261149347,-3.366362482076175,0.06919034374320421,0.05470063537359238,0,0,0,10
1.788000084925443,0.00402492261149347,-3.366362482076175,0.06919034374320421,0.054700687527656555,0,0,0,10
1.7920000851154327,0.00402492261149347,-3.366362482076175,0.06919034374320421,0.05470069870352745,0,0,0,10
1.7960000853054225,0.004033199637481635,-3.366360864647024,0.0692689113406193,0.05470064654946327,0,0,0,10
1.8000000854954123,0.004033199637481635,-3.366360864647024,0.0692689113406193,0.05470056086778641,0,0,0,10
1.8040000856854022,0.004033199637481635,-3.366360864647024,0.0692689113406193,0.05470046028494835,0,0,0,10
1.808000085875392,0.004033199637481635,-3.366360864647024,0.0692689113406193,0.05470031872391701,0,0,0,10
1.8120000860653818,0.004121422086027564,-3.366559871500634,0.07087996997318675,0.05470021069049835,0,0,0,10
1.8160000862553716,0.004121422086027564,-3.366559871500634,0.07087996997318675,0.05470013990998268,0,0,0,10
1.8200000864453614,0.004121422086027564,-3.366559871500634,0.07087996997318675,0.054700110107660294,0,0,0,10
1.8240000866353512,0.004121422086027564,-3.366559871500634,0.07087996997318675,0.0547000989317894,0,0,0,10
1.828000086825341,0.00409672461171524,-3.366569690376812,0.07041183685703153,0.05470016598701477,0,0,0,10
1.8320000870153308,0.00409672461171524,-3.366569690376812,0.07041183685703153,0.054700251668691635,0,0,0,10
1.8360000872053206,0.00409672461171524,-3.366569690376812,0.07041183685703153,0.05470036342740059,0,0,0,10
1.8400000873953104,0.00409672461171524,-3.366569690376812,0.07041183685703153,0.05470048263669014,0,0,0,10
1.8440000875853002,0.004006587479148956,-3.36637116786672,0.06876612962770612,0.054700594395399094,0,0,0,10
1.84800008777529,0.004006587479148956,-3.36637116786672,0.06876612962770612,0.05470067262649536,0,0,0,10
1.8520000879652798,0.004006587479148956,-3.36637116786672,0.06876612962770612,0.05470070242881775,0,0,0,10
1.8560000881552696,0.004006587479148956,-3.36637116786672,0.06876612962770612,0.054700691252946854,0,0,0,10
1.8600000883452594,0.004016947549376873,-3.3663654190953265,0.0690472429860506,0.05470062047243118,0,0,0,10
1.8640000885352492,0.004016947549376873,-3.3663654190953265,0.0690472429860506,0.05470052734017372,0,0,0,10
1.868000088725239,0.004016947549376873,-3.3663654190953265,0.0690472429860506,0.05470040813088417,0,0,0,10
1.8720000889152288,0.004016947549376873,-3.3663654190953265,0.0690472429860506,0.05470029637217522,0,0,0,10
1.8760000891052186,0.004106724201539559,-3.366566208482055,0.0705781628034252,0.05470019206404686,0,0,0,10
1.8800000892952085,0.004106724201539559,-3.366566208482055,0.0705781628034252,0.05470011755824089,0,0,0,10
1.8840000894851983,0.004106724201539559,-3.366566208482055,0.0705781628034252,0.0547000952064991,0,0,0,10
1.888000089675188,0.004106724201539559,-3.366566208482055,0.0705781628034252,0.05470011383295059,0,0,0,10
1.8920000898651779,0.004060173787261275,-3.3663501799633804,0.06978649304110288,0.05470018461346626,0,0,0,10
1.8960000900551677,0.004060173787261275,-3.3663501799633804,0.06978649304110288,0.054700277745723724,0,0,0,10
1.9000000902451575,0.004060173787261275,-3.3663501799633804,0.06978649304110288,0.054700396955013275,0,0,0,10
1.9040000904351473,0.004060173787261275,-3.3663501799633804,0.06978649304110288,0.054700519889593124,0,0,0,10
1.908000090625137,0.003975771407475722,-3.366382012720222,0.06823298893579785,0.05470062419772148,0,0,0,10
1.912000090815127,0.003975771407475722,-3.366382012720222,0.06823298893579785,0.054700687527656555,0,0,0,10
1.9160000910051167,0.003975771407475722,-3.366382012720222,0.06823298893579785,0.05470070242881775,0,0,0,10
1.9200000911951065,0.003975771407475722,-3.366382012720222,0.06823298893579785,0.05470068007707596,0,0,0,10
1.9240000913850963,0.004013230837168202,-3.3663666309443174,0.06898812352756759,0.05470060557126999,0,0,0,10
1.9280000915750861,0.004013230837168202,-3.3663666309443174,0.06898812352756759,0.05470048636198044,0,0,0,10
1.932000091765076,0.004013230837168202,-3.3663666309443174,0.06898812352756759,0.05470037832856178,0,0,0,10
1.9360000919550657,0.004013230837168202,-3.3663666309443174,0.06898812352756759,0.05470026656985283,0,0,0,10
1.9400000921450555,0.004095426036529896,-3.366569004593423,0.0704447212256539,0.054700158536434174,0,0,0,10
1.9440000923350453,0.004095426036529896,-3.366569004593423,0.0704447212256539,0.054700110107660294,0,0,0,10
1.9480000925250351,0.004095426036529896,-3.366569004593423,0.0704447212256539,0.0547000989317894,0,0,0,10
1.952000092715025,0.004095426036529896,-3.366569004593423,0.0704447212256539,0.05470014363527298,0,0,0,10
1.9560000929050148,0.004015334585801154,-3.3663645392018458,0.0690902606083001,0.054700206965208054,0,0,0,10
1.9600000930950046,0.004015334585801154,-3.3663645392018458,0.0690902606083001,0.05470030754804611,0,0,0,10
1.9640000932849944,0.004015334585801154,-3.3663645392018458,0.0690902606083001,0.05470043420791626,0,0,0,10
1.9680000934749842,0.004015334585801154,-3.3663645392018458,0.0690902606083001,0.054700542241334915,0,0,0,10
1.972000093664974,0.003960377331475269,-3.366386258188833,0.06802323452818912,0.05470065027475357,0,0,0,10
1.9760000938549638,0.003960377331475269,-3.366386258188833,0.06802323452818912,0.054700687527656555,0,0,0,10
1.9800000940449536,0.003960377331475269,-3.366386258188833,0.06802323452818912,0.05470069497823715,0,0,0,10
1.9840000942349434,0.003960377331475269,-3.366386258188833,0.06802323452818912,0.054700642824172974,0,0,0,10
1.9880000944249332,0.004035261138475975,-3.366360289315241,0.0692968623108766,0.0547005720436573,0,0,0,10
1.992000094614923,0.004035261138475975,-3.366360289315241,0.0692968623108766,0.05470046401023865,0,0,0,10
1.9960000948049128,0.004035261138475975,-3.366360289315241,0.0692968623108766,0.054700352251529694,0,0,0,10
2.0000000949949026,0.004035261138475975,-3.366360289315241,0.0692968623108766,0.054700229316949844,0,0,0,10
2.0040000951848924,0.004090439839150556,-3.366572590273369,0.07027295216764456,0.05470013990998268,0,0,0,10
2.008000095374882,0.004090439839150556,-3.366572590273369,0.07027295216764456,0.054700106382369995,0,0,0,10
2.012000095564872,0.004090439839150556,-3.366572590273369,0.07027295216764456,0.0547000914812088,0,0,0,10
2.016000095754862,0.004090439839150556,-3.366572590273369,0.07027295216764456,0.05470014736056328,0,0,0,10
2.0200000959448516,0.00400530064802183,-3.366370001818989,0.06882333986786293,0.05470024421811104,0,0,0,10
2.0240000961348414,0.00400530064802183,-3.366370001818989,0.06882333986786293,0.05470035970211029,0,0,0,10
2.0280000963248312,0.00400530064802183,-3.366370001818989,0.06882333986786293,0.05470047891139984,0,0,0,10
2.032000096514821,0.00400530064802183,-3.366370001818989,0.06882333986786293,0.0547005869448185,0,0,0,10
2.036000096704811,0.003945556378095531,-3.36638958221971,0.06785863107494695,0.05470065772533417,0,0,0,10
2.0400000968948007,0.003945556378095531,-3.36638958221971,0.06785863107494695,0.05470070615410805,0,0,0,10
2.0440000970847905,0.003945556378095531,-3.36638958221971,0.06785863107494695,0.05470069497823715,0,0,0,10
2.0480000972747803,0.003945556378095531,-3.36638958221971,0.06785863107494695,0.05470063164830208,0,0,0,10
2.05200009746477,0.004025780353250631,-3.3663621008192943,0.06920890314768031,0.05470052734017372,0,0,0,10
2.05600009765476,0.004025780353250631,-3.3663621008192943,0.06920890314768031,0.05470043048262596,0,0,0,10
2.0600000978447497,0.004025780353250631,-3.3663621008192943,0.06920890314768031,0.05470031872391701,0,0,0,10
2.0640000980347395,0.004025780353250631,-3.3663621008192943,0.06920890314768031,0.054700206965208054,0,0,0,10
2.0680000982247293,0.004072995042734911,-3.3663451075244977,0.07003086747106098,0.054700128734111786,0,0,0,10
2.072000098414719,0.004072995042734911,-3.3663451075244977,0.07003086747106098,0.0547001026570797,0,0,0,10
2.076000098604709,0.004072995042734911,-3.3663451075244977,0.07003086747106098,0.05470012128353119,0,0,0,10
2.0800000987946987,0.004072995042734911,-3.3663451075244977,0.07003086747106098,0.054700180888175964,0,0,0,10
2.0840000989846885,0.003968746901452334,-3.366381409925876,0.06826298446955259,0.05470026656985283,0,0,0,10
2.0880000991746783,0.003968746901452334,-3.366381409925876,0.06826298446955259,0.05470038950443268,0,0,0,10
2.092000099364668,0.003968746901452334,-3.366381409925876,0.06826298446955259,0.05470051243901253,0,0,0,10
2.096000099554658,0.003968746901452334,-3.366381409925876,0.06826298446955259,0.05470060929656029,0,0,0,10
2.1000000997446477,0.003929525884298869,-3.366397222915329,0.06747822115460064,0.05470067262649536,0,0,0,10
2.1040000999346375,0.003929525884298869,-3.366397222915329,0.06747822115460064,0.05470070615410805,0,0,0,10
2.1080001001246274,0.003929525884298869,-3.366397222915329,0.06747822115460064,0.054700691252946854,0,0,0,10
2.112000100314617,0.003929525884298869,-3.366397222915329,0.06747822115460064,0.054700613021850586,0,0,0,10
2.116000100504607,0.004027343834367282,-3.366363590703495,0.06913620597683211,0.05470050871372223,0,0,0,10
2.1200001006945968,0.004027343834367282,-3.366363590703495,0.06913620597683211,0.05470038950443268,0,0,0,10
2.1240001008845866,0.004027343834367282,-3.366363590703495,0.06913620597683211,0.05470026284456253,0,0,0,10
2.1280001010745764,0.004027343834367282,-3.366363590703495,0.06913620597683211,0.05470016971230507,0,0,0,10
2.132000101264566,0.0040655010634571016,-3.3663501730040473,0.06978667555293316,0.05470011383295059,0,0,0,10
2.136000101454556,0.0040655010634571016,-3.3663501730040473,0.06978667555293316,0.0547000877559185,0,0,0,10
2.140000101644546,0.0040655010634571016,-3.3663501730040473,0.06978667555293316,0.05470012128353119,0,0,0,10
2.1440001018345356,0.0040655010634571016,-3.3663501730040473,0.06978667555293316,0.054700203239917755,0,0,0,10
2.1480001020245254,0.003981246638927887,-3.3663769793620104,0.06848120442271678,0.054700303822755814,0,0,0,10
2.152000102214515,0.003981246638927887,-3.3663769793620104,0.06848120442271678,0.054700423032045364,0,0,0,10
2.156000102404505,0.003981246638927887,-3.3663769793620104,0.06848120442271678,0.054700542241334915,0,0,0,10
2.160000102594495,0.003981246638927887,-3.3663769793620104,0.06848120442271678,0.05470063164830208,0,0,0,10
2.1640001027844846,0.003920034364167142,-3.3663995490322645,0.06736211603421442,0.05470069870352745,0,0,0,10
2.1680001029744744,0.003920034364167142,-3.3663995490322645,0.06736211603421442,0.05470070615410805,0,0,0,10
2.1720001031644642,0.003920034364167142,-3.3663995490322645,0.06736211603421442,0.054700665175914764,0,0,0,10
2.176000103354454,0.003920034364167142,-3.3663995490322645,0.06736211603421442,0.0547005794942379,0,0,0,10
2.180000103544444,0.003988195509681617,-3.366374045272328,0.06862537361429188,0.05470048636198044,0,0,0,10
2.1840001037344337,0.003988195509681617,-3.366374045272328,0.06862537361429188,0.05470035970211029,0,0,0,10
2.1880001039244235,0.003988195509681617,-3.366374045272328,0.06862537361429188,0.05470023676753044,0,0,0,10
2.1920001041144133,0.003988195509681617,-3.366374045272328,0.06862537361429188,0.05470015108585358,0,0,0,10
2.196000104304403,0.004052183930959966,-3.3663528887791587,0.06965567182737499,0.054700110107660294,0,0,0,10
2.200000104494393,0.004052183930959966,-3.3663528887791587,0.06965567182737499,0.054700106382369995,0,0,0,10
