time,roll,pitch,yaw,altitude,desired_roll,desired_pitch,desired_yaw,desired_altitude
0.0,0.0,0.0,0.0,0.0,0,0,0,10
0.004000000189989805,0.0,0.0,0.0,0.06905829161405563,0,0,0,10
0.00800000037997961,0.0,0.0,0.0,0.06795962899923325,0,0,0,10
0.012000000569969416,0.0,0.0,0.0,0.06711293011903763,0,0,0,10
0.01600000075995922,0.0,0.0,0.0,0.06610926985740662,0,0,0,10
0.020000000949949026,0.0,0.0,0.0,0.06495216488838196,0,0,0,10
0.02400000113993883,0.0,0.0,0.0,0.06364156305789948,0,0,0,10
0.028000001329928637,0.0,0.0,0.0,0.06217750161886215,0,0,0,10
0.03200000151991844,0.0,0.0,0.0,0.06056000664830208,0,0,0,10
0.03600000170990825,-0.008261610428510383,-0.038273634958138666,0.005675156804116215,0.05953017622232437,0,0,0,10
0.04000000189989805,-0.008261610428510383,-0.038273634958138666,0.005675156804116215,0.05886846408247948,0,0,0,10
0.04400000208988786,-0.008261610428510383,-0.038273634958138666,0.005675156804116215,0.058147549629211426,0,0,0,10
0.04800000227987766,-0.008261610428510383,-0.038273634958138666,0.005675156804116215,0.057372093200683594,0,0,0,10
0.05200000246986747,0.7622657679798152,-1.1146518018957217,0.023093115803222333,0.056541234254837036,0,0,0,10
0.05600000265985727,0.7622657679798152,-1.1146518018957217,0.023093115803222333,0.055800531059503555,0,0,0,10
0.06000000284984708,0.7622657679798152,-1.1146518018957217,0.023093115803222333,0.05570466071367264,0,0,0,10
0.06400000303983688,0.7622657679798152,-1.1146518018957217,0.023093115803222333,0.05560411140322685,0,0,0,10
0.06800000322982669,0.9879235588317479,-2.0715870387225803,0.04206373846763579,0.05549747496843338,0,0,0,10
0.0720000034198165,0.9879235588317479,-2.0715870387225803,0.04206373846763579,0.05538482218980789,0,0,0,10
0.0760000036098063,0.9879235588317479,-2.0715870387225803,0.04206373846763579,0.055265847593545914,0,0,0,10
0.0800000037997961,0.9879235588317479,-2.0715870387225803,0.04206373846763579,0.055142372846603394,0,0,0,10
0.08400000398978591,0.4792262819428536,-2.7423380972437195,0.08424135768156243,0.055011652410030365,0,0,0,10
0.08800000417977571,0.4792262819428536,-2.7423380972437195,0.08424135768156243,0.05487367510795593,0,0,0,10
0.09200000436976552,0.4792262819428536,-2.7423380972437195,0.08424135768156243,0.0547274686396122,0,0,0,10
0.09600000455975533,0.4792262819428536,-2.7423380972437195,0.08424135768156243,0.05480645224452019,0,0,0,10
0.10000000474974513,0.005313587809547637,-3.414588121513133,0.09007118601862879,0.05486791580915451,0,0,0,10
0.10400000493973494,0.005313587809547637,-3.414588121513133,0.09007118601862879,0.05486318841576576,0,0,0,10
0.10800000512972474,0.005313587809547637,-3.414588121513133,0.09007118601862879,0.05479253828525543,0,0,0,10
0.11200000531971455,0.005313587809547637,-3.414588121513133,0.09007118601862879,0.05470197647809982,0,0,0,10
0.11600000550970435,0.005758130662345915,-3.364042303635136,0.0688265303984432,0.05470026656985283,0,0,0,10
0.12000000569969416,0.005758130662345915,-3.364042303635136,0.0688265303984432,0.05470024421811104,0,0,0,10
0.12400000588968396,0.005758130662345915,-3.364042303635136,0.0688265303984432,0.05470023304224014,0,0,0,10
0.12800000607967377,0.005758130662345915,-3.364042303635136,0.0688265303984432,0.054700229316949844,0,0,0,10
0.13200000626966357,0.0032288806270598424,-3.366377089876286,0.05588288736249003,0.054700274020433426,0,0,0,10
0.13600000645965338,0.0032288806270598424,-3.366377089876286,0.05588288736249003,0.0547003298997879,0,0,0,10
0.14000000664964318,0.0032288806270598424,-3.366377089876286,0.05588288736249003,0.054700396955013275,0,0,0,10
0.144000006839633,0.0032288806270598424,-3.366377089876286,0.05588288736249003,0.05470048263669014,0,0,0,10
0.1480000070296228,0.003203614983319109,-3.366385235597171,0.055389753907646826,0.05470056086778641,0,0,0,10
0.1520000072196126,0.003203614983319109,-3.366385235597171,0.055389753907646826,0.0547005832195282,0,0,0,10
0.1560000074096024,0.003203614983319109,-3.366385235597171,0.055389753907646826,0.05470060557126999,0,0,0,10
0.1600000075995922,0.003203614983319109,-3.366385235597171,0.055389753907646826,0.0547005757689476,0,0,0,10
0.16400000778958201,0.003256577467792092,-3.3663712675124042,0.05623243823489758,0.05470054969191551,0,0,0,10
0.16800000797957182,0.003256577467792092,-3.3663712675124042,0.05623243823489758,0.054700493812561035,0,0,0,10
0.17200000816956162,0.003256577467792092,-3.3663712675124042,0.05623243823489758,0.05470041558146477,0,0,0,10
0.17600000835955143,0.003256577467792092,-3.3663712675124042,0.05623243823489758,0.0547003336250782,0,0,0,10
0.18000000854954123,0.0033045046047055758,-3.366357184193724,0.05706960685281997,0.05470028519630432,0,0,0,10
0.18400000873953104,0.0033045046047055758,-3.366357184193724,0.05706960685281997,0.05470023304224014,0,0,0,10
0.18800000892952085,0.0033045046047055758,-3.366357184193724,0.05706960685281997,0.054700225591659546,0,0,0,10
0.19200000911951065,0.0033045046047055758,-3.366357184193724,0.05706960685281997,0.05470021814107895,0,0,0,10
0.19600000930950046,0.0032266908432777583,-3.3663803272873007,0.055687197548592686,0.05470029264688492,0,0,0,10
0.20000000949949026,0.0032266908432777583,-3.3663803272873007,0.055687197548592686,0.054700352251529694,0,0,0,10
0.20400000968948007,0.0032266908432777583,-3.3663803272873007,0.055687197548592686,0.05470044165849686,0,0,0,10
0.20800000987946987,0.0032266908432777583,-3.3663803272873007,0.055687197548592686,0.05470051243901253,0,0,0,10
0.21200001006945968,0.003195136045592878,-3.3663863678770545,0.055320999705448785,0.054700568318367004,0,0,0,10
0.21600001025944948,0.003195136045592878,-3.3663863678770545,0.055320999705448785,0.05470060929656029,0,0,0,10
0.2200000104494393,0.003195136045592878,-3.3663863678770545,0.055320999705448785,0.05470060557126999,0,0,0,10
0.2240000106394291,0.003195136045592878,-3.3663863678770545,0.055320999705448785,0.0547005832195282,0,0,0,10
0.2280000108294189,0.0032498852945941495,-3.366370936762706,0.05625246530490656,0.05470053479075432,0,0,0,10
0.2320000110194087,0.0032498852945941495,-3.366370936762706,0.05625246530490656,0.05470046028494835,0,0,0,10
0.2360000112093985,0.0032498852945941495,-3.366370936762706,0.05625246530490656,0.05470038950443268,0,0,0,10
0.2400000113993883,0.0032498852945941495,-3.366370936762706,0.05625246530490656,0.05470030754804611,0,0,0,10
0.24400001158937812,0.0032911827519090707,-3.36636014083158,0.056894969090106134,0.054700251668691635,0,0,0,10
0.24800001177936792,0.0032911827519090707,-3.36636014083158,0.056894969090106134,0.05470022186636925,0,0,0,10
0.25200001196935773,0.0032911827519090707,-3.36636014083158,0.056894969090106134,0.05470021069049835,0,0,0,10
0.25600001215934753,0.0032911827519090707,-3.36636014083158,0.056894969090106134,0.054700251668691635,0,0,0,10
0.26000001234933734,0.0032435022574949153,-3.3663755281074783,0.05597665927551484,0.05470031127333641,0,0,0,10
0.26400001253932714,0.0032435022574949153,-3.3663755281074783,0.05597665927551484,0.05470037832856178,0,0,0,10
0.26800001272931695,0.0032435022574949153,-3.3663755281074783,0.05597665927551484,0.054700449109077454,0,0,0,10
0.27200001291930676,0.0032435022574949153,-3.3663755281074783,0.05597665927551484,0.05470053106546402,0,0,0,10
0.27600001310929656,0.0031930135029096477,-3.3663870243874072,0.05528101625613385,0.0547005720436573,0,0,0,10
0.28000001329928637,0.0031930135029096477,-3.3663870243874072,0.05528101625613385,0.054700590670108795,0,0,0,10
0.28400001348927617,0.0031930135029096477,-3.3663870243874072,0.05528101625613385,0.054700613021850586,0,0,0,10
0.288000013679266,0.0031930135029096477,-3.3663870243874072,0.05528101625613385,0.054700564593076706,0,0,0,10
0.2920000138692558,0.003252051584025913,-3.3663704635690426,0.05628077065007291,0.05470050871372223,0,0,0,10
0.2960000140592456,0.003252051584025913,-3.3663704635690426,0.05628077065007291,0.05470043420791626,0,0,0,10
0.3000000142492354,0.003252051584025913,-3.3663704635690426,0.05628077065007291,0.054700370877981186,0,0,0,10
0.3040000144392252,0.003252051584025913,-3.3663704635690426,0.05628077065007291,0.05470029637217522,0,0,0,10
0.308000014629215,0.0032813083141380235,-3.366363116512562,0.05671856115574145,0.05470024421811104,0,0,0,10
0.3120000148192048,0.0032813083141380235,-3.366363116512562,0.05671856115574145,0.05470022186636925,0,0,0,10
0.3160000150091946,0.0032813083141380235,-3.366363116512562,0.05671856115574145,0.05470022186636925,0,0,0,10
0.3200000151991844,0.0032813083141380235,-3.366363116512562,0.05671856115574145,0.05470026656985283,0,0,0,10
0.3240000153891742,0.003223436059182695,-3.3663795964158854,0.055731543208447004,0.054700326174497604,0,0,0,10
0.32800001557916403,0.003223436059182695,-3.3663795964158854,0.055731543208447004,0.05470038577914238,0,0,0,10
0.33200001576915383,0.003223436059182695,-3.3663795964158854,0.055731543208447004,0.05470046401023865,0,0,0,10
0.33600001595914364,0.003223436059182695,-3.3663795964158854,0.055731543208447004,0.05470053851604462,0,0,0,10
0.34000001614913344,0.003211475778563664,-3.3663849252116482,0.05540842786893434,0.0547005869448185,0,0,0,10
0.34400001633912325,0.003211475778563664,-3.3663849252116482,0.05540842786893434,0.05470062419772148,0,0,0,10
0.34800001652911305,0.003211475778563664,-3.3663849252116482,0.05540842786893434,0.0547005869448185,0,0,0,10
0.35200001671910286,0.003211475778563664,-3.3663849252116482,0.05540842786893434,0.05470055341720581,0,0,0,10
0.35600001690909266,0.0032675858663573894,-3.366367121239391,0.05648028909900761,0.054700493812561035,0,0,0,10
0.36000001709908247,0.0032675858663573894,-3.366367121239391,0.05648028909900761,0.054700423032045364,0,0,0,10
0.3640000172890723,0.0032675858663573894,-3.366367121239391,0.05648028909900761,0.0547003373503685,0,0,0,10
0.3680000174790621,0.0032675858663573894,-3.366367121239391,0.05648028909900761,0.054700274020433426,0,0,0,10
0.3720000176690519,0.0032786046451845,-3.366363109728897,0.056719041609466524,0.054700229316949844,0,0,0,10
0.3760000178590417,0.0032786046451845,-3.366363109728897,0.056719041609466524,0.05470021814107895,0,0,0,10
0.3800000180490315,0.0032786046451845,-3.366363109728897,0.056719041609466524,0.05470022186636925,0,0,0,10
0.3840000182390213,0.0032786046451845,-3.366363109728897,0.056719041609466524,0.05470027029514313,0,0,0,10
0.3880000184290111,0.0032131771978941848,-3.366381726149396,0.05560278696221273,0.0547003410756588,0,0,0,10
0.3920000186190009,0.0032131771978941848,-3.366381726149396,0.05560278696221273,0.05470043048262596,0,0,0,10
0.3960000188089907,0.0032131771978941848,-3.366381726149396,0.05560278696221273,0.054700497537851334,0,0,0,10
0.4000000189989805,0.0032131771978941848,-3.366381726149396,0.05560278696221273,0.054700545966625214,0,0,0,10
0.4040000191889703,0.003223884030895137,-3.3663805856483884,0.05567162613631319,0.054700590670108795,0,0,0,10
0.40800001937896013,0.003223884030895137,-3.3663805856483884,0.05567162613631319,0.05470060929656029,0,0,0,10
0.41200001956894994,0.003223884030895137,-3.3663805856483884,0.05567162613631319,0.0547005757689476,0,0,0,10
0.41600001975893974,0.003223884030895137,-3.3663805856483884,0.05567162613631319,0.05470053479075432,0,0,0,10
0.42000001994892955,0.0032904460139222104,-3.3663607813473813,0.05685700395545074,0.05470048263669014,0,0,0,10
0.42400002013891935,0.0032904460139222104,-3.3663607813473813,0.05685700395545074,0.05470040813088417,0,0,0,10
0.42800002032890916,0.0032904460139222104,-3.3663607813473813,0.05685700395545074,0.05470031127333641,0,0,0,10
0.43200002051889896,0.0032904460139222104,-3.3663607813473813,0.05685700395545074,0.05470025911927223,0,0,0,10
0.43600002070888877,0.003278157065265506,-3.366363245185744,0.05671099821242015,0.05470023304224014,0,0,0,10
0.4400000208988786,0.003278157065265506,-3.366363245185744,0.05671099821242015,0.05470023304224014,0,0,0,10
0.4440000210888684,0.003278157065265506,-3.366363245185744,0.05671099821242015,0.05470024421811104,0,0,0,10
0.4480000212788582,0.003278157065265506,-3.366363245185744,0.05671099821242015,0.05470029637217522,0,0,0,10
0.452000021468848,0.0032134988970821078,-3.3663817854374285,0.055599181053888155,0.05470035970211029,0,0,0,10
0.4560000216588378,0.0032134988970821078,-3.3663817854374285,0.055599181053888155,0.05470043420791626,0,0,0,10
0.4600000218488276,0.0032134988970821078,-3.3663817854374285,0.055599181053888155,0.054700519889593124,0,0,0,10
0.4640000220388174,0.0032134988970821078,-3.3663817854374285,0.055599181053888155,0.054700564593076706,0,0,0,10
0.4680000222288072,0.003234539593125624,-3.366378279515209,0.05581087323677678,0.05470060184597969,0,0,0,10
0.472000022418797,0.003234539593125624,-3.366378279515209,0.05581087323677678,0.05470060557126999,0,0,0,10
0.4760000226087868,0.003234539593125624,-3.366378279515209,0.05581087323677678,0.054700568318367004,0,0,0,10
0.4800000227987766,0.003234539593125624,-3.366378279515209,0.05581087323677678,0.054700516164302826,0,0,0,10
0.48400002298876643,0.0033000494660426205,-3.36635867828557,0.056981358421177845,0.054700445383787155,0,0,0,10
0.48800002317875624,0.0033000494660426205,-3.36635867828557,0.056981358421177845,0.054700370877981186,0,0,0,10
0.49200002336874604,0.0033000494660426205,-3.36635867828557,0.056981358421177845,0.05470029637217522,0,0,0,10
0.49600002355873585,0.0033000494660426205,-3.36635867828557,0.056981358421177845,0.054700255393981934,0,0,0,10
0.5000000237487257,0.003273268541244655,-3.3663663729476956,0.05652479817001101,0.054700225591659546,0,0,0,10
0.5040000239387155,0.003273268541244655,-3.3663663729476956,0.05652479817001101,0.05470021814107895,0,0,0,10
0.5080000241287053,0.003273268541244655,-3.3663663729476956,0.05652479817001101,0.05470025911927223,0,0,0,10
0.5120000243186951,0.003273268541244655,-3.3663663729476956,0.05652479817001101,0.05470030754804611,0,0,0,10
0.5160000245086849,0.003203107778075834,-3.366384539034704,0.0554321708329352,0.054700374603271484,0,0,0,10
0.5200000246986747,0.003203107778075834,-3.366384539034704,0.0554321708329352,0.05470046028494835,0,0,0,10
0.5240000248886645,0.003203107778075834,-3.366384539034704,0.0554321708329352,0.05470053479075432,0,0,0,10
0.5280000250786543,0.003203107778075834,-3.366384539034704,0.0554321708329352,0.0547005757689476,0,0,0,10
0.5320000252686441,0.0032392693881300974,-3.36637501235354,0.056007850135609515,0.05470060557126999,0,0,0,10
0.5360000254586339,0.0032392693881300974,-3.36637501235354,0.056007850135609515,0.054700590670108795,0,0,0,10
0.5400000256486237,0.0032392693881300974,-3.36637501235354,0.056007850135609515,0.0547005720436573,0,0,0,10
0.5440000258386135,0.0032392693881300974,-3.36637501235354,0.056007850135609515,0.054700497537851334,0,0,0,10
0.5480000260286033,0.003306322824792441,-3.3663558611021362,0.0571477019153787,0.054700419306755066,0,0,0,10
0.5520000262185931,0.003306322824792441,-3.3663558611021362,0.0571477019153787,0.05470036342740059,0,0,0,10
0.5560000264085829,0.003306322824792441,-3.3663558611021362,0.0571477019153787,0.05470028147101402,0,0,0,10
0.5600000265985727,0.003306322824792441,-3.3663558611021362,0.0571477019153787,0.05470023304224014,0,0,0,10
0.5640000267885625,0.003262808033858007,-3.366367108071182,0.056481211555841654,0.054700225591659546,0,0,0,10
0.5680000269785523,0.003262808033858007,-3.366367108071182,0.056481211555841654,0.05470023304224014,0,0,0,10
0.5720000271685421,0.003262808033858007,-3.366367108071182,0.056481211555841654,0.05470027029514313,0,0,0,10
0.576000027358532,0.003262808033858007,-3.366367108071182,0.056481211555841654,0.0547003336250782,0,0,0,10
0.5800000275485218,0.0032081061347920556,-3.3663845420270717,0.055431846330864384,0.05470041558146477,0,0,0,10
0.5840000277385116,0.0032081061347920556,-3.3663845420270717,0.055431846330864384,0.05470048263669014,0,0,0,10
0.5880000279285014,0.0032081061347920556,-3.3663845420270717,0.055431846330864384,0.05470055341720581,0,0,0,10
0.5920000281184912,0.0032081061347920556,-3.3663845420270717,0.055431846330864384,0.054700594395399094,0,0,0,10
0.596000028308481,0.0032198032895980663,-3.366380153093766,0.055697944338444105,0.05470060184597969,0,0,0,10
0.6000000284984708,0.0032198032895980663,-3.366380153093766,0.055697944338444105,0.054700594395399094,0,0,0,10
0.6040000286884606,0.0032198032895980663,-3.366380153093766,0.055697944338444105,0.05470054969191551,0,0,0,10
0.6080000288784504,0.0032198032895980663,-3.366380153093766,0.055697944338444105,0.05470047891139984,0,0,0,10
0.6120000290684402,0.0032901708116702872,-3.3663601400958796,0.056895041547111114,0.054700400680303574,0,0,0,10
0.61600002925843,0.0032901708116702872,-3.3663601400958796,0.056895041547111114,0.05470031872391701,0,0,0,10
0.6200000294484198,0.0032901708116702872,-3.3663601400958796,0.056895041547111114,0.054700277745723724,0,0,0,10
0.6240000296384096,0.0032901708116702872,-3.3663601400958796,0.056895041547111114,0.05470022186636925,0,0,0,10
0.6280000298283994,0.003286361069051406,-3.3663609355054316,0.056847974187128114,0.05470021814107895,0,0,0,10
0.6320000300183892,0.003286361069051406,-3.3663609355054316,0.056847974187128114,0.05470023676753044,0,0,0,10
0.636000030208379,0.003286361069051406,-3.3663609355054316,0.056847974187128114,0.05470028519630432,0,0,0,10
0.6400000303983688,0.003286361069051406,-3.3663609355054316,0.056847974187128114,0.05470035597681999,0,0,0,10
0.6440000305883586,0.003217516034359103,-3.3663796522448743,0.055728332563580917,0.05470042675733566,0,0,0,10
0.6480000307783484,0.003217516034359103,-3.3663796522448743,0.055728332563580917,0.054700497537851334,0,0,0,10
0.6520000309683383,0.003217516034359103,-3.3663796522448743,0.055728332563580917,0.0547005757689476,0,0,0,10
0.6560000311583281,0.003217516034359103,-3.3663796522448743,0.055728332563580917,0.05470060557126999,0,0,0,10
0.6600000313483179,0.0032310499684501002,-3.3663776197308444,0.05585083454093269,0.054700590670108795,0,0,0,10
0.6640000315383077,0.0032310499684501002,-3.3663776197308444,0.05585083454093269,0.0547005794942379,0,0,0,10
0.6680000317282975,0.0032310499684501002,-3.3663776197308444,0.05585083454093269,0.05470052734017372,0,0,0,10
0.6720000319182873,0.0032310499684501002,-3.3663776197308444,0.05585083454093269,0.05470046401023865,0,0,0,10
0.6760000321082771,0.0032934150898080157,-3.3663578327783634,0.05703157589116578,0.05470038205385208,0,0,0,10
0.6800000322982669,0.0032934150898080157,-3.3663578327783634,0.05703157589116578,0.05470031127333641,0,0,0,10
0.6840000324882567,0.0032934150898080157,-3.3663578327783634,0.05703157589116578,0.05470024049282074,0,0,0,10
0.6880000326782465,0.0032934150898080157,-3.3663578327783634,0.05703157589116578,0.054700229316949844,0,0,0,10
0.6920000328682363,0.0032816982240868667,-3.366363085897764,0.056720370675026596,0.05470022186636925,0,0,0,10
0.6960000330582261,0.0032816982240868667,-3.366363085897764,0.056720370675026596,0.05470024794340134,0,0,0,10
0.7000000332482159,0.0032816982240868667,-3.366363085897764,0.056720370675026596,0.054700300097465515,0,0,0,10
0.7040000334382057,0.0032816982240868667,-3.366363085897764,0.056720370675026596,0.054700370877981186,0,0,0,10
0.7080000336281955,0.0032207214237020745,-3.3663816535474593,0.05560697598091393,0.05470045283436775,0,0,0,10
0.7120000338181853,0.0032207214237020745,-3.3663816535474593,0.05560697598091393,0.05470053106546402,0,0,0,10
0.7160000340081751,0.0032207214237020745,-3.3663816535474593,0.05560697598091393,0.0547005832195282,0,0,0,10
0.7200000341981649,0.0032207214237020745,-3.3663816535474593,0.05560697598091393,0.05470060929656029,0,0,0,10
0.7240000343881547,0.003226430850005766,-3.366377387453206,0.05586499250107352,0.054700594395399094,0,0,0,10
0.7280000345781446,0.003226430850005766,-3.366377387453206,0.05586499250107352,0.054700568318367004,0,0,0,10
0.7320000347681344,0.003226430850005766,-3.366377387453206,0.05586499250107352,0.05470051243901253,0,0,0,10
0.7360000349581242,0.003226430850005766,-3.366377387453206,0.05586499250107352,0.05470044165849686,0,0,0,10
0.740000035148114,0.003294716379227835,-3.366357954888763,0.05702431639983398,0.05470036715269089,0,0,0,10
0.7440000353381038,0.003294716379227835,-3.366357954888763,0.05702431639983398,0.05470028147101402,0,0,0,10
0.7480000355280936,0.003294716379227835,-3.366357954888763,0.05702431639983398,0.05470024049282074,0,0,0,10
0.7520000357180834,0.003294716379227835,-3.366357954888763,0.05702431639983398,0.05470021441578865,0,0,0,10
0.7560000359080732,0.0032670026390635627,-3.366366996778714,0.05648773817007465,0.054700229316949844,0,0,0,10
0.760000036098063,0.0032670026390635627,-3.366366996778714,0.05648773817007465,0.05470025911927223,0,0,0,10
0.7640000362880528,0.0032670026390635627,-3.366366996778714,0.05648773817007465,0.054700326174497604,0,0,0,10
0.7680000364780426,0.0032670026390635627,-3.366366996778714,0.05648773817007465,0.05470039322972298,0,0,0,10
0.7720000366680324,0.003210352942179246,-3.366385053280983,0.05540066298507187,0.054700471460819244,0,0,0,10
0.7760000368580222,0.003210352942179246,-3.366385053280983,0.05540066298507187,0.05470054969191551,0,0,0,10
0.780000037048012,0.003210352942179246,-3.366385053280983,0.05540066298507187,0.05470059812068939,0,0,0,10
0.7840000372380018,0.003210352942179246,-3.366385053280983,0.05540066298507187,0.05470060929656029,0,0,0,10
0.7880000374279916,0.0032459947815346884,-3.366372121766492,0.05618147472662468,0.05470059812068939,0,0,0,10
0.7920000376179814,0.0032459947815346884,-3.366372121766492,0.05618147472662468,0.05470054969191551,0,0,0,10
0.7960000378079712,0.0032459947815346884,-3.366372121766492,0.05618147472662468,0.05470049008727074,0,0,0,10
0.800000037997961,0.0032459947815346884,-3.366372121766492,0.05618147472662468,0.05470040813088417,0,0,0,10
0.8040000381879508,0.0033050143094831633,-3.3663572109410187,0.057068011385373776,0.0547003373503685,0,0,0,10
0.8080000383779407,0.0033050143094831633,-3.3663572109410187,0.057068011385373776,0.054700277745723724,0,0,0,10
0.8120000385679305,0.0033050143094831633,-3.3663572109410187,0.057068011385373776,0.054700225591659546,0,0,0,10
0.8160000387579203,0.0033050143094831633,-3.3663572109410187,0.057068011385373776,0.05470021069049835,0,0,0,10
0.8200000389479101,0.0032524774638854263,-3.3663712505780623,0.056233571032550264,0.054700225591659546,0,0,0,10
0.8240000391378999,0.0032524774638854263,-3.3663712505780623,0.056233571032550264,0.054700277745723724,0,0,0,10
0.8280000393278897,0.0032524774638854263,-3.3663712505780623,0.056233571032550264,0.0547003298997879,0,0,0,10
0.8320000395178795,0.0032524774638854263,-3.3663712505780623,0.056233571032550264,0.05470041558146477,0,0,0,10
0.8360000397078693,0.0032055690992966266,-3.3663845009369258,0.05543441898928469,0.05470049008727074,0,0,0,10
0.8400000398978591,0.0032055690992966266,-3.3663845009369258,0.05543441898928469,0.05470055341720581,0,0,0,10
0.8440000400878489,0.0032055690992966266,-3.3663845009369258,0.05543441898928469,0.054700590670108795,0,0,0,10
0.8480000402778387,0.0032055690992966266,-3.3663845009369258,0.05543441898928469,0.054700613021850586,0,0,0,10
0.8520000404678285,0.0032627836037884984,-3.3663693286923757,0.05634844031467568,0.054700590670108795,0,0,0,10
0.8560000406578183,0.0032627836037884984,-3.3663693286923757,0.05634844031467568,0.05470053479075432,0,0,0,10
0.8600000408478081,0.0032627836037884984,-3.3663693286923757,0.05634844031467568,0.05470047518610954,0,0,0,10
0.8640000410377979,0.0032627836037884984,-3.3663693286923757,0.05634844031467568,0.05470038205385208,0,0,0,10
0.8680000412277877,0.003304372822824237,-3.3663561126961485,0.05713290563180596,0.054700326174497604,0,0,0,10
0.8720000414177775,0.003304372822824237,-3.3663561126961485,0.05713290563180596,0.05470025911927223,0,0,0,10
0.8760000416077673,0.003304372822824237,-3.3663561126961485,0.05713290563180596,0.054700225591659546,0,0,0,10
0.8800000417977571,0.003304372822824237,-3.3663561126961485,0.05713290563180596,0.05470021814107895,0,0,0,10
0.884000041987747,0.0032509277897602024,-3.3663714319919653,0.056222732349196995,0.05470024421811104,0,0,0,10
0.8880000421777368,0.0032509277897602024,-3.3663714319919653,0.056222732349196995,0.054700303822755814,0,0,0,10
0.8920000423677266,0.0032509277897602024,-3.3663714319919653,0.056222732349196995,0.054700374603271484,0,0,0,10
0.8960000425577164,0.0032509277897602024,-3.3663714319919653,0.056222732349196995,0.05470043793320656,0,0,0,10
0.9000000427477062,0.0032034505763001804,-3.366383150355295,0.05551659860357222,0.054700516164302826,0,0,0,10
0.904000042937696,0.0032034505763001804,-3.366383150355295,0.05551659860357222,0.054700568318367004,0,0,0,10
0.9080000431276858,0.0032034505763001804,-3.366383150355295,0.05551659860357222,0.05470060557126999,0,0,0,10
0.9120000433176756,0.0032034505763001804,-3.366383150355295,0.05551659860357222,0.05470060184597969,0,0,0,10
0.9160000435076654,0.0032647390176104374,-3.3663667121889658,0.05650479381252113,0.054700568318367004,0,0,0,10
0.9200000436976552,0.0032647390176104374,-3.3663667121889658,0.05650479381252113,0.05470052734017372,0,0,0,10
0.924000043887645,0.0032647390176104374,-3.3663667121889658,0.05650479381252113,0.05470043793320656,0,0,0,10
0.9280000440776348,0.0032647390176104374,-3.3663667121889658,0.05650479381252113,0.05470036342740059,0,0,0,10
0.9320000442676246,0.0033074620878512334,-3.366355394845008,0.05717518293568004,0.054700300097465515,0,0,0,10
0.9360000444576144,0.0033074620878512334,-3.366355394845008,0.05717518293568004,0.05470025911927223,0,0,0,10
0.9400000446476042,0.0033074620878512334,-3.366355394845008,0.05717518293568004,0.05470021441578865,0,0,0,10
0.944000044837594,0.0033074620878512334,-3.366355394845008,0.05717518293568004,0.054700229316949844,0,0,0,10
0.9480000450275838,0.003240595160340299,-3.3663746620438126,0.056028905802294915,0.054700255393981934,0,0,0,10
0.9520000452175736,0.003240595160340299,-3.3663746620438126,0.056028905802294915,0.05470031872391701,0,0,0,10
0.9560000454075634,0.003240595160340299,-3.3663746620438126,0.056028905802294915,0.05470037832856178,0,0,0,10
0.9600000455975533,0.003240595160340299,-3.3663746620438126,0.056028905802294915,0.05470046401023865,0,0,0,10
0.9640000457875431,0.003204727345678961,-3.366384592054296,0.05542889836444722,0.05470052361488342,0,0,0,10
0.9680000459775329,0.003204727345678961,-3.366384592054296,0.05542889836444722,0.0547005720436573,0,0,0,10
0.9720000461675227,0.003204727345678961,-3.366384592054296,0.05542889836444722,0.05470060184597969,0,0,0,10
0.9760000463575125,0.003204727345678961,-3.366384592054296,0.05542889836444722,0.054700590670108795,0,0,0,10
0.9800000465475023,0.003280245131499322,-3.3663633481620283,0.056704813558755174,0.05470056086778641,0,0,0,10
0.9840000467374921,0.003280245131499322,-3.3663633481620283,0.056704813558755174,0.054700493812561035,0,0,0,10
0.9880000469274819,0.003280245131499322,-3.3663633481620283,0.056704813558755174,0.054700423032045364,0,0,0,10
0.9920000471174717,0.003280245131499322,-3.3663633481620283,0.056704813558755174,0.0547003410756588,0,0,0,10
0.9960000473074615,0.003311981202710051,-3.3663542049136264,0.05724521123373349,0.05470028519630432,0,0,0,10
1.0000000474974513,0.003311981202710051,-3.3663542049136264,0.05724521123373349,0.05470023676753044,0,0,0,10
1.004000047687441,0.003311981202710051,-3.3663542049136264,0.05724521123373349,0.05470021814107895,0,0,0,10
1.008000047877431,0.003311981202710051,-3.3663542049136264,0.05724521123373349,0.054700229316949844,0,0,0,10
1.0120000480674207,0.0032704476846266714,-3.3663672946482195,0.05646985025962045,0.054700277745723724,0,0,0,10
1.0160000482574105,0.0032704476846266714,-3.3663672946482195,0.05646985025962045,0.0547003298997879,0,0,0,10
1.0200000484474003,0.0032704476846266714,-3.3663672946482195,0.05646985025962045,0.05470041558146477,0,0,0,10
1.0240000486373901,0.0032704476846266714,-3.3663672946482195,0.05646985025962045,0.05470047891139984,0,0,0,10
1.02800004882738,0.003216471178636254,-3.3663817198954327,0.05560307253872158,0.05470055341720581,0,0,0,10
1.0320000490173697,0.003216471178636254,-3.3663817198954327,0.05560307253872158,0.0547005832195282,0,0,0,10
1.0360000492073596,0.003216471178636254,-3.3663817198954327,0.05560307253872158,0.05470060557126999,0,0,0,10
1.0400000493973494,0.003216471178636254,-3.3663817198954327,0.05560307253872158,0.0547005832195282,0,0,0,10
1.0440000495873392,0.003259820076240391,-3.366367560784262,0.056454253981204676,0.054700545966625214,0,0,0,10
1.048000049777329,0.003259820076240391,-3.366367560784262,0.056454253981204676,0.054700467735528946,0,0,0,10
1.0520000499673188,0.003259820076240391,-3.366367560784262,0.056454253981204676,0.05470041185617447,0,0,0,10
1.0560000501573086,0.003259820076240391,-3.366367560784262,0.056454253981204676,0.054700326174497604,0,0,0,10
1.0600000503472984,0.0033126953191416836,-3.3663531302439695,0.057308478541359904,0.05470027029514313,0,0,0,10
1.0640000505372882,0.0033126953191416836,-3.3663531302439695,0.057308478541359904,0.05470022186636925,0,0,0,10
1.068000050727278,0.0033126953191416836,-3.3663531302439695,0.057308478541359904,0.054700206965208054,0,0,0,10
1.0720000509172678,0.0033126953191416836,-3.3663531302439695,0.057308478541359904,0.054700229316949844,0,0,0,10
1.0760000511072576,0.0032642485015263543,-3.366367528154926,0.05645607754546308,0.05470028892159462,0,0,0,10
1.0800000512972474,0.0032642485015263543,-3.366367528154926,0.05645607754546308,0.05470036342740059,0,0,0,10
1.0840000514872372,0.0032642485015263543,-3.366367528154926,0.05645607754546308,0.05470043420791626,0,0,0,10
1.088000051677227,0.0032642485015263543,-3.366367528154926,0.05645607754546308,0.054700497537851334,0,0,0,10
1.0920000518672168,0.0032227112967729878,-3.3663805501537545,0.05567381017100097,0.05470056086778641,0,0,0,10
1.0960000520572066,0.0032227112967729878,-3.3663805501537545,0.05567381017100097,0.05470060557126999,0,0,0,10
1.1000000522471964,0.0032227112967729878,-3.3663805501537545,0.05567381017100097,0.054700594395399094,0,0,0,10
1.1040000524371862,0.0032227112967729878,-3.3663805501537545,0.05567381017100097,0.0547005869448185,0,0,0,10
1.108000052627176,0.003275510868400744,-3.3663649827259214,0.056607633736043834,0.05470053106546402,0,0,0,10
1.1120000528171659,0.003275510868400744,-3.3663649827259214,0.056607633736043834,0.054700467735528946,0,0,0,10
1.1160000530071557,0.003275510868400744,-3.3663649827259214,0.056607633736043834,0.05470038950443268,0,0,0,10
1.1200000531971455,0.003275510868400744,-3.3663649827259214,0.056607633736043834,0.05470031127333641,0,0,0,10
1.1240000533871353,0.0033155958877116496,-3.366352366747416,0.057353316093995035,0.05470024421811104,0,0,0,10
1.128000053577125,0.0033155958877116496,-3.366352366747416,0.057353316093995035,0.05470021814107895,0,0,0,10
1.1320000537671149,0.0033155958877116496,-3.366352366747416,0.057353316093995035,0.054700229316949844,0,0,0,10
1.1360000539571047,0.0033155958877116496,-3.366352366747416,0.057353316093995035,0.05470026656985283,0,0,0,10
1.1400000541470945,0.00325872320939028,-3.3663679245188565,0.05643254835600768,0.054700300097465515,0,0,0,10
1.1440000543370843,0.00325872320939028,-3.3663679245188565,0.05643254835600768,0.05470038950443268,0,0,0,10
1.148000054527074,0.00325872320939028,-3.3663679245188565,0.05643254835600768,0.05470046028494835,0,0,0,10
1.152000054717064,0.00325872320939028,-3.3663679245188565,0.05643254835600768,0.05470050498843193,0,0,0,10
1.1560000549070537,0.003228763045871712,-3.3663793366773884,0.05574710932889417,0.054700568318367004,0,0,0,10
1.1600000550970435,0.003228763045871712,-3.3663793366773884,0.05574710932889417,0.05470060557126999,0,0,0,10
1.1640000552870333,0.003228763045871712,-3.3663793366773884,0.05574710932889417,0.054700590670108795,0,0,0,10
1.1680000554770231,0.003228763045871712,-3.3663793366773884,0.05574710932889417,0.0547005720436573,0,0,0,10
1.172000055667013,0.0032840283867641494,-3.3663626032735268,0.05674899781436495,0.05470050126314163,0,0,0,10
1.1760000558570027,0.0032840283867641494,-3.3663626032735268,0.05674899781436495,0.05470043048262596,0,0,0,10
1.1800000560469925,0.0032840283867641494,-3.3663626032735268,0.05674899781436495,0.05470035970211029,0,0,0,10
1.1840000562369823,0.0032840283867641494,-3.3663626032735268,0.05674899781436495,0.05470028892159462,0,0,0,10
1.1880000564269722,0.003304989948113636,-3.3663556502369842,0.05716018453584685,0.05470024794340134,0,0,0,10
1.192000056616962,0.003304989948113636,-3.3663556502369842,0.05716018453584685,0.054700206965208054,0,0,0,10
1.1960000568069518,0.003304989948113636,-3.3663556502369842,0.05716018453584685,0.054700229316949844,0,0,0,10
1.2000000569969416,0.003304989948113636,-3.3663556502369842,0.05716018453584685,0.05470025911927223,0,0,0,10
1.2040000571869314,0.003251381791753432,-3.3663722306266504,0.056174785017669614,0.054700322449207306,0,0,0,10
1.2080000573769212,0.003251381791753432,-3.3663722306266504,0.056174785017669614,0.054700396955013275,0,0,0,10
1.212000057566911,0.003251381791753432,-3.3663722306266504,0.056174785017669614,0.054700467735528946,0,0,0,10
1.2160000577569008,0.003251381791753432,-3.3663722306266504,0.056174785017669614,0.05470055341720581,0,0,0,10
1.2200000579468906,0.00323103091596067,-3.3663771877677036,0.05587691714543479,0.0547005832195282,0,0,0,10
1.2240000581368804,0.00323103091596067,-3.3663771877677036,0.05587691714543479,0.05470060557126999,0,0,0,10
1.2280000583268702,0.00323103091596067,-3.3663771877677036,0.05587691714543479,0.0547005794942379,0,0,0,10
1.23200005851686,0.00323103091596067,-3.3663771877677036,0.05587691714543479,0.05470053851604462,0,0,0,10
1.2360000587068498,0.0033013055839017425,-3.3663572884042674,0.05706353853417635,0.05470048636198044,0,0,0,10
1.2400000588968396,0.0033013055839017425,-3.3663572884042674,0.05706353853417635,0.05470041558146477,0,0,0,10
1.2440000590868294,0.0033013055839017425,-3.3663572884042674,0.05706353853417635,0.0547003373503685,0,0,0,10
1.2480000592768192,0.0033013055839017425,-3.3663572884042674,0.05706353853417635,0.05470028147101402,0,0,0,10
1.252000059466809,0.0032953241872476836,-3.3663576304150626,0.05704348886716604,0.05470024421811104,0,0,0,10
1.2560000596567988,0.0032953241872476836,-3.3663576304150626,0.05704348886716604,0.05470022186636925,0,0,0,10
1.2600000598467886,0.0032953241872476836,-3.3663576304150626,0.05704348886716604,0.054700225591659546,0,0,0,10
1.2640000600367785,0.0032953241872476836,-3.3663576304150626,0.05704348886716604,0.05470028519630432,0,0,0,10
1.2680000602267683,0.003230554441542061,-3.3663763004736063,0.055930467540199424,0.054700348526239395,0,0,0,10
1.272000060416758,0.003230554441542061,-3.3663763004736063,0.055930467540199424,0.05470041558146477,0,0,0,10
1.2760000606067479,0.003230554441542061,-3.3663763004736063,0.055930467540199424,0.054700497537851334,0,0,0,10
1.2800000607967377,0.003230554441542061,-3.3663763004736063,0.055930467540199424,0.05470056086778641,0,0,0,10
1.2840000609867275,0.0032349784365189086,-3.366374836934067,0.05601853585667371,0.05470060557126999,0,0,0,10
1.2880000611767173,0.0032349784365189086,-3.366374836934067,0.05601853585667371,0.05470059812068939,0,0,0,10
1.292000061366707,0.0032349784365189086,-3.366374836934067,0.05601853585667371,0.054700594395399094,0,0,0,10
1.296000061556697,0.0032349784365189086,-3.366374836934067,0.05601853585667371,0.05470053851604462,0,0,0,10
1.3000000617466867,0.003303618065493884,-3.3663550719188127,0.05719434021415872,0.054700467735528946,0,0,0,10
1.3040000619366765,0.003303618065493884,-3.3663550719188127,0.05719434021415872,0.054700400680303574,0,0,0,10
1.3080000621266663,0.003303618065493884,-3.3663550719188127,0.05719434021415872,0.05470030754804611,0,0,0,10
1.3120000623166561,0.003303618065493884,-3.3663550719188127,0.05719434021415872,0.05470025911927223,0,0,0,10
1.316000062506646,0.0032912785966267306,-3.3663594692121173,0.0569347698710566,0.05470021814107895,0,0,0,10
1.3200000626966357,0.0032912785966267306,-3.3663594692121173,0.0569347698710566,0.05470021814107895,0,0,0,10
1.3240000628866255,0.0032912785966267306,-3.3663594692121173,0.0569347698710566,0.05470023676753044,0,0,0,10
1.3280000630766153,0.0032912785966267306,-3.3663594692121173,0.0569347698710566,0.05470028892159462,0,0,0,10
1.3320000632666051,0.0032345084229264127,-3.366377571505417,0.055853648298679844,0.05470038205385208,0,0,0,10
1.336000063456595,0.0032345084229264127,-3.366377571505417,0.055853648298679844,0.054700449109077454,0,0,0,10
1.3400000636465847,0.0032345084229264127,-3.366377571505417,0.055853648298679844,0.05470051243901253,0,0,0,10
1.3440000638365746,0.0032345084229264127,-3.366377571505417,0.055853648298679844,0.054700568318367004,0,0,0,10
1.3480000640265644,0.0032303028883935267,-3.3663756923751635,0.05596713599110717,0.05470060557126999,0,0,0,10
1.3520000642165542,0.0032303028883935267,-3.3663756923751635,0.05596713599110717,0.05470060184597969,0,0,0,10
1.356000064406544,0.0032303028883935267,-3.3663756923751635,0.05596713599110717,0.054700564593076706,0,0,0,10
1.3600000645965338,0.0032303028883935267,-3.3663756923751635,0.05596713599110717,0.05470051243901253,0,0,0,10
1.3640000647865236,0.0033085746243528154,-3.3663562288655267,0.05712592678890436,0.05470044165849686,0,0,0,10
1.3680000649765134,0.0033085746243528154,-3.3663562288655267,0.05712592678890436,0.05470036715269089,0,0,0,10
1.3720000651665032,0.0033085746243528154,-3.3663562288655267,0.05712592678890436,0.054700303822755814,0,0,0,10
1.376000065356493,0.0033085746243528154,-3.3663562288655267,0.05712592678890436,0.05470024049282074,0,0,0,10
1.3800000655464828,0.003280189487644281,-3.366364493760879,0.05663662856597603,0.05470021441578865,0,0,0,10
1.3840000657364726,0.003280189487644281,-3.366364493760879,0.05663662856597603,0.054700225591659546,0,0,0,10
1.3880000659264624,0.003280189487644281,-3.366364493760879,0.05663662856597603,0.05470026284456253,0,0,0,10
1.3920000661164522,0.003280189487644281,-3.366364493760879,0.05663662856597603,0.05470031872391701,0,0,0,10
1.396000066306442,0.003216403426740318,-3.366382477213135,0.05555711382356435,0.054700400680303574,0,0,0,10
1.4000000664964318,0.003216403426740318,-3.366382477213135,0.05555711382356435,0.054700467735528946,0,0,0,10
1.4040000666864216,0.003216403426740318,-3.366382477213135,0.05555711382356435,0.054700545966625214,0,0,0,10
1.4080000668764114,0.003216403426740318,-3.366382477213135,0.05555711382356435,0.0547005757689476,0,0,0,10
1.4120000670664012,0.0032478928059113993,-3.3663725288919437,0.05615697203294149,0.05470060557126999,0,0,0,10
1.416000067256391,0.0032478928059113993,-3.3663725288919437,0.05615697203294149,0.05470059812068939,0,0,0,10
1.4200000674463809,0.0032478928059113993,-3.3663725288919437,0.05615697203294149,0.05470055341720581,0,0,0,10
1.4240000676363707,0.0032478928059113993,-3.3663725288919437,0.05615697203294149,0.05470050871372223,0,0,0,10
1.4280000678263605,0.003307302070430321,-3.3663535987276387,0.057281051413445756,0.05470043420791626,0,0,0,10
1.4320000680163503,0.003307302070430321,-3.3663535987276387,0.057281051413445756,0.054700348526239395,0,0,0,10
1.43600006820634,0.003307302070430321,-3.3663535987276387,0.057281051413445756,0.054700277745723724,0,0,0,10
1.4400000683963299,0.003307302070430321,-3.3663535987276387,0.057281051413445756,0.05470024049282074,0,0,0,10
1.4440000685863197,0.003297571157886385,-3.366357432938036,0.057055100821833016,0.05470021441578865,0,0,0,10
1.4480000687763095,0.003297571157886385,-3.366357432938036,0.057055100821833016,0.054700229316949844,0,0,0,10
1.4520000689662993,0.003297571157886385,-3.366357432938036,0.057055100821833016,0.054700274020433426,0,0,0,10
1.456000069156289,0.003297571157886385,-3.366357432938036,0.057055100821833016,0.0547003298997879,0,0,0,10
1.460000069346279,0.003234783447296274,-3.366376184935072,0.05593731470197966,0.05470041185617447,0,0,0,10
1.4640000695362687,0.003234783447296274,-3.366376184935072,0.05593731470197966,0.05470049008727074,0,0,0,10
1.4680000697262585,0.003234783447296274,-3.366376184935072,0.05593731470197966,0.054700545966625214,0,0,0,10
1.4720000699162483,0.003234783447296274,-3.366376184935072,0.05593731470197966,0.054700594395399094,0,0,0,10
1.4760000701062381,0.0032351318544669677,-3.3663762458516504,0.05593363132144972,0.05470060557126999,0,0,0,10
1.480000070296228,0.0032351318544669677,-3.3663762458516504,0.05593363132144972,0.0547005832195282,0,0,0,10
1.4840000704862177,0.0032351318544669677,-3.3663762458516504,0.05593363132144972,0.05470055341720581,0,0,0,10
1.4880000706762075,0.0032351318544669677,-3.3663762458516504,0.05593363132144972,0.05470048636198044,0,0,0,10
1.4920000708661973,0.0033014014040400755,-3.3663562920796872,0.05712239870402018,0.05470040813088417,0,0,0,10
1.4960000710561872,0.0033014014040400755,-3.3663562920796872,0.05712239870402018,0.0547003298997879,0,0,0,10
1.500000071246177,0.0033014014040400755,-3.3663562920796872,0.05712239870402018,0.05470027029514313,0,0,0,10
1.5040000714361668,0.0033014014040400755,-3.3663562920796872,0.05712239870402018,0.054700225591659546,0,0,0,10
1.5080000716261566,0.0032669372997582973,-3.3663671822565258,0.056476663460964464,0.054700229316949844,0,0,0,10
1.5120000718161464,0.0032669372997582973,-3.3663671822565258,0.056476663460964464,0.05470023676753044,0,0,0,10
1.5160000720061362,0.0032669372997582973,-3.3663671822565258,0.056476663460964464,0.05470028519630432,0,0,0,10
1.520000072196126,0.0032669372997582973,-3.3663671822565258,0.056476663460964464,0.05470035970211029,0,0,0,10
1.5240000723861158,0.003205613450223327,-3.366383724805123,0.055481623792638136,0.05470043420791626,0,0,0,10
1.5280000725761056,0.003205613450223327,-3.366383724805123,0.055481623792638136,0.05470050871372223,0,0,0,10
1.5320000727660954,0.003205613450223327,-3.366383724805123,0.055481623792638136,0.054700564593076706,0,0,0,10
1.5360000729560852,0.003205613450223327,-3.366383724805123,0.055481623792638136,0.05470060184597969,0,0,0,10
1.540000073146075,0.0032311495066059672,-3.36637642718263,0.055922808497105424,0.05470060557126999,0,0,0,10
1.5440000733360648,0.0032311495066059672,-3.36637642718263,0.055922808497105424,0.0547005720436573,0,0,0,10
1.5480000735260546,0.0032311495066059672,-3.36637642718263,0.055922808497105424,0.054700519889593124,0,0,0,10
1.5520000737160444,0.0032311495066059672,-3.36637642718263,0.055922808497105424,0.05470046028494835,0,0,0,10
1.5560000739060342,0.003300366908986824,-3.3663566787727213,0.05709958953626868,0.054700374603271484,0,0,0,10
1.560000074096024,0.003300366908986824,-3.3663566787727213,0.05709958953626868,0.054700303822755814,0,0,0,10
1.5640000742860138,0.003300366908986824,-3.3663566787727213,0.05709958953626868,0.054700251668691635,0,0,0,10
1.5680000744760036,0.003300366908986824,-3.3663566787727213,0.05709958953626868,0.05470022186636925,0,0,0,10
1.5720000746659935,0.0032794304560809923,-3.3663626815443055,0.05674447636378311,0.05470021814107895,0,0,0,10
1.5760000748559833,0.0032794304560809923,-3.3663626815443055,0.05674447636378311,0.05470025911927223,0,0,0,10
1.580000075045973,0.0032794304560809923,-3.3663626815443055,0.05674447636378311,0.05470031127333641,0,0,0,10
1.5840000752359629,0.0032794304560809923,-3.3663626815443055,0.05674447636378311,0.05470037832856178,0,0,0,10
1.5880000754259527,0.0032183762336418105,-3.3663810540916774,0.05564339363714638,0.05470046401023865,0,0,0,10
1.5920000756159425,0.0032183762336418105,-3.3663810540916774,0.05564339363714638,0.05470052734017372,0,0,0,10
1.5960000758059323,0.0032183762336418105,-3.3663810540916774,0.05564339363714638,0.0547005720436573,0,0,0,10
1.600000075995922,0.0032183762336418105,-3.3663810540916774,0.05564339363714638,0.05470060929656029,0,0,0,10
1.604000076185912,0.0032288386381657155,-3.3663764224283623,0.05592316093218145,0.05470060557126999,0,0,0,10
1.6080000763759017,0.0032288386381657155,-3.3663764224283623,0.05592316093218145,0.054700564593076706,0,0,0,10
1.6120000765658915,0.0032288386381657155,-3.3663764224283623,0.05592316093218145,0.05470050126314163,0,0,0,10
1.6160000767558813,0.0032288386381657155,-3.3663764224283623,0.05592316093218145,0.05470043048262596,0,0,0,10
1.6200000769458711,0.0033061087139478395,-3.3663571585238996,0.057071078188611166,0.05470036342740059,0,0,0,10
1.624000077135861,0.0033061087139478395,-3.3663571585238996,0.057071078188611166,0.054700300097465515,0,0,0,10
1.6280000773258507,0.0033061087139478395,-3.3663571585238996,0.057071078188611166,0.05470024794340134,0,0,0,10
1.6320000775158405,0.0033061087139478395,-3.3663571585238996,0.057071078188611166,0.05470022186636925,0,0,0,10
1.6360000777058303,0.0032623576877215503,-3.3663668644154527,0.05649577360143455,0.05470021814107895,0,0,0,10
1.6400000778958201,0.0032623576877215503,-3.3663668644154527,0.05649577360143455,0.054700255393981934,0,0,0,10
1.64400007808581,0.0032623576877215503,-3.3663668644154527,0.05649577360143455,0.0547003298997879,0,0,0,10
1.6480000782757998,0.0032623576877215503,-3.3663668644154527,0.05649577360143455,0.05470041558146477,0,0,0,10
1.6520000784657896,0.003205576758097744,-3.366384734406102,0.05542021077475145,0.054700471460819244,0,0,0,10
1.6560000786557794,0.003205576758097744,-3.366384734406102,0.05542021077475145,0.054700545966625214,0,0,0,10
1.6600000788457692,0.003205576758097744,-3.366384734406102,0.05542021077475145,0.054700590670108795,0,0,0,10
1.664000079035759,0.003205576758097744,-3.366384734406102,0.05542021077475145,0.05470060929656029,0,0,0,10
1.6680000792257488,0.003256100008113976,-3.366371341970614,0.056227985356667565,0.0547005869448185,0,0,0,10
1.6720000794157386,0.003256100008113976,-3.366371341970614,0.056227985356667565,0.054700545966625214,0,0,0,10
1.6760000796057284,0.003256100008113976,-3.366371341970614,0.056227985356667565,0.05470048636198044,0,0,0,10
1.6800000797957182,0.003256100008113976,-3.366371341970614,0.056227985356667565,0.05470041185617447,0,0,0,10
1.684000079985708,0.0033026664783920696,-3.3663566988934446,0.05709833542666268,0.0547003410756588,0,0,0,10
1.6880000801756978,0.0033026664783920696,-3.3663566988934446,0.05709833542666268,0.05470028147101402,0,0,0,10
1.6920000803656876,0.0033026664783920696,-3.3663566988934446,0.05709833542666268,0.054700229316949844,0,0,0,10
1.6960000805556774,0.0033026664783920696,-3.3663566988934446,0.05709833542666268,0.05470021069049835,0,0,0,10
1.7000000807456672,0.003257390539981863,-3.3663709146622276,0.0562535765882696,0.05470024049282074,0,0,0,10
1.704000080935657,0.003257390539981863,-3.3663709146622276,0.0562535765882696,0.05470028892159462,0,0,0,10
1.7080000811256468,0.003257390539981863,-3.3663709146622276,0.0562535765882696,0.0547003448009491,0,0,0,10
1.7120000813156366,0.003257390539981863,-3.3663709146622276,0.0562535765882696,0.05470043420791626,0,0,0,10
1.7160000815056264,0.00320862385187033,-3.366383926297028,0.05546928673547109,0.054700493812561035,0,0,0,10
1.7200000816956162,0.00320862385187033,-3.366383926297028,0.05546928673547109,0.05470054969191551,0,0,0,10
1.724000081885606,0.00320862385187033,-3.366383926297028,0.05546928673547109,0.054700594395399094,0,0,0,10
1.7280000820755959,0.00320862385187033,-3.366383926297028,0.05546928673547109,0.05470060929656029,0,0,0,10
1.7320000822655857,0.003255743757415549,-3.3663685945168473,0.05639257200396058,0.0547005794942379,0,0,0,10
1.7360000824555755,0.003255743757415549,-3.3663685945168473,0.05639257200396058,0.05470052734017372,0,0,0,10
1.7400000826455653,0.003255743757415549,-3.3663685945168473,0.05639257200396058,0.054700467735528946,0,0,0,10
1.744000082835555,0.003255743757415549,-3.3663685945168473,0.05639257200396058,0.05470039322972298,0,0,0,10
1.7480000830255449,0.003307068195975151,-3.3663557869429748,0.05715205762257432,0.05470031499862671,0,0,0,10
1.7520000832155347,0.003307068195975151,-3.3663557869429748,0.05715205762257432,0.054700251668691635,0,0,0,10
1.7560000834055245,0.003307068195975151,-3.3663557869429748,0.05715205762257432,0.05470022186636925,0,0,0,10
1.7600000835955143,0.003307068195975151,-3.3663557869429748,0.05715205762257432,0.054700229316949844,0,0,0,10
1.764000083785504,0.0032462354669059866,-3.3663711985173186,0.056236871254354844,0.05470024421811104,0,0,0,10
1.768000083975494,0.0032462354669059866,-3.3663711985173186,0.056236871254354844,0.054700303822755814,0,0,0,10
1.7720000841654837,0.0032462354669059866,-3.3663711985173186,0.056236871254354844,0.054700374603271484,0,0,0,10
1.7760000843554735,0.0032462354669059866,-3.3663711985173186,0.056236871254354844,0.05470043048262596,0,0,0,10
1.7800000845454633,0.0032158823679931843,-3.366382663407717,0.05554582295937801,0.05470052734017372,0,0,0,10
1.7840000847354531,0.0032158823679931843,-3.366382663407717,0.05554582295937801,0.0547005757689476,0,0,0,10
1.788000084925443,0.0032158823679931843,-3.366382663407717,0.05554582295937801,0.05470060184597969,0,0,0,10
1.7920000851154327,0.0032158823679931843,-3.366382663407717,0.05554582295937801,0.05470060929656029,0,0,0,10
1.7960000853054225,0.0032682207878171198,-3.366366139364554,0.05653887926494897,0.0547005720436573,0,0,0,10
1.8000000854954123,0.0032682207878171198,-3.366366139364554,0.05653887926494897,0.05470052361488342,0,0,0,10
1.8040000856854022,0.0032682207878171198,-3.366366139364554,0.05653887926494897,0.054700449109077454,0,0,0,10
1.808000085875392,0.0032682207878171198,-3.366366139364554,0.05653887926494897,0.054700370877981186,0,0,0,10
1.8120000860653818,0.003306327809815738,-3.366355218533071,0.05718561584488483,0.05470029637217522,0,0,0,10
1.8160000862553716,0.003306327809815738,-3.366355218533071,0.05718561584488483,0.05470024421811104,0,0,0,10
1.8200000864453614,0.003306327809815738,-3.366355218533071,0.05718561584488483,0.05470021441578865,0,0,0,10
1.8240000866353512,0.003306327809815738,-3.366355218533071,0.05718561584488483,0.054700229316949844,0,0,0,10
1.828000086825341,0.003238512244365956,-3.3663747567228697,0.05602326494287249,0.05470025911927223,0,0,0,10
1.8320000870153308,0.003238512244365956,-3.3663747567228697,0.05602326494287249,0.05470031499862671,0,0,0,10
1.8360000872053206,0.003238512244365956,-3.3663747567228697,0.05602326494287249,0.054700396955013275,0,0,0,10
1.8400000873953104,0.003238512244365956,-3.3663747567228697,0.05602326494287249,0.05470046028494835,0,0,0,10
1.8440000875853002,0.0032046651015114,-3.3663843703386434,0.05544239082481762,0.05470053479075432,0,0,0,10
1.84800008777529,0.0032046651015114,-3.3663843703386434,0.05544239082481762,0.0547005832195282,0,0,0,10
1.8520000879652798,0.0032046651015114,-3.3663843703386434,0.05544239082481762,0.05470060557126999,0,0,0,10
1.8560000881552696,0.0032046651015114,-3.3663843703386434,0.05544239082481762,0.05470059812068939,0,0,0,10
1.8600000883452594,0.0032807495639350258,-3.3663628243538573,0.05673594914594926,0.05470054969191551,0,0,0,10
1.8640000885352492,0.0032807495639350258,-3.3663628243538573,0.05673594914594926,0.05470048636198044,0,0,0,10
1.868000088725239,0.0032807495639350258,-3.3663628243538573,0.05673594914594926,0.054700419306755066,0,0,0,10
1.8720000889152288,0.0032807495639350258,-3.3663628243538573,0.05673594914594926,0.05470035970211029,0,0,0,10
1.8760000891052186,0.003304900630555738,-3.366353998105946,0.057257597054147125,0.054700277745723724,0,0,0,10
1.8800000892952085,0.003304900630555738,-3.366353998105946,0.057257597054147125,0.05470023676753044,0,0,0,10
1.8840000894851983,0.003304900630555738,-3.366353998105946,0.057257597054147125,0.05470021814107895,0,0,0,10
1.888000089675188,0.003304900630555738,-3.366353998105946,0.057257597054147125,0.054700229316949844,0,0,0,10
1.8920000898651779,0.003269916836208561,-3.3663671238576236,0.05648006621677842,0.05470028519630432,0,0,0,10
1.8960000900551677,0.003269916836208561,-3.3663671238576236,0.05648006621677842,0.0547003373503685,0,0,0,10
1.9000000902451575,0.003269916836208561,-3.3663671238576236,0.05648006621677842,0.054700419306755066,0,0,0,10
1.9040000904351473,0.003269916836208561,-3.3663671238576236,0.05648006621677842,0.054700497537851334,0,0,0,10
1.908000090625137,0.003216320950962651,-3.3663812777624806,0.05562989171363347,0.054700542241334915,0,0,0,10
1.912000090815127,0.003216320950962651,-3.3663812777624806,0.05562989171363347,0.054700594395399094,0,0,0,10
1.9160000910051167,0.003216320950962651,-3.3663812777624806,0.05562989171363347,0.05470062419772148,0,0,0,10
1.9200000911951065,0.003216320950962651,-3.3663812777624806,0.05562989171363347,0.0547005757689476,0,0,0,10
1.9240000913850963,0.003273868303097271,-3.3663669588523297,0.056489806768336814,0.05470053851604462,0,0,0,10
1.9280000915750861,0.003273868303097271,-3.3663669588523297,0.056489806768336814,0.054700471460819244,0,0,0,10
1.932000091765076,0.003273868303097271,-3.3663669588523297,0.056489806768336814,0.05470040813088417,0,0,0,10
1.9360000919550657,0.003273868303097271,-3.3663669588523297,0.056489806768336814,0.054700326174497604,0,0,0,10
1.9400000921450555,0.0033153001825864717,-3.3663527503080872,0.05733076219573027,0.05470026656985283,0,0,0,10
1.9440000923350453,0.0033153001825864717,-3.3663527503080872,0.05733076219573027,0.054700225591659546,0,0,0,10
1.9480000925250351,0.0033153001825864717,-3.3663527503080872,0.05733076219573027,0.05470022186636925,0,0,0,10
1.952000092715025,0.0033153001825864717,-3.3663527503080872,0.05733076219573027,0.05470023676753044,0,0,0,10
1.9560000929050148,0.0032658304566785955,-3.3663672411290255,0.056473178740729706,0.05470028519630432,0,0,0,10
1.9600000930950046,0.0032658304566785955,-3.3663672411290255,0.056473178740729706,0.05470036715269089,0,0,0,10
1.9640000932849944,0.0032658304566785955,-3.3663672411290255,0.056473178740729706,0.05470043793320656,0,0,0,10
1.9680000934749842,0.0032658304566785955,-3.3663672411290255,0.056473178740729706,0.054700516164302826,0,0,0,10
1.972000093664974,0.0032307564433025457,-3.3663781601483556,0.055818195156595654,0.05470056086778641,0,0,0,10
1.9760000938549638,0.0032307564433025457,-3.3663781601483556,0.055818195156595654,0.054700594395399094,0,0,0,10
1.9800000940449536,0.0032307564433025457,-3.3663781601483556,0.055818195156595654,0.05470059812068939,0,0,0,10
1.9840000942349434,0.0032307564433025457,-3.3663781601483556,0.055818195156595654,0.0547005720436573,0,0,0,10
1.9880000944249332,0.003282554196005292,-3.3663624019703686,0.05676100369818412,0.054700519889593124,0,0,0,10
1.992000094614923,0.003282554196005292,-3.3663624019703686,0.05676100369818412,0.05470045655965805,0,0,0,10
1.9960000948049128,0.003282554196005292,-3.3663624019703686,0.05676100369818412,0.05470037832856178,0,0,0,10
2.0000000949949026,0.003282554196005292,-3.3663624019703686,0.05676100369818412,0.05470031127333641,0,0,0,10
2.0040000951848924,0.003316930677583151,-3.3663525801159446,0.05734072810159763,0.05470024421811104,0,0,0,10
2.008000095374882,0.003316930677583151,-3.3663525801159446,0.05734072810159763,0.054700225591659546,0,0,0,10
2.012000095564872,0.003316930677583151,-3.3663525801159446,0.05734072810159763,0.05470022186636925,0,0,0,10
2.016000095754862,0.003316930677583151,-3.3663525801159446,0.05734072810159763,0.05470026284456253,0,0,0,10
2.0200000959448516,0.0032654047941654664,-3.366368296930513,0.05641009398941045,0.05470030754804611,0,0,0,10
2.0240000961348414,0.0032654047941654664,-3.366368296930513,0.05641009398941045,0.054700370877981186,0,0,0,10
2.0280000963248312,0.0032654047941654664,-3.366368296930513,0.05641009398941045,0.05470045655965805,0,0,0,10
2.032000096514821,0.0032654047941654664,-3.366368296930513,0.05641009398941045,0.05470052361488342,0,0,0,10
2.036000096704811,0.0032267952273012934,-3.366379368002748,0.05574527010556919,0.0547005832195282,0,0,0,10
2.0400000968948007,0.0032267952273012934,-3.366379368002748,0.05574527010556919,0.054700613021850586,0,0,0,10
2.0440000970847905,0.0032267952273012934,-3.366379368002748,0.05574527010556919,0.05470060184597969,0,0,0,10
2.0480000972747803,0.0032267952273012934,-3.366379368002748,0.05574527010556919,0.0547005794942379,0,0,0,10
2.05200009746477,0.0032795041795319535,-3.366362572790785,0.056750938525424045,0.054700493812561035,0,0,0,10
2.05600009765476,0.0032795041795319535,-3.366362572790785,0.056750938525424045,0.05470043420791626,0,0,0,10
2.0600000978447497,0.0032795041795319535,-3.366362572790785,0.056750938525424045,0.05470036342740059,0,0,0,10
2.0640000980347395,0.0032795041795319535,-3.366362572790785,0.056750938525424045,0.05470028892159462,0,0,0,10
2.0680000982247293,0.0033053963481189477,-3.3663561380149414,0.05713138164149945,0.05470023676753044,0,0,0,10
2.072000098414719,0.0033053963481189477,-3.3663561380149414,0.05713138164149945,0.05470021069049835,0,0,0,10
2.076000098604709,0.0033053963481189477,-3.3663561380149414,0.05713138164149945,0.054700229316949844,0,0,0,10
2.0800000987946987,0.0033053963481189477,-3.3663561380149414,0.05713138164149945,0.05470025911927223,0,0,0,10
2.0840000989846885,0.003254894383417866,-3.3663727265440797,0.05614489872467086,0.0547003298997879,0,0,0,10
2.0880000991746783,0.003254894383417866,-3.3663727265440797,0.05614489872467086,0.054700400680303574,0,0,0,10
2.092000099364668,0.003254894383417866,-3.3663727265440797,0.05614489872467086,0.05470047518610954,0,0,0,10
2.096000099554658,0.003254894383417866,-3.3663727265440797,0.05614489872467086,0.054700542241334915,0,0,0,10
2.1000000997446477,0.0032303169126295613,-3.366377060383613,0.055884626634924925,0.054700594395399094,0,0,0,10
2.1040000999346375,0.0032303169126295613,-3.366377060383613,0.055884626634924925,0.05470059812068939,0,0,0,10
2.1080001001246274,0.0032303169126295613,-3.366377060383613,0.055884626634924925,0.0547005869448185,0,0,0,10
2.112000100314617,0.0032303169126295613,-3.366377060383613,0.055884626634924925,0.05470055341720581,0,0,0,10
2.116000100504607,0.003303460585850275,-3.3663572036377527,0.057068487428712726,0.054700471460819244,0,0,0,10
2.1200001006945968,0.003303460585850275,-3.3663572036377527,0.057068487428712726,0.054700400680303574,0,0,0,10
2.1240001008845866,0.003303460585850275,-3.3663572036377527,0.057068487428712726,0.0547003373503685,0,0,0,10
2.1280001010745764,0.003303460585850275,-3.3663572036377527,0.057068487428712726,0.05470027029514313,0,0,0,10
2.132000101264566,0.00329292010909027,-3.366358261642448,0.057006219776445356,0.054700251668691635,0,0,0,10
2.136000101454556,0.00329292010909027,-3.366358261642448,0.057006219776445356,0.05470021441578865,0,0,0,10
2.140000101644546,0.00329292010909027,-3.366358261642448,0.057006219776445356,0.05470024049282074,0,0,0,10
2.1440001018345356,0.00329292010909027,-3.366358261642448,0.057006219776445356,0.05470028147101402,0,0,0,10
2.1480001020245254,0.0032356073888153906,-3.3663756511090948,0.05596947220327579,0.0547003448009491,0,0,0,10
2.152000102214515,0.0032356073888153906,-3.3663756511090948,0.05596947220327579,0.05470042675733566,0,0,0,10
2.156000102404505,0.0032356073888153906,-3.3663756511090948,0.05596947220327579,0.05470049008727074,0,0,0,10
2.160000102594495,0.0032356073888153906,-3.3663756511090948,0.05596947220327579,0.05470056086778641,0,0,0,10
2.1640001027844846,0.0032258134108337864,-3.3663765838894752,0.055913507244319406,0.05470060557126999,0,0,0,10
2.1680001029744744,0.0032258134108337864,-3.3663765838894752,0.055913507244319406,0.054700594395399094,0,0,0,10
2.1720001031644642,0.0032258134108337864,-3.3663765838894752,0.055913507244319406,0.0547005832195282,0,0,0,10
2.176000103354454,0.0032258134108337864,-3.3663765838894752,0.055913507244319406,0.05470052734017372,0,0,0,10
2.180000103544444,0.0033007883865515475,-3.366357008055751,0.057080122423521375,0.05470046028494835,0,0,0,10
